[{"type": "way", "id": 4797516, "center": {"lat": 52.4284928, "lon": 9.409126}, "tags": {"landuse": "industrial"}}, {"type": "way", "id": 4960299, "center": {"lat": 52.4249119, "lon": 9.4456649}, "tags": {"landuse": "industrial"}}, {"type": "way", "id": 5016500, "center": {"lat": 51.8127365, "lon": 10.3400378}, "tags": {"landuse": "industrial", "name": "Baubetriebshof Clausthal-Zellerfeld", "operator": "Eigenbetriebe Baubetriebshof und Abwasserbetrieb Clausthal-Zellerfeld", "website": "http://www.baubetriebshof-clausthal.de"}}, {"type": "way", "id": 5088551, "center": {"lat": 52.4484618, "lon": 9.7015904}, "tags": {"landuse": "industrial"}}, {"type": "way", "id": 5384759, "center": {"lat": 52.4195402, "lon": 9.7200266}, "tags": {"landuse": "industrial", "name": "Brink-Hafen"}}, {"type": "way", "id": 5784148, "center": {"lat": 52.3465664, "lon": 9.2973602}, "tags": {"landuse": "industrial"}}, {"type": "way", "id": 5848355, "center": {"lat": 52.3282688, "lon": 9.3620599}, "tags": {"description": "Ruine einer M\u00f6bel-Fabrik", "landuse": "industrial", "loc_name": "Harms-Gel\u00e4nde"}}, {"type": "way", "id": 6198470, "center": {"lat": 52.3434316, "lon": 9.3873654}, "tags": {"landuse": "industrial"}}, {"type": "way", "id": 8162812, "center": {"lat": 52.3447691, "lon": 9.3817832}, "tags": {"landuse": "industrial"}}, {"type": "way", "id": 8879842, "center": {"lat": 52.3981669, "lon": 9.6803939}, "tags": {"landuse": "industrial", "name": "Heizkraftwerk Herrenhausen", "name:en": "Herrenhausen Power Plant", "name:fr": "Centrale thermique de Herrenhausen", "plant:method": "combustion", "plant:output:electricity": "100 MW", "plant:source": "gas", "power": "plant", "ref:EU:ENTSOE_EIC": "11WD2HERR5GKW--1", "wikidata": "Q1786115", "wikimedia_commons": "Category:Kraftwerk Herrenhausen (Hannover)", "wikipedia": "de:Kraftwerk Herrenhausen"}}, {"type": "way", "id": 9317647, "center": {"lat": 51.8038943, "lon": 10.3578183}, "tags": {"addr:city": "Clausthal-Zellerfeld", "addr:country": "DE", "addr:housenumber": "51", "addr:postcode": "38678", "addr:street": "Altenauer Stra\u00dfe", "addr:suburb": "Clausthal", "amenity": "recycling", "contact:fax": "+49 5323 953738", "contact:phone": "+49 5323 2744", "contact:website": "https://www.kwb-goslar.de/Abfallwirtschaft/Standorte-%C3%96ffnungszeiten/index.php?ModID=9&object=tx%7C2523.10&FID=62.1769.1&NavID=2523.82&La=1", "landuse": "industrial", "name": "M\u00fcllumschlagstation Clausthal-Zellerfeld", "opening_hours": "Tu 08:00-12:00; We 13:00-16:00; Fr 12:00-16:00; Sa 08:30-12:00", "operator": "Samtgemeinde Oberharz", "recycling_type": "centre"}}, {"type": "way", "id": 9395655, "center": {"lat": 52.4303299, "lon": 9.7463603}, "tags": {"landuse": "industrial", "name": "Industriegebiet Langenforth"}}, {"type": "way", "id": 10042741, "center": {"lat": 52.1904643, "lon": 11.375754}, "tags": {"landuse": "industrial"}}, {"type": "way", "id": 10522178, "center": {"lat": 52.2768886, "lon": 10.4975003}, "tags": {"landuse": "industrial"}}, {"type": "way", "id": 10529338, "center": {"lat": 52.2564392, "lon": 10.4979185}, "tags": {"landuse": "industrial"}}, {"type": "way", "id": 10646306, "center": {"lat": 52.1215396, "lon": 11.5931467}, "tags": {"landuse": "industrial"}}, {"type": "way", "id": 10871112, "center": {"lat": 52.4563552, "lon": 10.5507234}, "tags": {"landuse": "industrial", "name": "Gewerbe- und Industriegebiet Am Allerkanal"}}, {"type": "way", "id": 11117541, "center": {"lat": 52.2029138, "lon": 11.6619409}, "tags": {"barrier": "fence", "landuse": "industrial"}}, {"type": "way", "id": 11117726, "center": {"lat": 52.2058032, "lon": 11.6584969}, "tags": {"landuse": "industrial"}}, {"type": "way", "id": 11119115, "center": {"lat": 52.1962985, "lon": 11.6593487}, "tags": {"barrier": "fence", "landuse": "industrial", "name": "Quarzforms", "name_old": "Artolith Gmbh"}}, {"type": "way", "id": 11119614, "center": {"lat": 52.2027374, "lon": 11.6700483}, "tags": {"landuse": "industrial"}}, {"type": "way", "id": 11390695, "center": {"lat": 52.4442667, "lon": 10.5902003}, "tags": {"landuse": "industrial"}}, {"type": "way", "id": 11392137, "center": {"lat": 52.1849238, "lon": 11.6812862}, "tags": {"landuse": "industrial"}}, {"type": "way", "id": 11406750, "center": {"lat": 52.1216291, "lon": 11.6013353}, "tags": {"landuse": "industrial", "old_name": "MAW zuvor Polte Armaturenwerke"}}, {"type": "way", "id": 11407337, "center": {"lat": 52.2011805, "lon": 11.6518337}, "tags": {"barrier": "fence", "landuse": "industrial", "name": "Schuberth GmbH"}}, {"type": "way", "id": 11407353, "center": {"lat": 52.1984503, "lon": 11.6513731}, "tags": {"landuse": "industrial"}}, {"type": "way", "id": 11407384, "center": {"lat": 52.1987182, "lon": 11.6473964}, "tags": {"landuse": "industrial"}}, {"type": "way", "id": 11407630, "center": {"lat": 52.1992549, "lon": 11.6734209}, "tags": {"barrier": "fence", "landuse": "industrial", "name": "Stork Umweltdienste GmbH"}}, {"type": "way", "id": 11407636, "center": {"lat": 52.2010104, "lon": 11.6733572}, "tags": {"landuse": "industrial", "source": "Bing"}}, {"type": "way", "id": 11915938, "center": {"lat": 52.3570583, "lon": 9.7090404}, "tags": {"landuse": "industrial"}}, {"type": "way", "id": 11967090, "center": {"lat": 52.1651101, "lon": 11.5036571}, "tags": {"addr:city": "Hohe B\u00f6rde", "addr:country": "DE", "addr:housenumber": "9A", "addr:postcode": "39326", "addr:street": "Am Rasthof", "addr:suburb": "Hohenwarsleben", "landuse": "industrial", "name": "Kann Beton"}}, {"type": "way", "id": 13212013, "center": {"lat": 52.282815, "lon": 11.4426353}, "tags": {"addr:city": "Haldensleben", "addr:country": "DE", "addr:housenumber": "1", "addr:postcode": "39340", "addr:street": "Hamburger Stra\u00dfe", "contact:fax": "+49 3904 61113211", "contact:phone": "+49 3904 613211", "landuse": "industrial", "name": "Hermes Logistikzentrum Haldensleben", "operator": "Hermes Fulfilment GmbH", "start_date": "1991"}}, {"type": "way", "id": 13856635, "center": {"lat": 52.1623241, "lon": 10.352384}, "tags": {"landuse": "industrial"}}, {"type": "way", "id": 13872503, "center": {"lat": 52.4083656, "lon": 9.8023614}, "tags": {"landuse": "industrial", "name": "Betriebshof Buchholz", "operator": "\u00dcSTRA Hannoversche Verkehrsbetriebe AG"}}, {"type": "way", "id": 15119971, "center": {"lat": 52.4617596, "lon": 10.5446692}, "tags": {"landuse": "industrial"}}, {"type": "way", "id": 17073714, "center": {"lat": 52.9103631, "lon": 9.6525423}, "tags": {"landuse": "industrial", "name": "Industriepark Walsrode", "wikidata": "Q1662107"}}, {"type": "way", "id": 20039863, "center": {"lat": 52.2526218, "lon": 8.936088}, "tags": {"landuse": "industrial"}}, {"type": "way", "id": 21613535, "center": {"lat": 51.8125762, "lon": 11.3179013}, "tags": {"landuse": "industrial", "name": "Novelis"}}, {"type": "way", "id": 22414253, "center": {"lat": 52.3534211, "lon": 9.7544094}, "tags": {"addr:city": "Hannover", "addr:country": "DE", "addr:housenumber": "132", "addr:postcode": "30173", "addr:street": "Hildesheimer Stra\u00dfe", "industrial": "brewery", "landuse": "industrial", "name": "Gilde Brauerei GmbH", "name:de": "Gilde Brauerei GmbH", "name:en": "Gilde Brewery", "note": "1,591 Mio. hl (2002) #18 in Germany", "operator": "seit 2016: eine mittelst\u00e4ndische Brauereigruppe, zu der bereits das Frankfurter Brauhaus (Frankfurt/Oder), die Feldschl\u00f6\u00dfchen Brauerei (Dresden) und die franz\u00f6sische Brauerei Brasserie Champigneulles geh\u00f6ren.", "website": "https://www.gilde-brauerei.com", "wikidata": "Q1524208", "wikimedia_commons": "Category:Gilde Brauerei", "wikipedia": "de:Gilde Brauerei"}}, {"type": "way", "id": 22716039, "center": {"lat": 51.8444875, "lon": 10.7543536}, "tags": {"addr:city": "Wernigerode", "addr:country": "DE", "addr:housenumber": "1", "addr:postcode": "38855", "addr:street": "Auerhahnring", "brand:wikidata": "Q20871058", "contact:email": "info@hasseroeder.de", "contact:facebook": "https://www.facebook.com/Hasseroeder", "contact:website": "https://www.hasseroeder.de/", "industrial": "brewery", "landuse": "industrial", "name": "Hasser\u00f6der Brauerei", "note": "2,38 Mio. hl (2002) #10 in Germany", "operator": "Anheuser-Busch InBev", "wikidata": "Q20871058"}}, {"type": "way", "id": 22794386, "center": {"lat": 52.3113438, "lon": 10.631716}, "tags": {"landuse": "industrial", "name": "Gewerbegebiet Wendhausen"}}, {"type": "way", "id": 22897174, "center": {"lat": 52.1451318, "lon": 11.6604059}, "tags": {"landuse": "industrial"}}, {"type": "way", "id": 22984991, "center": {"lat": 52.48678, "lon": 10.5186054}, "tags": {"landuse": "industrial"}}, {"type": "way", "id": 23044363, "center": {"lat": 52.0086814, "lon": 10.3621002}, "tags": {"area": "yes", "industrial": "compost", "landuse": "industrial", "name": "Kompostwerk Upen", "operator": "Gesellschaft f\u00fcr Biokompost mbH"}}, {"type": "way", "id": 23083171, "center": {"lat": 52.8553947, "lon": 9.6952258}, "tags": {"landuse": "industrial"}}, {"type": "way", "id": 23083469, "center": {"lat": 52.8604588, "lon": 9.7093789}, "tags": {"landuse": "industrial"}}, {"type": "way", "id": 23083604, "center": {"lat": 52.8659717, "lon": 9.6244022}, "tags": {"landuse": "industrial"}}, {"type": "way", "id": 23113794, "center": {"lat": 53.0139769, "lon": 11.7278028}, "tags": {"landuse": "industrial", "name": "Gewerbegebiet Wittenberge Nord"}}, {"type": "way", "id": 23226654, "center": {"lat": 52.6557744, "lon": 9.2051412}, "tags": {"landuse": "industrial", "name": "Industriepark Nienburg"}}, {"type": "way", "id": 23329075, "center": {"lat": 52.4787647, "lon": 10.6592717}, "tags": {"landuse": "industrial"}}, {"type": "way", "id": 23329167, "center": {"lat": 52.4784622, "lon": 10.6552588}, "tags": {"landuse": "industrial"}}, {"type": "way", "id": 23353599, "center": {"lat": 53.0647034, "lon": 11.8953689}, "tags": {"landuse": "industrial"}}, {"type": "way", "id": 23681460, "center": {"lat": 52.3141196, "lon": 10.0905668}, "tags": {"abandoned": "yes", "addr:city": "Hohenhameln", "addr:housenumber": "25", "addr:postcode": "31249", "addr:street": "Triftstra\u00dfe", "barrier": "fence", "fixme": "Ist  dauerhaft abgeschaltet.", "landuse": "industrial", "name": "Gemeinschaftskraftwerk Mehrum", "operator": "Kraftwerk Mehrum GmbH", "phone": "+49 5128 740", "plant:method": "combustion", "plant:output:electricity": "no", "plant:source": "coal", "power": "plant", "ref:EU:ENTSOE_EIC": "11WD2MEHR2CSWH-O", "website": "https://www.kraftwerk-mehrum.de/", "wikidata": "Q318007", "wikipedia": "de:Kraftwerk Mehrum"}}, {"type": "way", "id": 23773034, "center": {"lat": 52.0341828, "lon": 9.4093795}, "tags": {"access": "private", "barrier": "fence", "disused:plant:output:electricity": "1430 MW", "disused:power": "plant", "end_date": "2021-12-31", "landuse": "industrial", "name": "Kernkraftwerk Grohnde", "name:en": "Grohnde Nuclear Power Plant", "name:fr": "Centrale nucl\u00e9aire de Grohnde", "name:uk": "\u0410\u0415\u0421 \u0413\u0440\u043e\u043d\u0434\u0435", "operator": "Gemeinschaftskernkraftwerk Grohnde GmbH & Co. oHG", "plant:method": "fission", "plant:source": "nuclear", "ref": "KWG", "ref:EU:ENTSOE_EIC": "11WD2GHKW000296G", "ref:mastr": "SEE930752846949", "start_date": "1985-02-01", "wikidata": "Q657018", "wikipedia": "de:Kernkraftwerk Grohnde"}}, {"type": "way", "id": 24008057, "center": {"lat": 52.3201813, "lon": 9.7239765}, "tags": {"landuse": "industrial"}}, {"type": "way", "id": 24026237, "center": {"lat": 52.3656204, "lon": 9.6981711}, "tags": {"landuse": "industrial"}}, {"type": "way", "id": 24026321, "center": {"lat": 52.3744934, "lon": 9.682498}, "tags": {"landuse": "industrial", "name": "Henkel"}}, {"type": "way", "id": 24026322, "center": {"lat": 52.3656868, "lon": 9.686149}, "tags": {"landuse": "industrial"}}, {"type": "way", "id": 24157479, "center": {"lat": 51.7965422, "lon": 9.9138775}, "tags": {"landuse": "industrial"}}, {"type": "way", "id": 24180798, "center": {"lat": 52.5031218, "lon": 9.8519925}, "tags": {"landuse": "industrial", "name": "Bauhof Burgwedel"}}, {"type": "way", "id": 24209824, "center": {"lat": 51.4948997, "lon": 10.0108145}, "tags": {"alt_name": "Gewerbegebiet II", "landuse": "industrial", "name": "Gewerbegebiet Kleines Feld", "start_date": "1993"}}, {"type": "way", "id": 24249628, "center": {"lat": 52.1674662, "lon": 10.5477525}, "tags": {"landuse": "industrial", "name": "Mast-J\u00e4germeister SE"}}, {"type": "way", "id": 24269715, "center": {"lat": 52.3840241, "lon": 9.9291121}, "tags": {"landuse": "industrial", "name": "Erd\u00f6lfeld Lehrte", "operator": "5P Energy GmbH, Ahrensburger Strasse 1, 30659 Hannover", "phone": "+49 511 2614 2057"}}, {"type": "way", "id": 24269732, "center": {"lat": 52.3822266, "lon": 9.9493316}, "tags": {"landuse": "industrial", "layer": "-1", "name": "DPD"}}, {"type": "way", "id": 24270942, "center": {"lat": 52.3830296, "lon": 9.9524365}, "tags": {"landuse": "industrial", "layer": "1", "name": "Hellmann"}}, {"type": "way", "id": 24272530, "center": {"lat": 52.30492, "lon": 10.5070289}, "tags": {"barrier": "fence", "landuse": "industrial", "name": "Heizkraftwerk Nord", "operator": "Braunschweiger Versorgungs AG", "plant:method": "combustion", "plant:output:electricity": "25 MW", "plant:output:heat": "yes", "plant:source": "gas;oil", "power": "plant", "source": "landsat"}}, {"type": "way", "id": 24355257, "center": {"lat": 52.5164324, "lon": 9.7367691}, "tags": {"landuse": "industrial", "layer": "-2", "name": "Gewerbegebiet Bissendorf 1"}}, {"type": "way", "id": 24402200, "center": {"lat": 52.2989891, "lon": 9.4704097}, "tags": {"landuse": "industrial"}}, {"type": "way", "id": 24410035, "center": {"lat": 52.7749496, "lon": 9.3922169}, "tags": {"landuse": "industrial"}}, {"type": "way", "id": 24455401, "center": {"lat": 53.0238526, "lon": 9.0642418}, "tags": {"landuse": "industrial", "name": "Gewerbegebiet Achim-Ost"}}, {"type": "way", "id": 24481091, "center": {"lat": 52.2589465, "lon": 10.351439}, "tags": {"landuse": "industrial"}}, {"type": "way", "id": 24489964, "center": {"lat": 52.5170416, "lon": 9.7456382}, "tags": {"landuse": "industrial", "layer": "-2", "name": "Gewerbegebiet Bissendorf 2"}}, {"type": "way", "id": 24556804, "center": {"lat": 52.1851378, "lon": 11.6760751}, "tags": {"landuse": "industrial", "name": "M\u00fcllheizkraftwerk Rothensee", "operator": "M\u00fcllheizkraftwerk Rothensee GmbH", "plant:method": "combustion", "plant:output:electricity": "58.4 MW", "plant:output:heat": "yes", "plant:source": "waste", "power": "plant", "website": "https://www.mhkw-rothensee.de/", "wikidata": "Q19365343", "wikipedia": "de:M\u00fcllheizkraftwerk Magdeburg-Rothensee"}}, {"type": "way", "id": 24596528, "center": {"lat": 52.2876981, "lon": 10.5701275}, "tags": {"landuse": "industrial"}}, {"type": "way", "id": 24666895, "center": {"lat": 51.5775697, "lon": 8.9770276}, "tags": {"landuse": "industrial", "name": "Bentelerwerke"}}, {"type": "way", "id": 24752389, "center": {"lat": 51.5794304, "lon": 8.9843294}, "tags": {"landuse": "industrial", "operator": "Benteler"}}, {"type": "way", "id": 24774376, "center": {"lat": 52.2179467, "lon": 9.5637866}, "tags": {"landuse": "industrial"}}, {"type": "way", "id": 24803549, "center": {"lat": 52.3307385, "lon": 10.5058289}, "tags": {"landuse": "industrial", "name": "Industriegebiet Gieselweg"}}, {"type": "way", "id": 24899609, "center": {"lat": 51.9420147, "lon": 10.4347909}, "tags": {"addr:housenumber": "30", "addr:street": "Am Gr\u00e4bicht", "disused:name": "Harzer Grauhof Brunnen GmbH", "landuse": "industrial"}}, {"type": "way", "id": 24900490, "center": {"lat": 51.9093261, "lon": 10.4845779}, "tags": {"landuse": "industrial", "source": "landsat, knowledge, extrapolation"}}, {"type": "way", "id": 24924573, "center": {"lat": 51.4915686, "lon": 10.8087256}, "tags": {"landuse": "industrial"}}, {"type": "way", "id": 24924574, "center": {"lat": 51.4927718, "lon": 10.7979097}, "tags": {"landuse": "industrial"}}, {"type": "way", "id": 24924576, "center": {"lat": 51.4962282, "lon": 10.7754915}, "tags": {"landuse": "industrial", "name": "IFA - Industriepark"}}, {"type": "way", "id": 24924577, "center": {"lat": 51.5059879, "lon": 10.7736656}, "tags": {"landuse": "industrial"}}, {"type": "way", "id": 24927594, "center": {"lat": 52.1972892, "lon": 9.066223}, "tags": {"addr:city": "Rinteln", "addr:housenumber": "17", "addr:postcode": "31737", "addr:street": "Stoevesandtstra\u00dfe", "landuse": "industrial", "name": "Glash\u00fctte OI", "website": "https://www.o-i.com/About-O-I/"}}, {"type": "way", "id": 24929721, "center": {"lat": 52.0982198, "lon": 9.3823755}, "tags": {"landuse": "industrial"}}, {"type": "way", "id": 24930565, "center": {"lat": 52.1201612, "lon": 9.349806}, "tags": {"landuse": "industrial"}}, {"type": "way", "id": 24930668, "center": {"lat": 51.9839619, "lon": 9.8152603}, "tags": {"landuse": "industrial", "name": "Business-Center-Hackelmasch"}}, {"type": "way", "id": 24930680, "center": {"lat": 51.9875345, "lon": 9.8185658}, "tags": {"addr:city": "Alfeld (Leine)", "addr:housenumber": "1", "addr:postcode": "31061", "addr:street": "M\u00fchlenmasch", "email": "InfoAlfeld@sappi.com", "fax": "+49 5181 7 7208", "industrial": "paper_mill", "landuse": "industrial", "name": "Sappi", "operator": "Sappi Alfeld GmbH", "phone": "+49 5181 770", "website": "https://www.sappi.com/de/alfeld-mill"}}, {"type": "way", "id": 24930760, "center": {"lat": 51.9854527, "lon": 9.8077948}, "tags": {"landuse": "industrial"}}, {"type": "way", "id": 24930993, "center": {"lat": 51.9824662, "lon": 9.8117064}, "tags": {"landuse": "industrial"}}, {"type": "way", "id": 24931090, "center": {"lat": 51.9969948, "lon": 9.7954907}, "tags": {"landuse": "industrial", "name": "Limmer"}}, {"type": "way", "id": 24931416, "center": {"lat": 51.9917498, "lon": 9.8396482}, "tags": {"landuse": "industrial"}}, {"type": "way", "id": 24937680, "center": {"lat": 52.014006, "lon": 11.758541}, "tags": {"landuse": "industrial"}}, {"type": "way", "id": 24937842, "center": {"lat": 52.010295, "lon": 11.7581947}, "tags": {"landuse": "industrial"}}, {"type": "way", "id": 24951061, "center": {"lat": 52.0364675, "lon": 11.709272}, "tags": {"landuse": "industrial"}}, {"type": "way", "id": 25028970, "center": {"lat": 52.3136207, "lon": 10.4942524}, "tags": {"landuse": "industrial", "name": "Gewerbegebiet Hansestra\u00dfe Ost"}}, {"type": "way", "id": 25029480, "center": {"lat": 52.3203838, "lon": 10.4725864}, "tags": {"landuse": "industrial", "name": "Gewerbegebiet Hansestra\u00dfe West"}}, {"type": "way", "id": 25039395, "center": {"lat": 52.1717711, "lon": 9.087499}, "tags": {"landuse": "industrial"}}, {"type": "way", "id": 25066242, "center": {"lat": 52.1880271, "lon": 9.1076736}, "tags": {"landuse": "industrial"}}, {"type": "way", "id": 25075486, "center": {"lat": 52.1501551, "lon": 10.5529494}, "tags": {"landuse": "industrial", "name": "MKN Maschinenfabrik Kurt Neubauer GmbH & Co. KG"}}, {"type": "way", "id": 25095388, "center": {"lat": 52.4205131, "lon": 9.829187}, "tags": {"landuse": "industrial"}}, {"type": "way", "id": 25150770, "center": {"lat": 51.8320189, "lon": 9.3086456}, "tags": {"landuse": "industrial", "name": "Gewerbegebiet F\u00fcrstenau"}}, {"type": "way", "id": 25152832, "center": {"lat": 52.2519217, "lon": 10.5455642}, "tags": {"addr:city": "Braunschweig", "addr:housenumber": "22", "addr:postcode": "38126", "addr:street": "Ackerstra\u00dfe", "industrial": "factory", "landuse": "industrial", "name": "Siemens Mobility GmbH", "phone": "+49 531 2260", "wikipedia": "de:Siemens-Werk Braunschweig"}}, {"type": "way", "id": 25214209, "center": {"lat": 52.060599, "lon": 10.0017433}, "tags": {"addr:housenumber": "12", "addr:street": "Griesbergstra\u00dfe", "landuse": "industrial", "name": "Cirkel GmbH & Co. KG", "phone": "+49 50639060", "website": "https://www.cirkel.de/de/unser-unternehmen/standorte"}}, {"type": "way", "id": 25214318, "center": {"lat": 52.0461874, "lon": 10.0019809}, "tags": {"landuse": "industrial", "name": "TecCenter"}}, {"type": "way", "id": 25297726, "center": {"lat": 52.4323442, "lon": 10.7869223}, "tags": {"addr:city": "Wolfsburg", "addr:housenumber": "5", "addr:postcode": "38440", "addr:street": "S\u00fcdstra\u00dfe", "building": "industrial", "building:colour": "red", "building:levels": "7", "building:material": "brick", "heritage:operator": "nld", "landuse": "industrial", "name": "Heizkraftwerk Wolfsburg Nord/S\u00fcd", "nld:criteria": "Industriedenkmal", "operator": "Volkswagen Kraftwerk GmbH", "plant:method": "combustion", "plant:output:electricity": "123 MW", "plant:output:heat": "755 MW", "plant:source": "coal;gas;oil", "power": "plant", "ref:EU:ENTSOE_EIC": "11WD2WBNK000318M", "roof:shape": "flat", "start_date": "1938", "wikidata": "Q15814996", "wikimedia_commons": "Category:Heizkraftwerk_Wolfsburg_Nord", "wikipedia": "de:Heizkraftwerk Wolfsburg Nord/S\u00fcd"}}, {"type": "way", "id": 25317000, "center": {"lat": 52.9821405, "lon": 9.5963369}, "tags": {"landuse": "industrial", "name": "Gewerbepark"}}, {"type": "way", "id": 25372664, "center": {"lat": 52.6340471, "lon": 10.7660844}, "tags": {"barrier": "fence", "fence_type": "chain_link", "height": "2.5", "landuse": "industrial", "name": "Volkswagen Pr\u00fcfgel\u00e4nde Ehra-Lessien", "wikidata": "Q9360121", "wikipedia": "de:Testgel\u00e4nde Ehra-Lessien"}}, {"type": "way", "id": 25416645, "center": {"lat": 52.4449791, "lon": 10.2721365}, "tags": {"landuse": "industrial"}}, {"type": "way", "id": 25470407, "center": {"lat": 52.4436688, "lon": 10.7891934}, "tags": {"landuse": "industrial", "name": "Volkswagen Service Academy"}}, {"type": "way", "id": 25471431, "center": {"lat": 52.4591225, "lon": 10.7488668}, "tags": {"alt_name": "Gewerbegebiet Warmenau Nord", "landuse": "industrial", "name": "Industriegebiet Warmenau Nord"}}, {"type": "way", "id": 25475718, "center": {"lat": 51.8245371, "lon": 9.2443787}, "tags": {"landuse": "industrial", "name": "Gewerbegebiet V\u00f6rden"}}, {"type": "way", "id": 25479312, "center": {"lat": 51.2582525, "lon": 10.6539751}, "tags": {"landuse": "industrial"}}, {"type": "way", "id": 25537954, "center": {"lat": 52.4157702, "lon": 10.7199389}, "tags": {"addr:city": "Wolfsburg", "addr:housenumber": "13", "addr:postcode": "38442", "addr:street": "Hinterm Hagen", "landuse": "industrial", "name": "LSW Netzbetrieb Fallersleben"}}, {"type": "way", "id": 25544464, "center": {"lat": 51.6417443, "lon": 10.1641299}, "tags": {"landuse": "industrial", "name": "Jacobi Tonwerke"}}, {"type": "way", "id": 25593283, "center": {"lat": 51.3183504, "lon": 11.9843637}, "tags": {"landuse": "industrial", "name": "Industriegebiet Merseburg-S\u00fcd"}}, {"type": "way", "id": 25607700, "center": {"lat": 52.4300165, "lon": 10.7435492}, "tags": {"email": "info@sitech-sitztechnik.de", "landuse": "industrial", "name": "brose sitech Interior Solutions", "website": "https://www.sitech-sitztechnik.de"}}, {"type": "way", "id": 25607718, "center": {"lat": 52.4278115, "lon": 10.7414517}, "tags": {"barrier": "fence", "landuse": "industrial", "name": "Schnellecke"}}, {"type": "way", "id": 25640372, "center": {"lat": 51.2431148, "lon": 10.6624122}, "tags": {"landuse": "industrial"}}, {"type": "way", "id": 25682449, "center": {"lat": 51.454372, "lon": 9.7246644}, "tags": {"landuse": "industrial", "old_name:1908-1956": "Zucker- und Kandisfabrik Chr. W\u00fcstefeld", "old_name:1956-2004": "Hemo Mohr (Futtermittelfabrik)", "operator": "F. Bei\u00dfner GmbH"}}, {"type": "way", "id": 25682554, "center": {"lat": 51.4623965, "lon": 9.7374784}, "tags": {"addr:city": "Scheden", "addr:country": "DE", "addr:housenumber": "2", "addr:postcode": "37127", "addr:street": "M\u00fchlenhof", "contact:fax": "+49 5546 970746", "contact:phone": "+49 5546 97070", "contact:website": "https://stanzwerk-oberscheden.de/", "landuse": "industrial", "name": "Stanzwerk Oberscheden", "old_name": "Kramer- J\u00fcnemann\u2019schen Blechfabrik", "operator": "yes", "start_date": "1897"}}, {"type": "way", "id": 25687225, "center": {"lat": 52.0349171, "lon": 10.357537}, "tags": {"landuse": "industrial", "name": "Ehem. Schacht Gitter"}}, {"type": "way", "id": 25792219, "center": {"lat": 51.7370364, "lon": 10.2355941}, "tags": {"landuse": "industrial"}}, {"type": "way", "id": 25792220, "center": {"lat": 51.7259616, "lon": 10.2671667}, "tags": {"addr:city": "Osterode am Harz", "addr:housenumber": "24", "addr:postcode": "37520", "addr:street": "Abgunst", "landuse": "industrial", "man_made": "works", "name": "Piller", "official_name": "Piller Group GmbH"}}, {"type": "way", "id": 25792353, "center": {"lat": 51.7491089, "lon": 10.2274156}, "tags": {"landuse": "industrial", "name": "Industriegebiet Westharz"}}, {"type": "way", "id": 25792354, "center": {"lat": 51.7544541, "lon": 10.2161159}, "tags": {"alt_name": "Industriegebiet Katzenstein", "landuse": "industrial", "name": "Gewerbepark Westharz"}}, {"type": "way", "id": 25802289, "center": {"lat": 51.7350269, "lon": 10.2311428}, "tags": {"landuse": "industrial"}}, {"type": "way", "id": 25805981, "center": {"lat": 51.9633311, "lon": 9.2460084}, "tags": {"landuse": "industrial", "name": "Schwering & Hasse Elektrodraht GmbH"}}, {"type": "way", "id": 25807586, "center": {"lat": 51.4573525, "lon": 9.7155}, "tags": {"landuse": "industrial", "survey:date": "2020-05-26"}}, {"type": "way", "id": 25824978, "center": {"lat": 52.4505087, "lon": 10.0421407}, "tags": {"landuse": "industrial", "name": "Gewerbegebiet H\u00fclptingsen I + II"}}, {"type": "way", "id": 25824979, "center": {"lat": 52.4453815, "lon": 10.0397464}, "tags": {"landuse": "industrial", "name": "Gewerbegebiet H\u00fclptingsen III", "name:de": "Gewerbegebiet H\u00fclptingsen III", "name:en": "Gewerbegebiet H\u00fclptingsen III"}}, {"type": "way", "id": 25856552, "center": {"lat": 52.3161808, "lon": 9.624349}, "tags": {"landuse": "industrial", "name": "Biogas Anlage Ronnenberg", "plant:method": "anaerobic_digestion", "plant:output:electricity": "yes", "plant:source": "biomass", "power": "plant", "source": "Bing 2012"}}, {"type": "way", "id": 25876161, "center": {"lat": 51.7152714, "lon": 10.2773883}, "tags": {"landuse": "industrial"}}, {"type": "way", "id": 25890067, "center": {"lat": 52.451003, "lon": 10.0057402}, "tags": {"landuse": "industrial"}}, {"type": "way", "id": 26048158, "center": {"lat": 52.3216393, "lon": 9.5913273}, "tags": {"landuse": "industrial"}}, {"type": "way", "id": 26072182, "center": {"lat": 52.3546263, "lon": 10.2410652}, "tags": {"landuse": "industrial"}}, {"type": "way", "id": 26078330, "center": {"lat": 52.3394024, "lon": 10.2515791}, "tags": {"landuse": "industrial"}}, {"type": "way", "id": 26085230, "center": {"lat": 51.808358, "lon": 10.5350706}, "tags": {"landuse": "industrial", "name": "Sender Torfhaus DFMG", "wikidata": "Q2270618", "wikipedia": "de:Sender Torfhaus"}}, {"type": "way", "id": 26111985, "center": {"lat": 52.4686105, "lon": 10.7092471}, "tags": {"landuse": "industrial", "name": "Erdgas\u00fcbernahmestation", "operator": "Gasversorgung im Landkreis Gifhorn GmbH", "pipeline": "substation", "substance": "gas"}}, {"type": "way", "id": 26114095, "center": {"lat": 51.8090021, "lon": 9.1244227}, "tags": {"landuse": "industrial"}}, {"type": "way", "id": 26115110, "center": {"lat": 52.3167803, "lon": 10.2565377}, "tags": {"landuse": "industrial"}}, {"type": "way", "id": 26115120, "center": {"lat": 52.314503, "lon": 10.2637878}, "tags": {"landuse": "industrial"}}, {"type": "way", "id": 26115128, "center": {"lat": 52.3195938, "lon": 10.2603527}, "tags": {"landuse": "industrial"}}, {"type": "way", "id": 26115131, "center": {"lat": 52.3191909, "lon": 10.2635366}, "tags": {"landuse": "industrial", "name": "Katastropenschutzgel\u00e4nde DRK Peine"}}, {"type": "way", "id": 26115148, "center": {"lat": 52.3182454, "lon": 10.2660776}, "tags": {"landuse": "industrial"}}, {"type": "way", "id": 26116319, "center": {"lat": 52.3163107, "lon": 10.2768697}, "tags": {"landuse": "industrial"}}, {"type": "way", "id": 26117194, "center": {"lat": 52.3119641, "lon": 10.2728981}, "tags": {"landuse": "industrial"}}, {"type": "way", "id": 26117234, "center": {"lat": 52.3155224, "lon": 10.2688587}, "tags": {"landuse": "industrial"}}, {"type": "way", "id": 26117242, "center": {"lat": 52.3162917, "lon": 10.2656189}, "tags": {"landuse": "industrial"}}, {"type": "way", "id": 26122092, "center": {"lat": 52.3973154, "lon": 10.2372223}, "tags": {"created_by": "Potlatch 0.10f", "landuse": "industrial"}}, {"type": "way", "id": 26122660, "center": {"lat": 52.4798698, "lon": 10.7407763}, "tags": {"addr:city": "Tappenbeck", "addr:housenumber": "1", "addr:street": "Kr\u00fcmke", "email": "wolfsburg@bertrandt.com", "landuse": "industrial", "name": "Bertrandt Ingenieurb\u00fcro GmbH", "website": "https://www.bertrandt.com/unternehmen/konzern/standorte/standort/tappenbeck-bei-wolfsburg-bertrandt-ingenieurbuero-gmbh"}}, {"type": "way", "id": 26138506, "center": {"lat": 52.3629296, "lon": 10.2389377}, "tags": {"landuse": "industrial", "name": "Betriebsplatz \u00d6lheim"}}, {"type": "way", "id": 26138528, "center": {"lat": 52.3503403, "lon": 10.2379348}, "tags": {"industrial": "paper", "landuse": "industrial"}}, {"type": "way", "id": 26143236, "center": {"lat": 52.186997, "lon": 10.4429362}, "tags": {"landuse": "industrial", "name": "Volkswagen AG Salzgitter"}}, {"type": "way", "id": 26168503, "center": {"lat": 52.4519592, "lon": 10.2571477}, "tags": {"landuse": "industrial"}}, {"type": "way", "id": 26213650, "center": {"lat": 52.1859247, "lon": 10.4337782}, "tags": {"landuse": "industrial", "name": "GVZ"}}, {"type": "way", "id": 26287066, "center": {"lat": 52.1139369, "lon": 9.8954212}, "tags": {"landuse": "industrial", "name": "Gewerbegebiet Bosch"}}, {"type": "way", "id": 26287896, "center": {"lat": 52.2709675, "lon": 10.4022993}, "tags": {"landuse": "industrial"}}, {"type": "way", "id": 26351472, "center": {"lat": 51.2436151, "lon": 11.9713249}, "tags": {"generator:method": "photovoltaic", "generator:output:electricity": "yes", "generator:source": "solar", "generator:type": "solar_photovoltaic_panel", "landuse": "industrial", "power": "generator", "size": "plant"}}, {"type": "way", "id": 26379624, "center": {"lat": 51.4617444, "lon": 11.7185838}, "tags": {"landuse": "industrial", "name": "ROMONTA"}}, {"type": "way", "id": 26391981, "center": {"lat": 52.4396778, "lon": 9.8798912}, "tags": {"landuse": "industrial"}}, {"type": "way", "id": 26392574, "center": {"lat": 52.1476466, "lon": 11.5211028}, "tags": {"addr:city": "Hohe B\u00f6rde", "addr:country": "DE", "addr:housenumber": "1", "addr:postcode": "39167", "addr:street": "Am Olvenstedter Weg", "addr:suburb": "Niederndodeleben", "barrier": "fence", "contact:website": "https://www.getec-greenenergy.de/bio/", "landuse": "industrial", "name": "Bioraffinerie Magdeburg - Niederndodeleben I", "operator": "Bioraffinerie Magdeburg GmbH"}}, {"type": "way", "id": 26448692, "center": {"lat": 52.344065, "lon": 10.2640988}, "tags": {"landuse": "industrial"}}, {"type": "way", "id": 26448929, "center": {"lat": 52.3125618, "lon": 10.2573696}, "tags": {"landuse": "industrial", "name": "Peiner Tr\u00e4ger GmbH"}}, {"type": "way", "id": 26452801, "center": {"lat": 52.3865624, "lon": 10.2710739}, "tags": {"landuse": "industrial"}}, {"type": "way", "id": 26453208, "center": {"lat": 52.3911125, "lon": 10.3443387}, "tags": {"landuse": "industrial"}}, {"type": "way", "id": 26454061, "center": {"lat": 52.385429, "lon": 10.2751887}, "tags": {"created_by": "Potlatch 0.10f", "landuse": "industrial"}}, {"type": "way", "id": 26458342, "center": {"lat": 51.4287607, "lon": 11.9625246}, "tags": {"addr:housenumber": "8", "addr:postcode": "06132", "addr:street": "Am Wasserwerk", "landuse": "industrial", "layer": "2", "name": "Wasserwerk Halle-Beesen"}}, {"type": "way", "id": 26474729, "center": {"lat": 52.3435427, "lon": 10.3676863}, "tags": {"landuse": "industrial", "name": "Kalksandsteinwerk Wendeburg Radmacher GmbH & Co. KG"}}, {"type": "way", "id": 26489521, "center": {"lat": 52.52239, "lon": 9.9159371}, "tags": {"landuse": "industrial"}}, {"type": "way", "id": 26518688, "center": {"lat": 51.1966597, "lon": 11.9660614}, "tags": {"landuse": "industrial", "name": "ASR Germany GmbH & Co. KG"}}, {"type": "way", "id": 26523850, "center": {"lat": 52.4212036, "lon": 9.390403}, "tags": {"landuse": "industrial"}}, {"type": "way", "id": 26525386, "center": {"lat": 52.4176073, "lon": 9.3668927}, "tags": {"industrial": "mine", "landuse": "industrial", "name": "K+S AG Werk Sigmundshall", "resource": "potash", "wikidata": "Q1306821", "wikipedia": "de:Kaliwerk Sigmundshall"}}, {"type": "way", "id": 26540104, "center": {"lat": 51.9902253, "lon": 9.8038217}, "tags": {"landuse": "industrial"}}, {"type": "way", "id": 26540419, "center": {"lat": 51.9908155, "lon": 9.8185272}, "tags": {"landuse": "industrial"}}, {"type": "way", "id": 26550305, "center": {"lat": 51.5910143, "lon": 9.03}, "tags": {"landuse": "industrial", "name": "Biomassehof"}}, {"type": "way", "id": 26574663, "center": {"lat": 52.0051036, "lon": 11.6899753}, "tags": {"landuse": "industrial", "name": "IS - Interial Solutions"}}, {"type": "way", "id": 26578121, "center": {"lat": 52.2086417, "lon": 11.6671024}, "tags": {"landuse": "industrial"}}, {"type": "way", "id": 26578281, "center": {"lat": 52.2069872, "lon": 11.6602862}, "tags": {"landuse": "industrial"}}, {"type": "way", "id": 26612077, "center": {"lat": 52.2049954, "lon": 11.6646817}, "tags": {"addr:housenumber": "8", "addr:street": "Grabower Stra\u00dfe", "landuse": "industrial", "name": "Samsung SDS"}}, {"type": "way", "id": 26619039, "center": {"lat": 52.0281341, "lon": 11.7045669}, "tags": {"landuse": "industrial", "name": "Adsorb Med"}}, {"type": "way", "id": 26623727, "center": {"lat": 52.2307033, "lon": 10.253044}, "tags": {"landuse": "industrial"}}, {"type": "way", "id": 26648769, "center": {"lat": 52.5989575, "lon": 9.9981438}, "tags": {"landuse": "industrial", "name": "Kommunales Gewerbegebiet Wietzenbruch", "source": "http://www.celle.de/media/custom/342_5710_1.PDF", "website": "http://www.celle.de/media/custom/342_5710_1.PDF"}}, {"type": "way", "id": 26741578, "center": {"lat": 52.2340326, "lon": 10.0347366}, "tags": {"alt_name": "Nordzucker AG Werk Clauen", "contact:website": "https://www.nordzucker.com/de/", "description": "R\u00fcbenzuckerfabrik", "industrial": "sugar_refinery", "landuse": "industrial", "name": "Zuckerfabrik Clauen", "operator": "Nordzucker AG", "product": "sugar", "source_ref": "https://www.nordzucker.com/de/the-sugar-company/standorte/", "wikidata": "Q58326847"}}, {"type": "way", "id": 26825784, "center": {"lat": 51.2605997, "lon": 9.4239044}, "tags": {"landuse": "industrial"}}, {"type": "way", "id": 26875910, "center": {"lat": 51.2409042, "lon": 10.666068}, "tags": {"landuse": "industrial"}}, {"type": "way", "id": 26978319, "center": {"lat": 52.0834087, "lon": 9.4107669}, "tags": {"landuse": "industrial", "name": "Industriegebiet Hastenbeck"}}, {"type": "way", "id": 27012615, "center": {"lat": 51.82646, "lon": 9.4117195}, "tags": {"contact:website": "https://www.reitzgroup.com", "landuse": "industrial", "operator": "Reitz Holding GmbH & Co. KG"}}, {"type": "way", "id": 27026954, "center": {"lat": 52.2182631, "lon": 10.9045622}, "tags": {"landuse": "industrial", "name": "Artus / Amino"}}, {"type": "way", "id": 27083281, "center": {"lat": 52.6274876, "lon": 9.98173}, "tags": {"landuse": "industrial", "layer": "-2"}}, {"type": "way", "id": 27115317, "center": {"lat": 52.3473742, "lon": 10.4103032}, "tags": {"landuse": "industrial"}}, {"type": "way", "id": 27139437, "center": {"lat": 52.2579461, "lon": 9.95962}, "tags": {"disused:man_made": "wastewater_plant", "disused:name": "Kl\u00e4ranlage", "landuse": "industrial"}}, {"type": "way", "id": 27190807, "center": {"lat": 52.381602, "lon": 8.9963052}, "tags": {"landuse": "industrial", "management_region": "Hannover1", "name": "Kraftwerk Heyden", "name:fr": "Centrale thermique de Heyden", "operator": "Uniper Kraftwerke GmbH", "plant:method": "combustion", "plant:output:electricity": "875 MW", "plant:source": "coal", "power": "plant", "ref": "HEYD", "ref:EU:ENTSOE_EIC": "11WD2HEKW000297X", "start_date": "1951-05-07", "website": "https://www.uniper.energy/de/kraftwerk-heyden", "wikidata": "Q318160", "wikipedia": "de:Kraftwerk Heyden"}}, {"type": "way", "id": 27201704, "center": {"lat": 52.3922584, "lon": 9.7246371}, "tags": {"landuse": "industrial"}}, {"type": "way", "id": 27212159, "center": {"lat": 52.1006527, "lon": 10.0323166}, "tags": {"landuse": "industrial"}}, {"type": "way", "id": 27288443, "center": {"lat": 51.2408514, "lon": 9.4343972}, "tags": {"landuse": "industrial"}}, {"type": "way", "id": 27351386, "center": {"lat": 52.2496044, "lon": 10.5335393}, "tags": {"landuse": "industrial"}}, {"type": "way", "id": 27407106, "center": {"lat": 52.0350691, "lon": 10.0024109}, "tags": {"landuse": "industrial"}}, {"type": "way", "id": 27413972, "center": {"lat": 51.7354022, "lon": 10.2650032}, "tags": {"landuse": "industrial"}}, {"type": "way", "id": 27430047, "center": {"lat": 51.9796725, "lon": 9.8189771}, "tags": {"landuse": "industrial"}}, {"type": "way", "id": 27448423, "center": {"lat": 52.0143178, "lon": 10.1266693}, "tags": {"barrier": "fence", "landuse": "industrial", "name": "Meteor GmbH", "website": "https://www.meteor.de"}}, {"type": "way", "id": 27451361, "center": {"lat": 51.8121763, "lon": 11.2185984}, "tags": {"description": "ehemalige Radarstation Ditfurt", "industrial": "power", "landuse": "industrial", "name": "Solarpark \"Ehemalige Radarstation\u201c", "operator": "Multhaupt GbR", "plant:method": "photovoltaic", "plant:output:electricity": "6 MW", "plant:source": "solar", "plant:type": "solar_photovoltaic_panel", "power": "plant", "start_date": "2024-01"}}, {"type": "way", "id": 27452656, "center": {"lat": 52.1759971, "lon": 11.6249815}, "tags": {"landuse": "industrial"}}, {"type": "way", "id": 27498546, "center": {"lat": 51.6432367, "lon": 10.1607131}, "tags": {"landuse": "industrial", "name": "Piller Dynasine"}}, {"type": "way", "id": 27510546, "center": {"lat": 52.3744803, "lon": 9.723204}, "tags": {"landuse": "industrial", "name": "Graphic Packaging", "website": "https://www.rlc-packaging.com/", "wikipedia": "de:Rlc packaging group#Leunisman GmbH"}}, {"type": "way", "id": 27537329, "center": {"lat": 52.1998732, "lon": 10.3206504}, "tags": {"landuse": "industrial", "name": "Industriegebiet \u00bbSchacht Mathilde\u00ab"}}, {"type": "way", "id": 27546342, "center": {"lat": 51.9930054, "lon": 9.8192034}, "tags": {"landuse": "industrial"}}, {"type": "way", "id": 27617201, "center": {"lat": 52.387628, "lon": 9.6654338}, "tags": {"landuse": "industrial"}}, {"type": "way", "id": 27648236, "center": {"lat": 52.4216951, "lon": 9.457843}, "tags": {"landuse": "industrial"}}, {"type": "way", "id": 27649035, "center": {"lat": 51.2173409, "lon": 10.3075741}, "tags": {"landuse": "industrial", "name": "Gewerbegebiet Struth S\u00fcd"}}, {"type": "way", "id": 27649049, "center": {"lat": 51.2206077, "lon": 10.3006828}, "tags": {"landuse": "industrial", "name": "Gewerbegebiet Struth West"}}, {"type": "way", "id": 27671216, "center": {"lat": 52.2348961, "lon": 10.5240839}, "tags": {"description": "ehem. Zollern BHW", "landuse": "industrial"}}, {"type": "way", "id": 27762915, "center": {"lat": 52.0970352, "lon": 10.3710752}, "tags": {"landuse": "industrial"}}, {"type": "way", "id": 27775687, "center": {"lat": 51.5116368, "lon": 9.940921}, "tags": {"landuse": "industrial", "name": "Gewerbegebiet Benzstra\u00dfe"}}, {"type": "way", "id": 27778855, "center": {"lat": 52.1012926, "lon": 11.6313102}, "tags": {"landuse": "industrial", "name": "SKET Freie Stra\u00dfe"}}, {"type": "way", "id": 27778910, "center": {"lat": 52.0970786, "lon": 11.6341175}, "tags": {"landuse": "industrial"}}, {"type": "way", "id": 27793890, "center": {"lat": 52.5470344, "lon": 9.1134459}, "tags": {"alt_name": "Kraftwerk Landesbergen", "landuse": "industrial", "name": "Kraftwerk Robert Frank", "operator": "Statkraft Germany", "plant:method": "combustion", "plant:output:electricity": "78 MW", "plant:output:hot_water": "30 MW", "plant:source": "biomass;gas", "plant:type": "combined_cycle", "power": "plant", "wikidata": "Q1786143", "wikipedia": "de:Kraftwerk Landesbergen"}}, {"type": "way", "id": 27796053, "center": {"lat": 52.010461, "lon": 9.7370283}, "tags": {"landuse": "industrial", "name": "Biogasanlage K\u00fclftal"}}, {"type": "way", "id": 27797450, "center": {"lat": 52.0205064, "lon": 9.6306769}, "tags": {"landuse": "industrial"}}, {"type": "way", "id": 27814605, "center": {"lat": 51.9479397, "lon": 10.5414009}, "tags": {"landuse": "industrial"}}, {"type": "way", "id": 27817013, "center": {"lat": 51.264771, "lon": 9.5879906}, "tags": {"addr:city": "Lohfelden", "addr:housenumber": "5", "addr:postcode": "34253", "addr:street": "Sandwiesen", "amenity": "recycling", "landuse": "industrial", "name": "Entsorgungszentrum Lohfehlden", "old_name": "Kompostierungsanlage Lohfelden", "operator": "Abfallentsorgung Kreis Kassel", "recycling_type": "centre"}}, {"type": "way", "id": 27939165, "center": {"lat": 52.3429336, "lon": 9.7616265}, "tags": {"landuse": "industrial"}}, {"type": "way", "id": 27940055, "center": {"lat": 52.4100387, "lon": 9.7117052}, "tags": {"landuse": "industrial"}}, {"type": "way", "id": 27940060, "center": {"lat": 52.4010358, "lon": 9.710061}, "tags": {"landuse": "industrial"}}, {"type": "way", "id": 27948494, "center": {"lat": 52.3525005, "lon": 9.3204337}, "tags": {"access": "no", "landuse": "industrial", "name": "Mischstation Beckedorf", "operator": "Nowega", "pipeline": "substation", "substation": "distribution"}}, {"type": "way", "id": 27955409, "center": {"lat": 51.6332587, "lon": 9.9074804}, "tags": {"landuse": "industrial", "man_made": "works", "name": "Kelterei \"beckers bester GmbH & Co KG\""}}, {"type": "way", "id": 27958682, "center": {"lat": 51.4038543, "lon": 10.4851534}, "tags": {"landuse": "industrial", "man_made": "wastewater_plant", "name": "Kl\u00e4ranlage"}}, {"type": "way", "id": 28044863, "center": {"lat": 52.3564691, "lon": 9.3064737}, "tags": {"landuse": "industrial"}}, {"type": "way", "id": 28058219, "center": {"lat": 52.2386762, "lon": 10.5052692}, "tags": {"landuse": "industrial"}}, {"type": "way", "id": 28098493, "center": {"lat": 52.3206665, "lon": 10.5208994}, "tags": {"landuse": "industrial"}}, {"type": "way", "id": 28104941, "center": {"lat": 52.5990237, "lon": 10.0566962}, "tags": {"landuse": "industrial"}}, {"type": "way", "id": 28142226, "center": {"lat": 52.3367016, "lon": 10.4954343}, "tags": {"landuse": "industrial", "name": "BEB Erdgas und Erd\u00f6l GmbH"}}, {"type": "way", "id": 28173141, "center": {"lat": 51.2182985, "lon": 8.9908108}, "tags": {"landuse": "industrial", "man_made": "wastewater_plant", "name": "Kl\u00e4ranlage Ober-Werbe"}}, {"type": "way", "id": 28193082, "center": {"lat": 52.6237364, "lon": 10.056138}, "tags": {"alt_name": "Kl\u00e4ranlage Celle", "barrier": "fence", "landuse": "industrial", "man_made": "wastewater_plant", "name": "Kl\u00e4rwerk Celle", "url": "http://www.celle.de/Rathaus/Dezernate-Fachbereiche-Fachdienste-und-Referate/Fachbereich-6-Stra%C3%9Fen-Verkehr-und-%C3%B6ffentliche-Einrichtungen-/Kl%C3%A4rwerk-u-Kanalbetrieb/Kl%C3%A4rwerk"}}, {"type": "way", "id": 28215716, "center": {"lat": 52.4209449, "lon": 9.5697027}, "tags": {"landuse": "industrial", "layer": "-2"}}, {"type": "way", "id": 28241437, "center": {"lat": 52.558214, "lon": 10.0544322}, "tags": {"landuse": "industrial", "name": "International Automotive Components"}}, {"type": "way", "id": 28278860, "center": {"lat": 52.2472709, "lon": 10.5309497}, "tags": {"addr:city": "Braunschweig", "addr:country": "DE", "addr:housenumber": "39", "addr:postcode": "38102", "addr:street": "Wolfenb\u00fctteler Stra\u00dfe", "check_date": "2025-12-01", "craft": "brewery", "email": "info@hofbrauhaus-wolters.de", "industrial": "brewery", "landuse": "industrial", "name": "Hofbrauhaus Wolters", "operator": "Hofbrauhaus Wolters GmbH", "phone": "+49 531 27 18-0", "website": "https://hofbrauhaus-wolters.de/", "wikidata": "Q1622956"}}, {"type": "way", "id": 28278861, "center": {"lat": 52.2492886, "lon": 10.531023}, "tags": {"industrial": "warehouse", "landuse": "industrial", "name": "Oettinger Brauerei GmbH", "old_name": "Brauerei Feldschl\u00f6sschen", "phone": "+4953170030", "website": "https://www.oettinger-bier.de/", "wikidata": "Q1402815"}}, {"type": "way", "id": 28384266, "center": {"lat": 52.4524035, "lon": 9.5693224}, "tags": {"landuse": "industrial", "layer": "-2"}}, {"type": "way", "id": 28408723, "center": {"lat": 52.2226467, "lon": 10.5066525}, "tags": {"landuse": "industrial", "name": "M\u00fchle R\u00fcningen", "wikidata": "Q18288525", "wikipedia": "de:M\u00fchle R\u00fcningen"}}, {"type": "way", "id": 28451085, "center": {"lat": 52.4161093, "lon": 10.1750679}, "tags": {"landuse": "industrial", "name": "AVISTA OIL Refining & Trading Deutschland GmbH", "website": "https://www.avista-oil.com/"}}, {"type": "way", "id": 28552527, "center": {"lat": 52.1644595, "lon": 10.5204061}, "tags": {"landuse": "industrial"}}, {"type": "way", "id": 28557616, "center": {"lat": 52.3136666, "lon": 9.6093149}, "tags": {"landuse": "industrial"}}, {"type": "way", "id": 28583781, "center": {"lat": 52.1910781, "lon": 9.9216988}, "tags": {"landuse": "industrial"}}, {"type": "way", "id": 28610045, "center": {"lat": 52.3768907, "lon": 9.9992173}, "tags": {"landuse": "industrial"}}, {"type": "way", "id": 28665852, "center": {"lat": 52.3582909, "lon": 10.3677494}, "tags": {"addr:city": "Wendeburg", "addr:country": "DE", "addr:housenumber": "6", "addr:postcode": "38176", "addr:street": "Am Betonwerk", "addr:suburb": "Wense", "landuse": "industrial", "name": "Berding Beton GmbH", "website": "https://www.berdingbeton.de"}}, {"type": "way", "id": 28693054, "center": {"lat": 52.3746637, "lon": 9.8766949}, "tags": {"addr:city": "Hannover", "addr:country": "DE", "addr:housenumber": "34", "addr:postcode": "30559", "addr:street": "Lohweg", "landuse": "industrial", "man_made": "works", "name": "Heidelberg Materials AG Werk Hannover", "operator": "Heidelberg Materials AG", "phone": "+49 511 58690", "product": "cement"}}, {"type": "way", "id": 28802846, "center": {"lat": 52.4629284, "lon": 10.8588272}, "tags": {"created_by": "Potlatch 0.10f", "landuse": "industrial"}}, {"type": "way", "id": 28817591, "center": {"lat": 52.2917026, "lon": 10.7246455}, "tags": {"barrier": "fence", "landuse": "industrial"}}, {"type": "way", "id": 28830025, "center": {"lat": 52.1691613, "lon": 9.7862292}, "tags": {"landuse": "industrial"}}, {"type": "way", "id": 28879823, "center": {"lat": 52.3967055, "lon": 9.7595981}, "tags": {"addr:city": "Hannover", "addr:country": "DE", "addr:housenumber": "87-89", "addr:postcode": "30177", "addr:street": "Lister Kirchweg", "landuse": "industrial", "name": "BMW Niederlassung Hannover"}}, {"type": "way", "id": 28932503, "center": {"lat": 52.2868462, "lon": 9.1069296}, "tags": {"landuse": "industrial", "man_made": "works", "name": "ITT Bornemann", "website": "https://www.bornemann.com/"}}, {"type": "way", "id": 28932508, "center": {"lat": 52.2881928, "lon": 9.1040833}, "tags": {"craft": "sawmill", "landuse": "industrial", "name": "Sattelmacher S\u00e4gewerk Obernkirchen"}}, {"type": "way", "id": 28944744, "center": {"lat": 52.1579418, "lon": 9.9162852}, "tags": {"landuse": "industrial", "layer": "-1"}}, {"type": "way", "id": 28949544, "center": {"lat": 52.3131303, "lon": 10.280806}, "tags": {"landuse": "industrial"}}, {"type": "way", "id": 28949552, "center": {"lat": 52.3122167, "lon": 10.2851645}, "tags": {"landuse": "industrial"}}, {"type": "way", "id": 28959938, "center": {"lat": 52.1616166, "lon": 9.8653983}, "tags": {"landuse": "industrial"}}, {"type": "way", "id": 29037665, "center": {"lat": 52.4522053, "lon": 10.0035751}, "tags": {"landuse": "industrial", "layer": "-4"}}, {"type": "way", "id": 29042842, "center": {"lat": 52.2688202, "lon": 9.0539244}, "tags": {"created_by": "Potlatch 0.10f", "landuse": "industrial"}}, {"type": "way", "id": 29043617, "center": {"lat": 51.2469645, "lon": 9.4513464}, "tags": {"landuse": "industrial", "name": "InTec Elektro-Team GmbH"}}, {"type": "way", "id": 29043680, "center": {"lat": 51.2486344, "lon": 9.4502304}, "tags": {"landuse": "industrial", "name": "LIT"}}, {"type": "way", "id": 29044356, "center": {"lat": 52.2970732, "lon": 10.3006255}, "tags": {"landuse": "industrial"}}, {"type": "way", "id": 29044556, "center": {"lat": 52.3168457, "lon": 10.2639015}, "tags": {"landuse": "industrial"}}, {"type": "way", "id": 29045209, "center": {"lat": 52.2977448, "lon": 10.264895}, "tags": {"landuse": "industrial"}}, {"type": "way", "id": 29201010, "center": {"lat": 52.263502, "lon": 9.14079}, "tags": {"landuse": "industrial", "name": "Ardagh Glass"}}, {"type": "way", "id": 29203935, "center": {"lat": 51.2476633, "lon": 10.6532231}, "tags": {"landuse": "industrial"}}, {"type": "way", "id": 29207131, "center": {"lat": 51.9343356, "lon": 9.1925341}, "tags": {"building": "industrial", "disused:power": "plant", "landuse": "industrial", "name": "Wasserkraftwerk Emmer-Stausee", "plant:output:electricity": "300 kW", "plant:source": "hydro", "wikidata": "Q1691547", "wikipedia": "de:Wasserkraftwerk Emmer-Stausee"}}, {"type": "way", "id": 29224132, "center": {"lat": 51.2413749, "lon": 10.6565679}, "tags": {"landuse": "industrial", "name": "Abstellfl\u00e4che"}}, {"type": "way", "id": 29224141, "center": {"lat": 51.2359845, "lon": 10.6588075}, "tags": {"landuse": "industrial"}}, {"type": "way", "id": 29243965, "center": {"lat": 51.2509946, "lon": 10.6556646}, "tags": {"landuse": "industrial"}}, {"type": "way", "id": 29274352, "center": {"lat": 52.2061752, "lon": 11.0375609}, "tags": {"landuse": "industrial", "name": "Gewerbegebiet Harbke"}}, {"type": "way", "id": 29277124, "center": {"lat": 52.2770159, "lon": 9.5813131}, "tags": {"is_in": "Wennigsen (Deister)", "landuse": "industrial"}}, {"type": "way", "id": 29282613, "center": {"lat": 51.2807107, "lon": 9.0692224}, "tags": {"landuse": "industrial"}}, {"type": "way", "id": 29285388, "center": {"lat": 52.1610746, "lon": 9.935111}, "tags": {"barrier": "fence", "fence_type": "wire", "landuse": "industrial"}}, {"type": "way", "id": 29287608, "center": {"lat": 52.398271, "lon": 9.7556422}, "tags": {"landuse": "industrial", "name": "Gewerbegebiet Lister Damm"}}, {"type": "way", "id": 29321458, "center": {"lat": 52.110412, "lon": 11.5848253}, "tags": {"depot": "bus", "industrial": "depot", "landuse": "industrial", "name": "Betriebshof Kroatenwuhne", "operator": "Magdeburger Verkehrsbetriebe", "operator:short": "MVB", "operator:wikidata": "Q1883929"}}, {"type": "way", "id": 29352233, "center": {"lat": 52.3835598, "lon": 9.9572066}, "tags": {"landuse": "industrial"}}, {"type": "way", "id": 29352367, "center": {"lat": 52.385758, "lon": 9.9567069}, "tags": {"landuse": "industrial", "name": "prologis", "source": "Bing 2012"}}, {"type": "way", "id": 29353127, "center": {"lat": 52.3815301, "lon": 9.957522}, "tags": {"landuse": "industrial"}}, {"type": "way", "id": 29363135, "center": {"lat": 52.3764078, "lon": 9.9907832}, "tags": {"landuse": "industrial", "source": "local knowledge"}}, {"type": "way", "id": 29363776, "center": {"lat": 52.3721021, "lon": 9.9970466}, "tags": {"landuse": "industrial"}}, {"type": "way", "id": 29378330, "center": {"lat": 52.2044679, "lon": 9.8795007}, "tags": {"alt_name": "Kaliwerk Siegfried-Giesen", "barrier": "fence", "landuse": "industrial", "name": "Schacht Siegfried", "name:en": "Siegfried-Giesen potash mine", "wikidata": "Q1722323", "wikipedia": "de:Kaliwerk Siegfried-Giesen"}}, {"type": "way", "id": 29380774, "center": {"lat": 52.3199396, "lon": 9.9782152}, "tags": {"landuse": "industrial"}}, {"type": "way", "id": 29400645, "center": {"lat": 52.0247117, "lon": 11.258913}, "tags": {"industrial": "warehouse", "landuse": "industrial", "name": "DACHSER Distributionszentrum Oschersleben"}}, {"type": "way", "id": 29400646, "center": {"lat": 52.0241834, "lon": 11.2612847}, "tags": {"addr:city": "Oschersleben", "addr:country": "DE", "addr:housenumber": "161", "addr:postcode": "39387", "addr:street": "Anderslebener Stra\u00dfe", "contact:email": "wilo@wilo.com", "contact:fax": "+49 3949 929555", "contact:phone": "+49 3949 929500", "contact:website": "http://www.wilo.com/de/home/", "landuse": "industrial", "name": "Wilo SE"}}, {"type": "way", "id": 29401036, "center": {"lat": 52.0334726, "lon": 11.2494996}, "tags": {"addr:city": "Oschersleben", "addr:country": "DE", "addr:housenumber": "1-5", "addr:postcode": "39387", "addr:street": "Ackermannstra\u00dfe", "contact:email": "info@ackermann-trailers.com", "contact:fax": "+49 3949 931299", "contact:phone": "+49 3949 9310", "contact:website": "http://www.af-oc.de/index.php", "landuse": "industrial", "man_made": "works", "name": "Ackermann Fahrzeugbau", "operator": "Ackermann Fahrzeugbau Oschersleben GmbH"}}, {"type": "way", "id": 29436340, "center": {"lat": 52.0712744, "lon": 11.3899028}, "tags": {"addr:city": "Wanzleben-B\u00f6rde", "addr:country": "DE", "addr:housenumber": "1-5", "addr:postcode": "39164", "addr:street": "Magdeburger Landstra\u00dfe", "addr:suburb": "Klein Wanzleben", "alt_name": "Nordzucker AG Werk Klein Wanzleben", "contact:phone": "+49 39209 450", "contact:website": "https://www.nordzucker.com/de/", "description": "R\u00fcbenzuckerfabrik", "industrial": "sugar_refinery", "landuse": "industrial", "man_made": "works", "name": "Zuckerfabrik Klein Wanzleben", "operator": "Nordzucker AG", "product": "sugar", "source_ref": "https://www.nordzucker.com/de/the-sugar-company/standorte/"}}, {"type": "way", "id": 29490331, "center": {"lat": 52.3509977, "lon": 9.7259131}, "tags": {"industrial": "electrical", "landuse": "industrial", "name": "enercity Netz"}}, {"type": "way", "id": 29510902, "center": {"lat": 52.0156083, "lon": 11.6914251}, "tags": {"landuse": "industrial", "name": "cws-Industrie-und Gewerbepark"}}, {"type": "way", "id": 29511639, "center": {"lat": 52.0220622, "lon": 11.6975496}, "tags": {"landuse": "industrial"}}, {"type": "way", "id": 29554875, "center": {"lat": 51.1764144, "lon": 10.0270156}, "tags": {"landuse": "industrial", "name": "Industriegebiet Hessenring"}}, {"type": "way", "id": 29983950, "center": {"lat": 52.356566, "lon": 9.8790989}, "tags": {"landuse": "industrial"}}, {"type": "way", "id": 29993651, "center": {"lat": 52.1480423, "lon": 11.2314636}, "tags": {"landuse": "industrial"}}, {"type": "way", "id": 29997773, "center": {"lat": 52.1502926, "lon": 11.6590039}, "tags": {"addr:city": "Magdeburg", "addr:country": "DE", "addr:housenumber": "9", "addr:postcode": "39106", "addr:street": "Hafenstra\u00dfe", "contact:email": "info@roestfein.de", "contact:fax": "+49 391 5683122", "contact:phone": "+49 391 568310", "contact:website": "https://www.roestfein.de/", "industrial": "coffee", "landuse": "industrial", "name": "R\u00f6stfein", "operator": "R\u00f6stfein Kaffee GmbH", "wikidata": "Q2202850", "wikipedia": "de:R\u00f6stfein"}}, {"type": "way", "id": 30002589, "center": {"lat": 52.3503358, "lon": 9.6584035}, "tags": {"landuse": "industrial", "operator": "Viscom AG", "wikidata": "Q834481", "wikimedia_commons": "Category:Viscom AG", "wikipedia": "de:Viscom AG"}}, {"type": "way", "id": 30003401, "center": {"lat": 52.3503853, "lon": 9.6582011}, "tags": {"fenced": "yes", "landuse": "industrial"}}, {"type": "way", "id": 30049694, "center": {"lat": 52.3627959, "lon": 9.2392798}, "tags": {"landuse": "industrial", "note": "Schachtgel\u00e4nde"}}, {"type": "way", "id": 30108239, "center": {"lat": 51.5479897, "lon": 9.8988329}, "tags": {"landuse": "industrial", "name": "Industriegebiet Grone-Ost"}}, {"type": "way", "id": 30200098, "center": {"lat": 52.0889958, "lon": 11.645617}, "tags": {"landuse": "industrial"}}, {"type": "way", "id": 30215257, "center": {"lat": 51.2541473, "lon": 11.9671155}, "tags": {"addr:city": "Wei\u00dfenfels", "addr:country": "DE", "addr:housenumber": "5", "addr:postcode": "06667", "addr:street": "Stammweg", "addr:suburb": "Reichardtswerben", "contact:fax": "+49 3443 279626", "contact:phone": "+49 3443 279625", "landuse": "industrial", "name": "Saaleaue Landwirtschaftsgesellschaft - Milchviehanlage", "operator": "Saaleaue Landwirtschaftsgesellschaft mbH Reichardtswerben", "source": "Bing"}}, {"type": "way", "id": 30246996, "center": {"lat": 52.3649311, "lon": 9.9054323}, "tags": {"addr:city": "Lehrte", "addr:country": "DE", "addr:housenumber": "7", "addr:postcode": "31275", "addr:street": "Im Wiesengrund", "landuse": "industrial", "operator": "Stadt Lehrte", "phone": "+49 5132 93492"}}, {"type": "way", "id": 30255496, "center": {"lat": 51.9947343, "lon": 11.7300667}, "tags": {"landuse": "industrial"}}, {"type": "way", "id": 30263867, "center": {"lat": 51.9836308, "lon": 9.2238068}, "tags": {"landuse": "industrial"}}, {"type": "way", "id": 30278674, "center": {"lat": 52.3757911, "lon": 9.8976786}, "tags": {"landuse": "industrial"}}, {"type": "way", "id": 30313666, "center": {"lat": 52.6039395, "lon": 10.6054936}, "tags": {"landuse": "industrial"}}, {"type": "way", "id": 30420240, "center": {"lat": 52.166717, "lon": 9.0758792}, "tags": {"landuse": "industrial"}}, {"type": "way", "id": 30475185, "center": {"lat": 52.1790272, "lon": 10.4908995}, "tags": {"landuse": "industrial", "source": "Yahoo"}}, {"type": "way", "id": 30475415, "center": {"lat": 52.1804997, "lon": 10.4827143}, "tags": {"landuse": "industrial", "source": "Yahoo"}}, {"type": "way", "id": 30476746, "center": {"lat": 52.4253356, "lon": 9.9480121}, "tags": {"landuse": "industrial", "name": "Gas-Schieberstation Kolshorn Stat.", "operator": "gasunie", "phone": "+49 4447 809 0"}}, {"type": "way", "id": 30693056, "center": {"lat": 52.3310705, "lon": 10.9537097}, "tags": {"landuse": "industrial"}}, {"type": "way", "id": 30710487, "center": {"lat": 51.1850691, "lon": 10.0561695}, "tags": {"addr:city": "Eschwege", "addr:country": "DE", "addr:housenumber": "1", "addr:postcode": "37269", "addr:street": "Klosterstra\u00dfe", "brewery": "Eschweger Klosterbrauerei", "craft": "brewery", "landuse": "industrial", "name": "Eschweger Klosterbrauerei", "phone": "+49 5651 3073-0", "website": "https://www.eschweger-klosterbrauerei.de/", "wikidata": "Q1367156", "wikipedia": "de:Eschweger Klosterbrauerei"}}, {"type": "way", "id": 30765637, "center": {"lat": 52.5263282, "lon": 10.0928895}, "tags": {"barrier": "fence", "description": "Erd\u00f6lwerk", "landuse": "industrial", "name": "ExxonMobil Production Deutschland GmbH"}}, {"type": "way", "id": 30768397, "center": {"lat": 51.2880947, "lon": 11.9984266}, "tags": {"addr:city": "Leuna", "addr:housenumber": "1", "addr:postcode": "06237", "addr:street": "Maienweg", "image": "https://totalenergies.de/sites/all/themes/custom/totalenergy_theme/logo.png", "industrial": "refinery", "landuse": "industrial", "man_made": "works", "name": "TotalEnergies Raffinerie Mitteldeutschland", "operator": "TotalEnergies", "product": "petroleum;asphalt;gasoline;diesel_fuel;liquefied_petroleum_gas;jet_fuel;naphtha", "start_date": "1997", "website": "https://totalenergies.de/", "wikidata": "Q111976857"}}, {"type": "way", "id": 30771336, "center": {"lat": 52.6762585, "lon": 11.0660128}, "tags": {"landuse": "industrial"}}, {"type": "way", "id": 30771339, "center": {"lat": 52.6743267, "lon": 11.0814569}, "tags": {"landuse": "industrial"}}, {"type": "way", "id": 30771345, "center": {"lat": 52.6734281, "lon": 11.0928973}, "tags": {"landuse": "industrial"}}, {"type": "way", "id": 30793952, "center": {"lat": 52.4629786, "lon": 10.173787}, "tags": {"addr:city": "Uetze", "addr:housename": "EMS Baustoffhandel e.K.", "addr:housenumber": "85-89", "addr:postcode": "31311", "addr:street": "Burgdorfer Stra\u00dfe", "landuse": "industrial", "name": "EMS Baustoffhandel e.K.", "note": "Kunststoffprofile - Aluminiumprofile", "phone": "+49 5173 596 150 50", "website": "http://ems-baustoffhandel.de/"}}, {"type": "way", "id": 30798762, "center": {"lat": 51.5434522, "lon": 11.4847414}, "tags": {"landuse": "industrial", "name": "ehem. August-Bebel-H\u00fctte", "old_name": "Kochh\u00fctte"}}, {"type": "way", "id": 30813514, "center": {"lat": 52.9709896, "lon": 8.9830162}, "tags": {"created_by": "Potlatch 0.10f", "landuse": "industrial", "name": "Schr\u00f6der Gas"}}, {"type": "way", "id": 30813521, "center": {"lat": 52.9714575, "lon": 8.9794232}, "tags": {"landuse": "industrial"}}, {"type": "way", "id": 30813708, "center": {"lat": 52.9424442, "lon": 8.9989309}, "tags": {"landuse": "industrial"}}, {"type": "way", "id": 30828715, "center": {"lat": 52.2003752, "lon": 9.0630759}, "tags": {"building": "yes", "created_by": "Potlatch 0.10f", "landuse": "industrial", "name": "amcor flexibles"}}, {"type": "way", "id": 30828737, "center": {"lat": 52.202724, "lon": 9.0643591}, "tags": {"building": "industrial", "building:levels": "1", "created_by": "Potlatch 0.10f", "landuse": "industrial", "name": "Weserwaben", "roof:levels": "0"}}, {"type": "way", "id": 30833272, "center": {"lat": 52.1977942, "lon": 9.0926165}, "tags": {"landuse": "industrial"}}, {"type": "way", "id": 30839471, "center": {"lat": 51.3961512, "lon": 11.9486796}, "tags": {"industrial": "oil", "landuse": "industrial", "name": "Dow Olefinverbund GmbH Standort Schkopau"}}, {"type": "way", "id": 30839472, "center": {"lat": 51.3891024, "lon": 11.9671065}, "tags": {"landuse": "industrial", "name": "Value-Park"}}, {"type": "way", "id": 30854364, "center": {"lat": 51.3290928, "lon": 9.3137106}, "tags": {"landuse": "industrial", "name": "Gewerbepark"}}, {"type": "way", "id": 30919512, "center": {"lat": 52.0713697, "lon": 11.6741175}, "tags": {"landuse": "industrial", "name": "Elbe-B\u00f6rde-Terminal", "old_name": "Fahlberg-List"}}, {"type": "way", "id": 30919516, "center": {"lat": 52.0755344, "lon": 11.6737609}, "tags": {"landuse": "industrial", "old_name": "Fahlberg-List"}}, {"type": "way", "id": 30972038, "center": {"lat": 52.4487939, "lon": 10.8485287}, "tags": {"created_by": "Potlatch 0.10f", "landuse": "industrial"}}, {"type": "way", "id": 31065604, "center": {"lat": 52.3839052, "lon": 9.825666}, "tags": {"landuse": "industrial"}}, {"type": "way", "id": 31128512, "center": {"lat": 52.4448244, "lon": 10.8329872}, "tags": {"landuse": "industrial"}}, {"type": "way", "id": 31139159, "center": {"lat": 52.1454884, "lon": 11.7295471}, "tags": {"addr:city": "Biederitz", "addr:country": "DE", "addr:housenumber": "1A", "addr:postcode": "39175", "addr:street": "Parkweg", "addr:suburb": "Heyrothsberge", "contact:email": "jens.damitz@happy-beton.de", "contact:fax": "+49 39292 699991", "contact:phone": "+49 39292 694050", "contact:website": "https://www.happy-beton.de/standorte-details/biederitz.html", "industrial": "concrete_plant", "landuse": "industrial", "name": "Happy-Beton Transportbetonwerk Biederitz", "operator": "Happy-Beton GmbH & Co. KG"}}, {"type": "way", "id": 31144985, "center": {"lat": 52.0263551, "lon": 9.7703861}, "tags": {"landuse": "industrial", "name": "Weisig Maschinenbau GmbH", "short_name": "Weiro"}}, {"type": "way", "id": 31253501, "center": {"lat": 52.0266088, "lon": 9.3958856}, "tags": {"access": "no", "landuse": "industrial"}}, {"type": "way", "id": 31258203, "center": {"lat": 52.274826, "lon": 10.6885644}, "tags": {"addr:city": "Cremlingen", "addr:country": "DE", "addr:housenumber": "36", "addr:postcode": "38162", "addr:street": "Hordorfer Stra\u00dfe", "addr:suburb": "Schandelah", "landuse": "industrial", "name": "Auerswald GmbH & Co. KG"}}, {"type": "way", "id": 31696816, "center": {"lat": 52.1194337, "lon": 11.5842471}, "tags": {"landuse": "industrial"}}, {"type": "way", "id": 31724729, "center": {"lat": 51.4549924, "lon": 11.0163074}, "tags": {"landuse": "industrial"}}, {"type": "way", "id": 31728612, "center": {"lat": 52.2004698, "lon": 11.6777843}, "tags": {"addr:city": "Magdeburg", "addr:housenumber": "24-30", "addr:postcode": "39126", "addr:street": "August-Bebel-Damm", "industrial": "factory", "landuse": "industrial", "name": "Enercon"}}, {"type": "way", "id": 31728898, "center": {"lat": 53.1058451, "lon": 9.8022807}, "tags": {"landuse": "industrial"}}, {"type": "way", "id": 31728973, "center": {"lat": 53.1065987, "lon": 9.7953444}, "tags": {"landuse": "industrial"}}, {"type": "way", "id": 31729441, "center": {"lat": 52.2027486, "lon": 11.6768492}, "tags": {"landuse": "industrial"}}, {"type": "way", "id": 31781802, "center": {"lat": 51.8825354, "lon": 9.1884056}, "tags": {"landuse": "industrial"}}, {"type": "way", "id": 31830341, "center": {"lat": 52.2631394, "lon": 10.5534805}, "tags": {"landuse": "industrial", "name": "Gr\u00fcnfl\u00e4chenamt/Bauhof"}}, {"type": "way", "id": 31898733, "center": {"lat": 52.1048873, "lon": 11.5810972}, "tags": {"landuse": "industrial"}}, {"type": "way", "id": 31981110, "center": {"lat": 51.4554396, "lon": 11.0006943}, "tags": {"landuse": "industrial", "layer": "1", "name": "Bauhof Berga"}}, {"type": "way", "id": 32011421, "center": {"lat": 51.4613237, "lon": 11.0640551}, "tags": {"landuse": "industrial"}}, {"type": "way", "id": 32018077, "center": {"lat": 51.4515003, "lon": 11.0190102}, "tags": {"landuse": "industrial", "name": "Bohrgesellschaft Ro\u00dfla mbH"}}, {"type": "way", "id": 32063945, "center": {"lat": 51.4566569, "lon": 11.039214}, "tags": {"landuse": "industrial", "man_made": "wastewater_plant", "name": "Kl\u00e4ranlage Th\u00fcrungen", "operator": "Wasserverband S\u00fcdharz"}}, {"type": "way", "id": 32126772, "center": {"lat": 51.8811733, "lon": 9.2903309}, "tags": {"landuse": "industrial"}}, {"type": "way", "id": 32130088, "center": {"lat": 52.1377471, "lon": 10.2992373}, "tags": {"industrial": "factory", "landuse": "industrial", "name": "Robert Bosch Elektronik GmbH"}}, {"type": "way", "id": 32137159, "center": {"lat": 51.4569321, "lon": 11.010555}, "tags": {"landuse": "industrial"}}, {"type": "way", "id": 32228966, "center": {"lat": 52.0140018, "lon": 11.7503883}, "tags": {"landuse": "industrial"}}, {"type": "way", "id": 32233765, "center": {"lat": 51.9725429, "lon": 11.7794431}, "tags": {"landuse": "industrial"}}, {"type": "way", "id": 32254054, "center": {"lat": 52.1542256, "lon": 11.6305767}, "tags": {"landuse": "industrial"}}, {"type": "way", "id": 32341975, "center": {"lat": 52.4168638, "lon": 9.7438758}, "tags": {"landuse": "industrial"}}, {"type": "way", "id": 32354505, "center": {"lat": 52.5213621, "lon": 10.1377471}, "tags": {"historic": "ruins", "landuse": "industrial", "source": "extrapolation"}}, {"type": "way", "id": 32354535, "center": {"lat": 52.5356586, "lon": 10.167158}, "tags": {"landuse": "industrial", "name": "Biogas-Anlage", "plant:source": "biomass", "power": "plant"}}, {"type": "way", "id": 32383912, "center": {"lat": 52.3169426, "lon": 10.5114327}, "tags": {"landuse": "industrial"}}, {"type": "way", "id": 32475808, "center": {"lat": 51.8921191, "lon": 11.5599774}, "tags": {"landuse": "industrial", "name": "S 114", "type": "mining"}}, {"type": "way", "id": 32476003, "center": {"lat": 51.8959935, "lon": 11.55644}, "tags": {"landuse": "industrial", "name": "BS 11", "type": "mining"}}, {"type": "way", "id": 32493560, "center": {"lat": 52.1169285, "lon": 11.5821773}, "tags": {"addr:city": "Magdeburg", "addr:housenumber": "64", "addr:postcode": "39116", "addr:street": "Sudenburger Wuhne", "landuse": "industrial", "name": "Bauhof S\u00fcd", "operator": "Stadt Magdeburg"}}, {"type": "way", "id": 32511641, "center": {"lat": 52.0205015, "lon": 11.7115272}, "tags": {"landuse": "industrial"}}, {"type": "way", "id": 32513909, "center": {"lat": 52.8540715, "lon": 10.3109528}, "tags": {"access": "no", "barrier": "fence", "landuse": "industrial", "name": "Rheinmetall Waffe Munition GmbH, Niederlassung Unterl\u00fc\u00df", "website": "https://www.rheinmetall.com"}}, {"type": "way", "id": 32673387, "center": {"lat": 52.1050297, "lon": 11.5177408}, "tags": {"landuse": "industrial"}}, {"type": "way", "id": 32748409, "center": {"lat": 52.2833201, "lon": 10.5563923}, "tags": {"landuse": "industrial"}}, {"type": "way", "id": 32783385, "center": {"lat": 52.0804809, "lon": 9.0040395}, "tags": {"landuse": "industrial"}}, {"type": "way", "id": 32869577, "center": {"lat": 52.3238961, "lon": 9.178966}, "tags": {"addr:housenumber": "118", "addr:postcode": "31655", "addr:street": "Enzer Stra\u00dfe", "barrier": "fence", "landuse": "industrial", "operator": "Westfalen Weser Netz GmbH"}}, {"type": "way", "id": 32886282, "center": {"lat": 51.8655435, "lon": 11.6006227}, "tags": {"landuse": "industrial"}}, {"type": "way", "id": 32898215, "center": {"lat": 52.3758774, "lon": 9.9166364}, "tags": {"landuse": "industrial", "man_made": "rig", "name": "Erd\u00f6lfeld Lehrte", "operator": "5P Energy GmbH, Ahrensburger Strasse 1, 30659 Hannover", "ref": "Bohrung Lehrte Nr. 20"}}, {"type": "way", "id": 32901161, "center": {"lat": 52.8817885, "lon": 11.1511752}, "tags": {"landuse": "industrial", "man_made": "pump", "operator": "Neptune Energy", "ref": "SW 143", "value": "gas"}}, {"type": "way", "id": 32901640, "center": {"lat": 51.9815787, "lon": 9.1340829}, "tags": {"landuse": "industrial"}}, {"type": "way", "id": 32902765, "center": {"lat": 52.144774, "lon": 10.4683595}, "tags": {"landuse": "industrial", "layer": "-1", "name": "Salzgitter AG", "note": "Kalkabsetzbecken"}}, {"type": "way", "id": 32938524, "center": {"lat": 52.3738828, "lon": 9.900217}, "tags": {"description": "Gasdruckregelstation", "landuse": "industrial", "operator": "Stadtwerke Hannover"}}, {"type": "way", "id": 33043059, "center": {"lat": 52.3791203, "lon": 9.9223512}, "tags": {"landuse": "industrial"}}, {"type": "way", "id": 33098196, "center": {"lat": 52.6142923, "lon": 11.2024296}, "tags": {"landuse": "industrial"}}, {"type": "way", "id": 33129721, "center": {"lat": 51.600806, "lon": 9.2397643}, "tags": {"landuse": "industrial"}}, {"type": "way", "id": 33185289, "center": {"lat": 51.219958, "lon": 10.7019342}, "tags": {"addr:city": "Marolterode", "addr:housenumber": "5", "addr:postcode": "99994", "addr:street": "Blankenburger Weg", "industrial": "gas", "landuse": "industrial", "name": "Untergrundgasspeicher (UGS) Kirchheilingen der VNG Gasspeicher GmbH", "website": "https://www.vng-gasspeicher.de/"}}, {"type": "way", "id": 33234661, "center": {"lat": 51.2465717, "lon": 9.0066521}, "tags": {"landuse": "industrial"}}, {"type": "way", "id": 33277813, "center": {"lat": 52.9513491, "lon": 9.0064599}, "tags": {"landuse": "industrial"}}, {"type": "way", "id": 33336217, "center": {"lat": 52.1686717, "lon": 9.6732845}, "tags": {"landuse": "industrial"}}, {"type": "way", "id": 33373671, "center": {"lat": 52.1971198, "lon": 10.3295528}, "tags": {"landuse": "industrial", "name": "Unternehmerpark Broistedt"}}, {"type": "way", "id": 33463542, "center": {"lat": 51.9454504, "lon": 10.5566069}, "tags": {"landuse": "industrial"}}, {"type": "way", "id": 33577775, "center": {"lat": 52.2746278, "lon": 11.4416618}, "tags": {"addr:city": "Haldensleben", "addr:country": "DE", "addr:housenumber": "60", "addr:postcode": "39340", "addr:street": "Damm\u00fchlenweg", "company": "industrial", "contact:email": "info@euroglas.com", "contact:phone": "+49 3904 6380", "contact:website": "https://www.euroglas.com", "industrial": "glass", "landuse": "industrial", "man_made": "works", "name": "Euroglas"}}, {"type": "way", "id": 33636108, "center": {"lat": 51.5054325, "lon": 9.7666394}, "tags": {"landuse": "industrial", "name": "In der Dehne"}}, {"type": "way", "id": 33645062, "center": {"lat": 51.6456166, "lon": 9.8616892}, "tags": {"addr:city": "Hardegsen", "addr:country": "DE", "addr:housenumber": "2", "addr:postcode": "37181", "addr:street": "Zum Wellborn", "contact:phone": "+49 4384 5091440", "contact:website": "https://www.c4energie.de/", "description": "Biogasanlage Hardegsen", "landuse": "industrial", "name": "Biogasanlage Hardegsen"}}, {"type": "way", "id": 33695067, "center": {"lat": 52.5972563, "lon": 9.0374301}, "tags": {"landuse": "industrial", "name": "Oxxynova", "wikidata": "Q104610078"}}, {"type": "way", "id": 33704114, "center": {"lat": 52.0927128, "lon": 11.486132}, "tags": {"landuse": "industrial"}}, {"type": "way", "id": 33732491, "center": {"lat": 51.7962194, "lon": 10.3637871}, "tags": {"landuse": "industrial"}}, {"type": "way", "id": 33758165, "center": {"lat": 52.2980268, "lon": 10.5984611}, "tags": {"landuse": "industrial"}}, {"type": "way", "id": 33788779, "center": {"lat": 52.4778591, "lon": 10.874061}, "tags": {"landuse": "industrial"}}, {"type": "way", "id": 33793311, "center": {"lat": 51.504548, "lon": 9.7148224}, "tags": {"landuse": "industrial"}}, {"type": "way", "id": 33840399, "center": {"lat": 52.2050791, "lon": 11.6688402}, "tags": {"landuse": "industrial"}}, {"type": "way", "id": 33870900, "center": {"lat": 52.6866005, "lon": 9.0548586}, "tags": {"landuse": "industrial", "old_name": "Wiesenhof"}}, {"type": "way", "id": 33883975, "center": {"lat": 52.5102694, "lon": 10.7589118}, "tags": {"barrier": "fence", "fence_type": "metal", "height": "1.8", "landuse": "industrial", "name": "Pumpwerk", "operator": "Abwasser Verband Wolfsburg"}}, {"type": "way", "id": 33899567, "center": {"lat": 51.4386631, "lon": 11.6606268}, "tags": {"landuse": "industrial", "name": "Fels Schraplau"}}, {"type": "way", "id": 33971133, "center": {"lat": 52.4178158, "lon": 9.8597538}, "tags": {"landuse": "industrial"}}, {"type": "way", "id": 34061498, "center": {"lat": 51.8006581, "lon": 11.7537304}, "tags": {"landuse": "industrial", "name": "Solvay Chemicals"}}, {"type": "way", "id": 34156424, "center": {"lat": 53.109082, "lon": 11.8420876}, "tags": {"landuse": "industrial"}}, {"type": "way", "id": 34255198, "center": {"lat": 51.4612288, "lon": 11.0530693}, "tags": {"landuse": "industrial", "man_made": "wastewater_plant"}}, {"type": "way", "id": 34351083, "center": {"lat": 52.3716515, "lon": 9.7602196}, "tags": {"landuse": "industrial"}}, {"type": "way", "id": 34425160, "center": {"lat": 52.0636167, "lon": 10.8488351}, "tags": {"landuse": "industrial", "name": "Biogasanlage", "plant:method": "anaerobic_digestion", "plant:output:electricity": "yes", "plant:source": "biomass", "power": "plant"}}, {"type": "way", "id": 34513671, "center": {"lat": 51.1948161, "lon": 11.965617}, "tags": {"landuse": "industrial", "name": "MEG"}}, {"type": "way", "id": 34513695, "center": {"lat": 52.1006603, "lon": 9.0757027}, "tags": {"landuse": "industrial"}}, {"type": "way", "id": 34587384, "center": {"lat": 52.3888713, "lon": 9.687205}, "tags": {"landuse": "industrial"}}, {"type": "way", "id": 34782098, "center": {"lat": 52.3704666, "lon": 9.9270865}, "tags": {"landuse": "industrial", "name": "Erdgas M+R Anlage Ahlten Ost", "operator": "Open Grid Europe", "phone": "+49 5721 4073", "utility": "gas"}}, {"type": "way", "id": 34782168, "center": {"lat": 52.3695453, "lon": 9.9244484}, "tags": {"landuse": "industrial", "name": "Erdgas-Netz\u00fcbergabepunkt Ahlten", "operator": "Erdgas M\u00fcnster Transport GmbH & Co. KG, M\u00fcnster", "phone": "+49 251 2800421", "utility": "gas"}}, {"type": "way", "id": 34837905, "center": {"lat": 52.4174928, "lon": 10.1871195}, "tags": {"landuse": "industrial"}}, {"type": "way", "id": 34837953, "center": {"lat": 52.4192745, "lon": 10.1905439}, "tags": {"landuse": "industrial"}}, {"type": "way", "id": 34851365, "center": {"lat": 51.2027406, "lon": 11.9437221}, "tags": {"landuse": "industrial", "name": "Heizwerk"}}, {"type": "way", "id": 34853722, "center": {"lat": 52.128467, "lon": 10.9685731}, "tags": {"landuse": "industrial"}}, {"type": "way", "id": 34853734, "center": {"lat": 52.1290608, "lon": 10.971568}, "tags": {"landuse": "industrial"}}, {"type": "way", "id": 34866812, "center": {"lat": 51.841134, "lon": 10.763231}, "tags": {"landuse": "industrial"}}, {"type": "way", "id": 35065479, "center": {"lat": 51.239829, "lon": 10.9231836}, "tags": {"landuse": "industrial"}}, {"type": "way", "id": 35140890, "center": {"lat": 53.0273506, "lon": 11.3496945}, "tags": {"barrier": "fence", "landuse": "industrial", "name": "Erkundungsbergwerk Gorleben", "name:de": "Erkundungsbergwerk Gorleben", "name:en": "Mine Gorleben", "website": "https://www.bge.de/de/endlagersuche/bergwerk-gorleben/", "wikidata": "Q118288284", "wikipedia": "de:Erkundungsbergwerk Gorleben"}}, {"type": "way", "id": 35147649, "center": {"lat": 52.2087264, "lon": 10.5018319}, "tags": {"landuse": "industrial", "name": "GP Papenburg Beton"}}, {"type": "way", "id": 35396558, "center": {"lat": 52.3414325, "lon": 10.4987302}, "tags": {"barrier": "fence", "fence_type": "chain_link", "landuse": "industrial"}}, {"type": "way", "id": 35396660, "center": {"lat": 52.3461343, "lon": 10.501327}, "tags": {"barrier": "fence", "fence_type": "chain_link", "landuse": "industrial"}}, {"type": "way", "id": 35396753, "center": {"lat": 52.3440415, "lon": 10.4972293}, "tags": {"barrier": "fence", "fence_type": "chain_link", "landuse": "industrial"}}, {"type": "way", "id": 35396761, "center": {"lat": 52.3430585, "lon": 10.5002267}, "tags": {"barrier": "fence", "fence_type": "chain_link", "landuse": "industrial"}}, {"type": "way", "id": 35396775, "center": {"lat": 52.3396638, "lon": 10.5035302}, "tags": {"description": "\u00d6lf\u00f6rderanlage", "landuse": "industrial", "man_made": "rig", "substance": "oil"}}, {"type": "way", "id": 35396859, "center": {"lat": 52.3375603, "lon": 10.5018102}, "tags": {"landuse": "industrial"}}, {"type": "way", "id": 35396865, "center": {"lat": 52.336568, "lon": 10.502622}, "tags": {"landuse": "industrial"}}, {"type": "way", "id": 35396946, "center": {"lat": 52.3337379, "lon": 10.5021663}, "tags": {"landuse": "industrial"}}, {"type": "way", "id": 35396950, "center": {"lat": 52.3359569, "lon": 10.4980386}, "tags": {"landuse": "industrial"}}, {"type": "way", "id": 35396968, "center": {"lat": 52.333485, "lon": 10.4970358}, "tags": {"landuse": "industrial"}}, {"type": "way", "id": 35396969, "center": {"lat": 52.331105, "lon": 10.5018749}, "tags": {"landuse": "industrial"}}, {"type": "way", "id": 35396972, "center": {"lat": 52.3293019, "lon": 10.499237}, "tags": {"landuse": "industrial"}}, {"type": "way", "id": 35397044, "center": {"lat": 52.3284939, "lon": 10.4954132}, "tags": {"landuse": "industrial"}}, {"type": "way", "id": 35397049, "center": {"lat": 52.3262217, "lon": 10.4957854}, "tags": {"landuse": "industrial"}}, {"type": "way", "id": 35425264, "center": {"lat": 52.3487167, "lon": 10.4978837}, "tags": {"description": "\u00d6lf\u00f6rderanlage", "landuse": "industrial", "man_made": "rig", "substance": "oil"}}, {"type": "way", "id": 35425265, "center": {"lat": 52.3490695, "lon": 10.4938631}, "tags": {"landuse": "industrial"}}, {"type": "way", "id": 35425276, "center": {"lat": 52.3493598, "lon": 10.4897215}, "tags": {"landuse": "industrial"}}, {"type": "way", "id": 35425278, "center": {"lat": 52.3464666, "lon": 10.4914877}, "tags": {"landuse": "industrial"}}, {"type": "way", "id": 35425283, "center": {"lat": 52.3511459, "lon": 10.4972114}, "tags": {"landuse": "industrial"}}, {"type": "way", "id": 35425287, "center": {"lat": 52.3499583, "lon": 10.5029788}, "tags": {"landuse": "industrial"}}, {"type": "way", "id": 35432723, "center": {"lat": 52.0216459, "lon": 11.7260193}, "tags": {"landuse": "industrial"}}, {"type": "way", "id": 35552008, "center": {"lat": 51.5417915, "lon": 9.9071834}, "tags": {"addr:city": "G\u00f6ttingen", "addr:country": "DE", "addr:housenumber": "9", "addr:postcode": "37079", "addr:street": "Gr\u00e4tzelstra\u00dfe", "alt_name": "S\u00fcdniedersachsenbus", "contact:phone": "+49 551 19449", "contact:website": "http://www.rbb-bus.de/", "landuse": "industrial", "name": "DB Bahn Regionalbus Braunschweig GmbH Niederlassung S\u00fcd", "wikipedia": "de:Regionalbus Braunschweig"}}, {"type": "way", "id": 35571027, "center": {"lat": 52.6241119, "lon": 10.2461408}, "tags": {"landuse": "industrial", "name": "Drewsen Spezialpapiere"}}, {"type": "way", "id": 35602945, "center": {"lat": 51.8292131, "lon": 8.9770332}, "tags": {"landuse": "industrial", "name": "Kronospan"}}, {"type": "way", "id": 35642685, "center": {"lat": 52.3114343, "lon": 10.2167775}, "tags": {"landuse": "industrial"}}, {"type": "way", "id": 35643508, "center": {"lat": 52.3138255, "lon": 10.2128384}, "tags": {"landuse": "industrial"}}, {"type": "way", "id": 35677890, "center": {"lat": 51.8888178, "lon": 10.1806895}, "tags": {"industrial": "factory", "landuse": "industrial", "name": "Gewerbepark Niedersachsen (ehem. Sonnen Bassermann)"}}, {"type": "way", "id": 35692351, "center": {"lat": 51.8859564, "lon": 10.173339}, "tags": {"landuse": "industrial"}}, {"type": "way", "id": 35692357, "center": {"lat": 51.8877279, "lon": 10.1836659}, "tags": {"landuse": "industrial"}}, {"type": "way", "id": 35694545, "center": {"lat": 52.288177, "lon": 11.9027339}, "tags": {"addr:city": "Burg", "addr:country": "DE", "addr:housenumber": "4", "addr:place": "Brehm", "addr:postcode": "39288", "industrial": "communication", "landuse": "industrial", "name": "Rundfunksendestelle Brehm", "operator": "Deutsche Telekom AG", "wikidata": "Q876584", "wikimedia_commons": "Category:Burg transmitter", "wikipedia": "de:Sender Burg"}}, {"type": "way", "id": 35772919, "center": {"lat": 51.894819, "lon": 10.1593519}, "tags": {"landuse": "industrial", "name": "K\u00fcstriner Stra\u00dfe"}}, {"type": "way", "id": 35779311, "center": {"lat": 51.8957122, "lon": 10.1771832}, "tags": {"landuse": "industrial", "name": "Eviosys Nahrungsmitteldosen"}}, {"type": "way", "id": 35779313, "center": {"lat": 51.8947777, "lon": 10.18225}, "tags": {"landuse": "industrial", "name": "Trivium - Packaging"}}, {"type": "way", "id": 35796268, "center": {"lat": 52.3300592, "lon": 10.5296376}, "tags": {"addr:city": "Meine", "addr:housenumber": "45", "addr:postcode": "38527", "addr:street": "Wendener Stra\u00dfe", "addr:suburb": "Bechtsb\u00fcttel", "industrial": "logistics", "landuse": "industrial", "name": "Wandt Spedition Transportberatung GmbH", "office": "logistics", "website": "https://www.wandt.de"}}, {"type": "way", "id": 35997851, "center": {"lat": 52.405343, "lon": 9.8263855}, "tags": {"landuse": "industrial"}}, {"type": "way", "id": 36144741, "center": {"lat": 52.212091, "lon": 10.5026778}, "tags": {"landuse": "industrial"}}, {"type": "way", "id": 36256419, "center": {"lat": 52.2694706, "lon": 9.5765288}, "tags": {"landuse": "industrial"}}, {"type": "way", "id": 36286821, "center": {"lat": 51.5387538, "lon": 9.9072297}, "tags": {"check_date": "2025-01-18", "contact:fax": "+49 551 66528", "contact:phone": "+49 551 66520", "contact:website": "https://www.probaum-gmbh.de/", "craft": "gardener", "landuse": "industrial", "name": "Pro Baum", "opening_hours": "Mo-Th 07:30-16:00; Fr 07:30-14:00; PH off"}}, {"type": "way", "id": 36286822, "center": {"lat": 51.5370951, "lon": 9.906946}, "tags": {"landuse": "industrial", "name": "Saline Luisenhall", "source": "landsat, knowledge, extrapolation", "wikipedia": "de:Saline Luisenhall"}}, {"type": "way", "id": 36337254, "center": {"lat": 52.2445806, "lon": 11.6406197}, "tags": {"addr:city": "Wolmirstedt", "addr:country": "DE", "addr:housenumber": "4A", "addr:postcode": "39326", "addr:street": "Angerstra\u00dfe", "landuse": "industrial", "man_made": "wastewater_plant", "name": "Kl\u00e4ranlage Wolmirstedt", "operator": "Wolmirstedter Wasser- und Abwasserzweckverband"}}, {"type": "way", "id": 36786192, "center": {"lat": 52.467501, "lon": 9.2225217}, "tags": {"industrial": "food_industry", "landuse": "industrial", "name": "frischli Milchwerk", "website": "https://www.frischli.de/"}}, {"type": "way", "id": 36906471, "center": {"lat": 52.1589984, "lon": 8.9247201}, "tags": {"landuse": "industrial", "name": "Meyra"}}, {"type": "way", "id": 36910975, "center": {"lat": 51.7718775, "lon": 11.4803488}, "tags": {"landuse": "industrial", "name": "Gewerbegebiet \"G\u00fcstener Stra\u00dfe\""}}, {"type": "way", "id": 36917908, "center": {"lat": 52.0675893, "lon": 9.0956863}, "tags": {"landuse": "industrial"}}, {"type": "way", "id": 37054902, "center": {"lat": 52.1654138, "lon": 11.4752368}, "tags": {"landuse": "industrial"}}, {"type": "way", "id": 37105368, "center": {"lat": 52.4868113, "lon": 9.8097795}, "tags": {"landuse": "industrial", "layer": "-3"}}, {"type": "way", "id": 37141718, "center": {"lat": 51.9214808, "lon": 10.3101003}, "tags": {"landuse": "industrial", "name": "Uhlig Rohrbogen", "source": "LandSat"}}, {"type": "way", "id": 37141721, "center": {"lat": 51.9167506, "lon": 10.2993538}, "tags": {"landuse": "industrial", "name": "Talsperrenmeisterei"}}, {"type": "way", "id": 37141722, "center": {"lat": 51.9146394, "lon": 10.2986746}, "tags": {"landuse": "industrial"}}, {"type": "way", "id": 37213655, "center": {"lat": 51.8056888, "lon": 10.2248967}, "tags": {"landuse": "industrial", "source": "LandSat/local knowledge/extrapolation"}}, {"type": "way", "id": 37213662, "center": {"lat": 51.8074046, "lon": 10.2606531}, "tags": {"landuse": "industrial", "source": "LandSat"}}, {"type": "way", "id": 37251654, "center": {"lat": 51.8042613, "lon": 10.2870142}, "tags": {"industrial": "mine", "landuse": "industrial"}}, {"type": "way", "id": 37288605, "center": {"lat": 51.7857303, "lon": 10.1926866}, "tags": {"landuse": "industrial", "name": "Obermann Logistik"}}, {"type": "way", "id": 37308617, "center": {"lat": 52.9864248, "lon": 9.5914579}, "tags": {"landuse": "industrial"}}, {"type": "way", "id": 37338894, "center": {"lat": 51.675902, "lon": 10.5009986}, "tags": {"landuse": "industrial", "source": "LandSat/Bing/local knowledge"}}, {"type": "way", "id": 37338909, "center": {"lat": 51.7059033, "lon": 10.5016649}, "tags": {"landuse": "industrial"}}, {"type": "way", "id": 37338917, "center": {"lat": 51.7116443, "lon": 10.5004768}, "tags": {"landuse": "industrial"}}, {"type": "way", "id": 37457814, "center": {"lat": 51.8746859, "lon": 10.6333233}, "tags": {"barrier": "fence", "landuse": "industrial", "name": "Papierfabrik Obenauf", "source": "LandSat/local knowledge"}}, {"type": "way", "id": 37528999, "center": {"lat": 52.1808316, "lon": 8.9286661}, "tags": {"landuse": "industrial"}}, {"type": "way", "id": 37607780, "center": {"lat": 52.1035191, "lon": 9.0928208}, "tags": {"landuse": "industrial"}}, {"type": "way", "id": 37741481, "center": {"lat": 51.5973588, "lon": 10.4559694}, "tags": {"landuse": "industrial"}}, {"type": "way", "id": 37754210, "center": {"lat": 52.2826522, "lon": 10.5059369}, "tags": {"landuse": "industrial"}}, {"type": "way", "id": 37784519, "center": {"lat": 52.0373687, "lon": 9.256486}, "tags": {"landuse": "industrial", "name": "Neudorff"}}, {"type": "way", "id": 37825878, "center": {"lat": 52.0385796, "lon": 9.2533748}, "tags": {"landuse": "industrial", "name": "Aerzener Brotfabrik"}}, {"type": "way", "id": 37879423, "center": {"lat": 52.7419214, "lon": 10.2350211}, "tags": {"landuse": "industrial"}}, {"type": "way", "id": 37935978, "center": {"lat": 51.3114919, "lon": 9.5449218}, "tags": {"addr:city": "Kassel", "addr:housenumber": "31", "addr:postcode": "34123", "addr:street": "M\u00fcndener Stra\u00dfe", "landuse": "industrial", "name": "WEGU-Gummiteile"}}, {"type": "way", "id": 37936048, "center": {"lat": 51.3170243, "lon": 9.5298553}, "tags": {"landuse": "industrial", "name": "Die Stadtreiniger Kassel"}}, {"type": "way", "id": 37936111, "center": {"lat": 51.3150299, "lon": 9.5295309}, "tags": {"addr:city": "Kassel", "addr:housenumber": "8", "addr:postcode": "34123", "addr:street": "Am Lossewerk", "landuse": "industrial", "name": "M\u00fcllheizkraftwerk Kassel", "plant:method": "combustion", "plant:output:electricity": "17,7 MW", "plant:output:hot_water": "45 MW", "plant:source": "waste", "power": "plant", "website": "https://www.mhkw-kassel.de/", "wikidata": "Q1252294"}}, {"type": "way", "id": 38072317, "center": {"lat": 51.7957879, "lon": 11.3389513}, "tags": {"landuse": "industrial"}}, {"type": "way", "id": 38082058, "center": {"lat": 52.1801067, "lon": 11.4892307}, "tags": {"landuse": "industrial"}}, {"type": "way", "id": 38106149, "center": {"lat": 51.3094423, "lon": 9.5307707}, "tags": {"addr:city": "Kassel", "addr:country": "DE", "addr:housenumber": "27", "addr:postcode": "34123", "addr:street": "Eichwaldstra\u00dfe", "landuse": "industrial", "name": "Containerdienst Fischer", "website": "https://www.fischer-kassel.de/"}}, {"type": "way", "id": 38146635, "center": {"lat": 51.2271208, "lon": 10.9265107}, "tags": {"addr:city": "Clingen", "addr:postcode": "99718", "addr:street": "Am Kalkufer", "alt_name": "Clingen,Blue.Gree,Orange,Turqouise", "barrier": "fence", "generator:method": "photovoltaic", "generator:output:electricity": "yes", "generator:source": "solar", "generator:type": "solar_photovoltaic_panel", "landuse": "industrial", "name": "PV Kraftwerk Am Kalkufer", "operator": "Solarpark am Kalkufer GmbH & Co. KG c/o BDO AG", "plant:method": "photovoltaic", "plant:output:electricity": "3.56 MW", "plant:source": "solar", "power": "plant", "ref:EEG": "E4183201RS50426657000088348900001", "start_date": "2012"}}, {"type": "way", "id": 38196531, "center": {"lat": 52.3082012, "lon": 9.7245626}, "tags": {"landuse": "industrial"}}, {"type": "way", "id": 38215175, "center": {"lat": 51.1639898, "lon": 9.1190068}, "tags": {"landuse": "industrial", "name": "Holzlagerplatz"}}, {"type": "way", "id": 38327118, "center": {"lat": 52.3260841, "lon": 9.6950581}, "tags": {"landuse": "industrial"}}, {"type": "way", "id": 38359186, "center": {"lat": 52.513769, "lon": 10.4818603}, "tags": {"landuse": "industrial"}}, {"type": "way", "id": 38377808, "center": {"lat": 51.3092543, "lon": 9.5220879}, "tags": {"landuse": "industrial"}}, {"type": "way", "id": 38419398, "center": {"lat": 52.1175987, "lon": 8.9324832}, "tags": {"landuse": "industrial"}}, {"type": "way", "id": 38419575, "center": {"lat": 52.1128186, "lon": 8.9399305}, "tags": {"landuse": "industrial"}}, {"type": "way", "id": 38483220, "center": {"lat": 52.2221527, "lon": 9.8370305}, "tags": {"landuse": "industrial", "name": "Smurfit Kappa"}}, {"type": "way", "id": 38493209, "center": {"lat": 52.0363355, "lon": 8.9652249}, "tags": {"amenity": "recycling", "landuse": "industrial", "name": "Kompostwerk und Recyclinghof Maibolte", "opening_hours": "Mo-Fr 08:00-18:00; Sa 08:00-12:00; PH off", "operator": "Abfallbeseitigungsgesellschaft Lippe", "recycling:batteries": "yes", "recycling:cans": "yes", "recycling:electrical_appliances": "yes", "recycling:glass": "yes", "recycling:glass_bottles": "yes", "recycling:green_waste": "yes", "recycling:plastic": "yes", "recycling:scrap_metal": "yes", "recycling:small_appliances": "yes", "recycling:waste": "yes", "recycling_type": "centre"}}, {"type": "way", "id": 38525214, "center": {"lat": 52.1959168, "lon": 11.6027905}, "tags": {"landuse": "industrial"}}, {"type": "way", "id": 38550726, "center": {"lat": 52.1850154, "lon": 11.6050247}, "tags": {"addr:city": "Barleben", "addr:country": "DE", "addr:housenumber": "2", "addr:postcode": "39179", "addr:street": "Otto-von-Guericke-Allee", "contact:email": "info@sattler.media", "contact:website": "https://www.sattler.media/", "industrial": "printing", "landuse": "industrial", "name": "Sattler Media Press GmbH"}}, {"type": "way", "id": 38609954, "center": {"lat": 52.3174365, "lon": 9.6190562}, "tags": {"landuse": "industrial", "name": "Biogas Anlage Gehrden", "plant:method": "anaerobic_digestion", "plant:output:electricity": "yes", "plant:source": "biomass", "power": "plant", "source": "Bing 2012"}}, {"type": "way", "id": 38755981, "center": {"lat": 52.6018492, "lon": 8.9506387}, "tags": {"landuse": "industrial"}}, {"type": "way", "id": 38757600, "center": {"lat": 52.6121024, "lon": 9.073168}, "tags": {"landuse": "industrial", "name": "Auf der Flage", "source": "yahoo sat"}}, {"type": "way", "id": 38757606, "center": {"lat": 52.6016138, "lon": 9.106098}, "tags": {"landuse": "industrial", "name": "Max B\u00f6gl Fertigteilwerke"}}, {"type": "way", "id": 38881956, "center": {"lat": 51.7209635, "lon": 9.980099}, "tags": {"landuse": "industrial"}}, {"type": "way", "id": 38899286, "center": {"lat": 52.2767525, "lon": 10.512885}, "tags": {"landuse": "industrial"}}, {"type": "way", "id": 38899293, "center": {"lat": 52.2776523, "lon": 10.5129501}, "tags": {"landuse": "industrial"}}, {"type": "way", "id": 38906367, "center": {"lat": 51.3035582, "lon": 9.563066}, "tags": {"landuse": "industrial", "name": "Pumpstation Umbachsgraben"}}, {"type": "way", "id": 39006638, "center": {"lat": 52.5866094, "lon": 9.0266632}, "tags": {"landuse": "industrial", "name": "Bauhof Steyerberg"}}, {"type": "way", "id": 39009257, "center": {"lat": 52.24563, "lon": 10.5215168}, "tags": {"landuse": "industrial"}}, {"type": "way", "id": 39009276, "center": {"lat": 52.2461139, "lon": 10.5229647}, "tags": {"amenity": "building_yard", "landuse": "industrial", "name": "St\u00e4dtischer Betriebshof Gew\u00e4sserdienst / Gew\u00e4sserpflege", "operator": "Stadt Braunschweig"}}, {"type": "way", "id": 39011496, "center": {"lat": 52.1838649, "lon": 11.59774}, "tags": {"addr:city": "Barleben", "addr:country": "DE", "addr:housenumber": "1", "addr:postcode": "39179", "addr:street": "Otto-von-Guericke-Allee", "landuse": "industrial", "name": "Salutas Pharma GmbH", "operator": "Hexal AG", "website": "https://www.hexal.de/"}}, {"type": "way", "id": 39105831, "center": {"lat": 51.3798803, "lon": 9.0014829}, "tags": {"landuse": "industrial"}}, {"type": "way", "id": 39125016, "center": {"lat": 52.1755248, "lon": 11.5001676}, "tags": {"landuse": "industrial"}}, {"type": "way", "id": 39188460, "center": {"lat": 52.0280819, "lon": 9.1194125}, "tags": {"landuse": "industrial"}}, {"type": "way", "id": 39209650, "center": {"lat": 52.0266955, "lon": 9.0382773}, "tags": {"landuse": "industrial"}}, {"type": "way", "id": 39245918, "center": {"lat": 52.4567143, "lon": 9.7364466}, "tags": {"landuse": "industrial"}}, {"type": "way", "id": 39354177, "center": {"lat": 51.3606179, "lon": 9.4986646}, "tags": {"addr:city": "Fuldatal", "addr:housenumber": "50", "addr:postcode": "34233", "addr:street": "Niedervellmarsche Stra\u00dfe", "barrier": "fence", "fence_type": "wire", "landuse": "industrial", "name": "Direktion Bundesbereitschaftspolizei", "note": "Landuse unklar; milit\u00e4risch aber falsch, nach Diskussion im OSM-Forum als Industriegebiet rein", "operator": "Bundespolizei"}}, {"type": "way", "id": 39431681, "center": {"lat": 52.3908447, "lon": 9.8691008}, "tags": {"barrier": "fence", "landuse": "industrial", "name": "Armaturenstation Misburg", "operator": "E.on-Ruhrgas", "phone": "+49 800 3355330", "source": "HiRes aerial imagery 2009"}}, {"type": "way", "id": 39460747, "center": {"lat": 52.2967007, "lon": 8.9406998}, "tags": {"landuse": "industrial"}}, {"type": "way", "id": 39476791, "center": {"lat": 52.2211837, "lon": 8.9470674}, "tags": {"landuse": "industrial"}}, {"type": "way", "id": 39518721, "center": {"lat": 51.323543, "lon": 9.4829441}, "tags": {"addr:city": "Kassel", "addr:housenumber": "109", "addr:postcode": "34127", "addr:street": "Wolfhager Stra\u00dfe", "landuse": "industrial", "name": "Industriepark Rothenditmold"}}, {"type": "way", "id": 39607105, "center": {"lat": 52.2533819, "lon": 10.6492617}, "tags": {"landuse": "industrial"}}, {"type": "way", "id": 39681444, "center": {"lat": 52.1008221, "lon": 8.9337262}, "tags": {"landuse": "industrial"}}, {"type": "way", "id": 39690434, "center": {"lat": 51.5498501, "lon": 11.8183161}, "tags": {"barrier": "fence", "landuse": "industrial", "man_made": "wastewater_plant", "name": "Kl\u00e4ranlage Pf\u00fctzthal"}}, {"type": "way", "id": 39701026, "center": {"lat": 52.4817627, "lon": 9.7989893}, "tags": {"landuse": "industrial"}}, {"type": "way", "id": 39701806, "center": {"lat": 52.3526609, "lon": 9.8873254}, "tags": {"industrial": "concrete_plant", "landuse": "industrial", "name": "Holcim Zementfabrik H\u00f6ver", "old_ref": "Zementfabrik Alemania", "operator": "Holcim"}}, {"type": "way", "id": 39726211, "center": {"lat": 52.3651459, "lon": 9.8676674}, "tags": {"landuse": "industrial"}}, {"type": "way", "id": 39726216, "center": {"lat": 52.3776498, "lon": 9.8744259}, "tags": {"landuse": "industrial"}}, {"type": "way", "id": 40268696, "center": {"lat": 52.8356737, "lon": 9.2367354}, "tags": {"landuse": "industrial"}}, {"type": "way", "id": 40549331, "center": {"lat": 52.2675981, "lon": 10.1997872}, "tags": {"landuse": "industrial", "name": "DEUTAG GmbH & Co. KG", "phone": "+49 5172 129340", "website": "https://www.deutag.de/"}}, {"type": "way", "id": 40554547, "center": {"lat": 52.6584424, "lon": 8.9807704}, "tags": {"addr:city": "Borstel", "addr:housenumber": "19", "addr:street": "Hesterberger Stra\u00dfe", "contact:website": "https://meiners.de/", "landuse": "industrial", "name": "Meiners Erdenwerk Borstel", "operator": "Meiners GmbH & Co. KG"}}, {"type": "way", "id": 40611909, "center": {"lat": 51.9904748, "lon": 8.9883242}, "tags": {"landuse": "industrial"}}, {"type": "way", "id": 40845692, "center": {"lat": 51.3353026, "lon": 9.4817466}, "tags": {"addr:city": "Kassel", "addr:country": "DE", "addr:housenumber": "195", "addr:postcode": "34127", "addr:street": "Holl\u00e4ndische Stra\u00dfe", "alt_name": "Mittelfeld", "barrier": "fence", "landuse": "industrial", "name": "Industriepark Mittelfeld"}}, {"type": "way", "id": 40881531, "center": {"lat": 52.2717392, "lon": 10.1925411}, "tags": {"landuse": "industrial", "name": "Gerhardschacht"}}, {"type": "way", "id": 40894051, "center": {"lat": 52.3569352, "lon": 8.9617621}, "tags": {"landuse": "industrial", "name": "Tonindustrie Heisterholz"}}, {"type": "way", "id": 40894544, "center": {"lat": 52.3675435, "lon": 8.9789584}, "tags": {"contact:website": "https://www.statkraft.de/", "landuse": "industrial", "name": "Laufwasserkraftwerk Petershagen", "operator": "Statkraft", "plant:method": "run-of-the-river", "plant:output:electricity": "3.3 MW", "plant:source": "hydro", "power": "plant", "start_date": "1953", "wikipedia": "de:Staustufe Petershagen"}}, {"type": "way", "id": 40980514, "center": {"lat": 52.4898992, "lon": 9.8317701}, "tags": {"landuse": "industrial", "name": "Dirk Rossmann GmbH Zentrale", "wikidata": "Q316004", "wikipedia": "de:Rossmann (Handelskette)"}}, {"type": "way", "id": 40994176, "center": {"lat": 52.2212186, "lon": 8.9621463}, "tags": {"landuse": "industrial"}}, {"type": "way", "id": 41174566, "center": {"lat": 51.9486067, "lon": 10.4918553}, "tags": {"landuse": "industrial", "name": "Wehrte Biogas", "plant:source": "biomass", "power": "plant"}}, {"type": "way", "id": 41235056, "center": {"lat": 52.363512, "lon": 8.9731699}, "tags": {"landuse": "industrial", "name": "Station Petershagen", "operator": "Nowega", "pipeline": "substation", "ref": "1S05", "substation": "valve_group"}}, {"type": "way", "id": 41464221, "center": {"lat": 52.1026744, "lon": 9.1887549}, "tags": {"description": "Bis 1994 Munitionsdepot (GB)", "landuse": "industrial", "name": "Lager FG Lachem", "natural": "scrub", "operator": "Forstgenossenschaft Lachem", "website": "fgl-lachem.de"}}, {"type": "way", "id": 41533186, "center": {"lat": 52.1230232, "lon": 9.7464197}, "tags": {"disused": "yes", "landuse": "industrial", "name": "Pleissner", "note": "Ehemaliges Betriebsgel\u00e4nde der Gie\u00dferei Pleissner"}}, {"type": "way", "id": 41533190, "center": {"lat": 52.1159466, "lon": 9.7434752}, "tags": {"landuse": "industrial", "name": "Waggonbau Graaff GmbH", "wikidata": "Q27926812", "wikipedia": "de:Waggonbau Graaff"}}, {"type": "way", "id": 41596024, "center": {"lat": 51.5623346, "lon": 11.7913504}, "tags": {"landuse": "industrial"}}, {"type": "way", "id": 41645291, "center": {"lat": 51.2699085, "lon": 11.6620128},