[{"type": "way", "id": 4345043, "center": {"lat": 48.4550683, "lon": 11.8011507}, "tags": {"barrier": "fence", "description": "Der Block 5 des Kraftwerkes wurde 21. Februar 2025 aus der Regelversorgung herausgenommen und wird bis mindestens 31. M\u00e4rz 2031 als Teil der nationalen Netzreserve betriebsbereit gehalten.", "landuse": "industrial", "name": "Kraftwerk Zolling", "operator": "Onyx Power Kraftwerk Zolling GmbH", "plant:method": "combustion", "plant:output:electricity": "542 MW", "plant:output:hot_water": "yes", "plant:source": "coal;biomass;waste;oil", "power": "plant", "ref:EU:ENTSOE_EIC": "11WD2ZOLL0002880", "start_date": "1958-10-04", "wikidata": "Q1341228", "wikipedia": "de:Kraftwerk Zolling"}}, {"type": "way", "id": 4361545, "center": {"lat": 48.4546578, "lon": 11.8351067}, "tags": {"landuse": "industrial"}}, {"type": "way", "id": 4398901, "center": {"lat": 48.3968252, "lon": 11.7731261}, "tags": {"barrier": "fence", "industrial": "factory", "landuse": "industrial", "name": "Texas Instruments Deutschland GmbH"}}, {"type": "way", "id": 4398903, "center": {"lat": 48.3990618, "lon": 11.7734132}, "tags": {"landuse": "industrial"}}, {"type": "way", "id": 4398905, "center": {"lat": 48.3967519, "lon": 11.7684421}, "tags": {"landuse": "industrial"}}, {"type": "way", "id": 4427762, "center": {"lat": 48.4536985, "lon": 11.6526075}, "tags": {"created_by": "JOSM", "landuse": "industrial", "name": "Bauhof"}}, {"type": "way", "id": 4678167, "center": {"lat": 48.8287086, "lon": 9.2969606}, "tags": {"landuse": "industrial", "name": "Ameisenb\u00fchl"}}, {"type": "way", "id": 4678807, "center": {"lat": 48.8416675, "lon": 9.2548561}, "tags": {"landuse": "industrial"}}, {"type": "way", "id": 4693845, "center": {"lat": 48.8220575, "lon": 9.3209385}, "tags": {"is_in": "Waiblingen,Rems-Murr-Kreis,Stuttgart,Baden-W\u00fcrttemberg,Bundesrepublik Deutschland,Europe", "landuse": "industrial", "name": "Eisental"}}, {"type": "way", "id": 4862831, "center": {"lat": 47.8880486, "lon": 11.6918986}, "tags": {"landuse": "industrial"}}, {"type": "way", "id": 4893343, "center": {"lat": 48.8056232, "lon": 9.4737929}, "tags": {"landuse": "industrial"}}, {"type": "way", "id": 4927511, "center": {"lat": 48.7493741, "lon": 9.4435557}, "tags": {"landuse": "industrial", "name": "Klingen\u00e4cker"}}, {"type": "way", "id": 4935950, "center": {"lat": 48.6926153, "lon": 9.0619903}, "tags": {"barrier": "fence", "landuse": "industrial", "name": "M\u00fcllverbrennungsanlage"}}, {"type": "way", "id": 4982094, "center": {"lat": 47.6895796, "lon": 11.2015175}, "tags": {"landuse": "industrial", "name": "Gewerbegebiet Murnau-Nord"}}, {"type": "way", "id": 5037977, "center": {"lat": 48.9458304, "lon": 9.4951399}, "tags": {"industrial": "factory", "landuse": "industrial", "name": "Anw\u00e4nder"}}, {"type": "way", "id": 5057087, "center": {"lat": 48.3818536, "lon": 11.7797912}, "tags": {"landuse": "industrial"}}, {"type": "way", "id": 5079321, "center": {"lat": 48.9450474, "lon": 9.4983924}, "tags": {"landuse": "industrial", "name": "Hofwiesen"}}, {"type": "way", "id": 5094295, "center": {"lat": 47.8994627, "lon": 11.1808763}, "tags": {"landuse": "industrial"}}, {"type": "way", "id": 5111665, "center": {"lat": 48.6262882, "lon": 9.0019011}, "tags": {"landuse": "industrial"}}, {"type": "way", "id": 5132677, "center": {"lat": 48.6377186, "lon": 9.0089155}, "tags": {"landuse": "industrial", "name": "Gottlieb Binder GmbH & Co KG"}}, {"type": "way", "id": 5213369, "center": {"lat": 48.7355923, "lon": 8.9705196}, "tags": {"landuse": "industrial", "name": "Gewerbegebiet Magstadt S\u00fcd"}}, {"type": "way", "id": 5213377, "center": {"lat": 48.7468538, "lon": 8.9518295}, "tags": {"landuse": "industrial", "layer": "-1"}}, {"type": "way", "id": 5213979, "center": {"lat": 48.6505256, "lon": 8.9462165}, "tags": {"addr:city": "Ehningen", "addr:country": "DE", "addr:housenumber": "1", "addr:postcode": "71139", "addr:street": "Birkensee", "landuse": "industrial", "man_made": "works", "name": "Birkensee (Bertrandt AG)", "note": "see http://wiki.openstreetmap.org/wiki/DE:Key:place?uselang=de"}}, {"type": "way", "id": 5213981, "center": {"lat": 48.6524584, "lon": 8.9274183}, "tags": {"landuse": "industrial", "name": "Letten"}}, {"type": "way", "id": 5214013, "center": {"lat": 48.662385, "lon": 8.953343}, "tags": {"landuse": "industrial", "name": "Bernrain-S\u00fcd", "note": "see http://wiki.openstreetmap.org/wiki/DE:Key:place?uselang=de", "place": "locality"}}, {"type": "way", "id": 5214017, "center": {"lat": 48.6610548, "lon": 8.9254913}, "tags": {"landuse": "industrial", "name": "Holzwerk Keck", "website": "https://www.keck-holz.de/"}}, {"type": "way", "id": 5214456, "center": {"lat": 48.6703413, "lon": 9.0393187}, "tags": {"check_date": "2024-04-01", "landuse": "industrial", "name": "Schill + Seilacher GmbH"}}, {"type": "way", "id": 5544326, "center": {"lat": 48.7140208, "lon": 8.989197}, "tags": {"barrier": "fence", "frequency": "50", "landuse": "industrial", "name": "Umspannwerk Sindelfingen", "power": "substation", "substation": "distribution", "voltage": "110000", "wikidata": "Q108549396"}}, {"type": "way", "id": 5574866, "center": {"lat": 48.777584, "lon": 8.9289875}, "tags": {"alt_name": "Gewerbegebiet Renneningen Raite/Wolf\u00e4cker", "landuse": "industrial", "name": "Gewerbegebiet Renningen"}}, {"type": "way", "id": 5638813, "center": {"lat": 48.6967654, "lon": 9.0063738}, "tags": {"landuse": "industrial"}}, {"type": "way", "id": 5639908, "center": {"lat": 48.708685, "lon": 8.9830928}, "tags": {"landuse": "industrial", "name": "Mittelpfad"}}, {"type": "way", "id": 5639909, "center": {"lat": 48.7093579, "lon": 8.9862377}, "tags": {"landuse": "industrial", "name": "Fron\u00e4cker"}}, {"type": "way", "id": 5639940, "center": {"lat": 48.6932363, "lon": 9.0134573}, "tags": {"landuse": "industrial", "man_made": "works", "name": "Mercedes-Benz AG - Smart Areal (740)"}}, {"type": "way", "id": 7747764, "center": {"lat": 47.2689386, "lon": 11.4367811}, "tags": {"landuse": "industrial"}}, {"type": "way", "id": 7978730, "center": {"lat": 47.8880467, "lon": 11.4351894}, "tags": {"landuse": "industrial", "name": "Gewerbegebiet Gelting"}}, {"type": "way", "id": 7984188, "center": {"lat": 47.8995144, "lon": 11.4177153}, "tags": {"landuse": "industrial", "name": "Gewerbepark \u201eAn der Loisach\u201c"}}, {"type": "way", "id": 7988649, "center": {"lat": 48.1858776, "lon": 10.7620446}, "tags": {"addr:city": "Schwabm\u00fcnchen", "addr:country": "DE", "addr:housenumber": "20", "addr:postcode": "86830", "addr:street": "Lechfelder Stra\u00dfe", "landuse": "industrial", "name": "Rapis-Ziegel", "website": "https://www.rapis.de/"}}, {"type": "way", "id": 8023087, "center": {"lat": 47.9129313, "lon": 11.4375455}, "tags": {"landuse": "industrial", "name": "Burgmann"}}, {"type": "way", "id": 8036849, "center": {"lat": 48.1814729, "lon": 9.2096665}, "tags": {"landuse": "industrial"}}, {"type": "way", "id": 8042974, "center": {"lat": 48.1152779, "lon": 11.5565202}, "tags": {"alt_name": "Energiestandort S\u00fcd", "alt_name2": "M\u00fcnchen S\u00fcd", "landuse": "industrial", "name": "Heizkraftwerk S\u00fcd", "plant:method": "combustion", "plant:output:electricity": "647 MW", "plant:output:hot_water": "800 MW", "plant:source": "gas", "power": "plant", "ref:EU:ENTSOE_EIC": "11WD2SUE1000099L;11WD2SUE2000103B", "wikidata": "Q139366", "wikipedia": "de:Heizkraftwerk S\u00fcd (M\u00fcnchen)"}}, {"type": "way", "id": 8101200, "center": {"lat": 48.1824711, "lon": 11.2911005}, "tags": {"landuse": "industrial"}}, {"type": "way", "id": 8579338, "center": {"lat": 48.1133846, "lon": 10.6693026}, "tags": {"addr:city": "Ettringen", "addr:housenumber": "4", "addr:postcode": "86833", "addr:street": "Fabrikstra\u00dfe", "landuse": "industrial", "name": "UPM - Papierfabrik", "wikidata": "Q1340165", "wikipedia": "de:UPM Ettringen"}}, {"type": "way", "id": 8584406, "center": {"lat": 48.1807118, "lon": 10.7675806}, "tags": {"landuse": "industrial"}}, {"type": "way", "id": 9230188, "center": {"lat": 48.6837064, "lon": 9.7959339}, "tags": {"landuse": "industrial"}}, {"type": "way", "id": 9895591, "center": {"lat": 47.6684897, "lon": 9.3887006}, "tags": {"access": "private", "company": "aerospace", "landuse": "industrial", "name": "Airbus Defence & Space", "phone": "+49 7545 8 0", "source": "Landsat", "website": "http://airbusdefenceandspace.com/", "wikidata": "Q15529123", "wikipedia": "de:Airbus Defence and Space"}}, {"type": "way", "id": 10267126, "center": {"lat": 49.0996432, "lon": 9.1890803}, "tags": {"landuse": "industrial", "note": "Dieses Landuse umfasst die Gewerbegebiete Rauher Stich, Fisch\u00e4cker, Nu\u00dfbaum und Schmalzberg. Die genauen Abgrenzungen kann ich derzeit nicht aus legalen Quellen entnehmen. Daher Eintrag der ungef\u00e4hren position als Locality"}}, {"type": "way", "id": 10274556, "center": {"lat": 48.2379744, "lon": 11.6839293}, "tags": {"landuse": "industrial", "name": "Gewerbegebiet Lenzenfleck"}}, {"type": "way", "id": 10445112, "center": {"lat": 48.1803889, "lon": 11.6401601}, "tags": {"alt_name": "M\u00fcnchen Nord", "landuse": "industrial", "name": "Heizkraftwerk Nord", "operator": "Stadtwerke M\u00fcnchen", "operator:wikidata": "Q882871", "plant:method": "combustion", "plant:output:electricity": "373 MW", "plant:output:hot_water": "yes", "plant:source": "coal;waste", "power": "plant", "ref:EU:ENTSOE_EIC": "11WD2NO2K000308Z", "wikidata": "Q1601489", "wikipedia": "de:Heizkraftwerk Nord (M\u00fcnchen)"}}, {"type": "way", "id": 10577936, "center": {"lat": 48.5820539, "lon": 9.1786615}, "tags": {"landuse": "industrial", "name": "Bullenbank I"}}, {"type": "way", "id": 10714125, "center": {"lat": 48.7166929, "lon": 9.167072}, "tags": {"barrier": "fence", "landuse": "industrial", "loc_name": "Kl\u00e4ranlage M\u00f6hringen", "man_made": "wastewater_plant", "name": "Kl\u00e4rwerk Stuttgart-M\u00f6hringen", "operator": "Stadtentw\u00e4sserung Stuttgart", "start_date": "1954"}}, {"type": "way", "id": 11540161, "center": {"lat": 48.6994419, "lon": 10.3543699}, "tags": {"landuse": "industrial", "name": "VARTA"}}, {"type": "way", "id": 11683209, "center": {"lat": 48.8095931, "lon": 8.9817282}, "tags": {"landuse": "industrial"}}, {"type": "way", "id": 11770505, "center": {"lat": 48.8672634, "lon": 9.3555231}, "tags": {"landuse": "industrial", "note": "FIXME: check/rework required", "source": "knowledge"}}, {"type": "way", "id": 11772224, "center": {"lat": 48.9538544, "lon": 8.9894831}, "tags": {"landuse": "industrial"}}, {"type": "way", "id": 11791354, "center": {"lat": 48.5805405, "lon": 9.7926681}, "tags": {"landuse": "industrial", "note": "FIXME: check/rework required", "source": "knowledge"}}, {"type": "way", "id": 11866343, "center": {"lat": 48.6984575, "lon": 9.6962502}, "tags": {"landuse": "industrial"}}, {"type": "way", "id": 11976349, "center": {"lat": 48.8076721, "lon": 9.4509906}, "tags": {"landuse": "industrial"}}, {"type": "way", "id": 11980277, "center": {"lat": 48.8117419, "lon": 9.4126052}, "tags": {"landuse": "industrial"}}, {"type": "way", "id": 11981368, "center": {"lat": 48.1525951, "lon": 11.7270021}, "tags": {"landuse": "industrial"}}, {"type": "way", "id": 11981374, "center": {"lat": 48.1512118, "lon": 11.7407545}, "tags": {"landuse": "industrial"}}, {"type": "way", "id": 11981375, "center": {"lat": 48.1501705, "lon": 11.7277924}, "tags": {"landuse": "industrial"}}, {"type": "way", "id": 11985619, "center": {"lat": 48.7855857, "lon": 9.0003225}, "tags": {"landuse": "industrial"}}, {"type": "way", "id": 12104562, "center": {"lat": 48.2382843, "lon": 9.6464637}, "tags": {"addr:city": "Munderkingen", "addr:housenumber": "5", "addr:postcode": "89597", "addr:street": "Ehinger Stra\u00dfe", "industrial": "factory", "landuse": "industrial", "man_made": "works", "name": "Neuweg Fertigung GmbH"}}, {"type": "way", "id": 12493111, "center": {"lat": 48.6163952, "lon": 9.0003631}, "tags": {"landuse": "industrial", "name": "H\u00e4ckselplatz"}}, {"type": "way", "id": 12535127, "center": {"lat": 48.2094008, "lon": 10.2431687}, "tags": {"addr:city": "Buch", "addr:country": "DE", "addr:housenumber": "1", "addr:postcode": "89290", "addr:street": "Lehmgrube", "barrier": "fence", "landuse": "industrial", "name": "Autokontor Bayern", "website": "https://www.autokontor-bayern.de/"}}, {"type": "way", "id": 12959032, "center": {"lat": 48.8702025, "lon": 9.3839493}, "tags": {"landuse": "industrial", "name": "Linsenhalde", "source": "bing"}}, {"type": "way", "id": 12977922, "center": {"lat": 48.8803152, "lon": 9.3964433}, "tags": {"landuse": "industrial", "name": "K\u00e4rcher Betriebsgel\u00e4nde", "source": "knowledge"}}, {"type": "way", "id": 12978225, "center": {"lat": 48.3883551, "lon": 10.8933631}, "tags": {"addr:city": "Augsburg", "addr:housenumber": "5", "addr:postcode": "86153", "addr:street": "Franz-Josef-Strau\u00df-Stra\u00dfe", "alt_name": "MT Management Service", "company": "aerospace", "email": "info@mt-aerospace.de", "landuse": "industrial", "name": "MT Aerospace AG", "operator": "OHB", "phone": "+49 821 505 01", "website": "https://www.mt-aerospace.de", "wikidata": "Q1882018", "wikipedia": "de:MT Aerospace"}}, {"type": "way", "id": 13764164, "center": {"lat": 49.0016951, "lon": 9.4911087}, "tags": {"industrial": "factory", "landuse": "industrial", "name": "Horben"}}, {"type": "way", "id": 13859525, "center": {"lat": 48.815697, "lon": 9.3212564}, "tags": {"landuse": "industrial", "name": "Gewerbegebiet Auf der H\u00f6he"}}, {"type": "way", "id": 13859534, "center": {"lat": 48.8136651, "lon": 9.321027}, "tags": {"landuse": "industrial", "name": "Gewerbegebiet Max-Eyth-Stra\u00dfe"}}, {"type": "way", "id": 13864283, "center": {"lat": 48.394367, "lon": 11.0937257}, "tags": {"landuse": "industrial"}}, {"type": "way", "id": 14273883, "center": {"lat": 48.6913467, "lon": 8.9822184}, "tags": {"addr:city": "Sindelfingen", "addr:housenumber": "1", "addr:postcode": "71063", "addr:street": "Entenseestra\u00dfe", "landuse": "industrial", "man_made": "wastewater_plant", "name": "Kl\u00e4ranlage B\u00f6blingen-Sindelfingen", "operator": "Zweckverband Kl\u00e4ranlage B\u00f6blingen-Sindelfingen", "website": "https://www.zvka-bb-sifi.de", "wikidata": "Q107355948"}}, {"type": "way", "id": 14296911, "center": {"lat": 48.7965741, "lon": 9.2332192}, "tags": {"landuse": "industrial", "name": "Mercedes-Benz Werksteil Bad Cannstatt"}}, {"type": "way", "id": 14326913, "center": {"lat": 48.8307616, "lon": 9.1323409}, "tags": {"landuse": "industrial", "name": "Im Tal"}}, {"type": "way", "id": 14472299, "center": {"lat": 48.8137455, "lon": 9.3139178}, "tags": {"landuse": "industrial", "name": "Gewerbegebiet Lange Furch\u00e4cker"}}, {"type": "way", "id": 14506389, "center": {"lat": 48.8718884, "lon": 9.2708651}, "tags": {"landuse": "industrial", "name": "Krieger"}}, {"type": "way", "id": 14508625, "center": {"lat": 48.8629362, "lon": 9.2595515}, "tags": {"landuse": "industrial", "name": "Gewerbegebiet Aldingen"}}, {"type": "way", "id": 15494845, "center": {"lat": 48.306855, "lon": 11.6160603}, "tags": {"landuse": "industrial", "name": "Gewerbegebiet Eching Nord-West"}}, {"type": "way", "id": 15527184, "center": {"lat": 48.3918247, "lon": 9.9711111}, "tags": {"addr:housenumber": "85", "addr:postcode": "89077", "addr:street": "W\u00f6rthstra\u00dfe", "landuse": "industrial", "name": "Hensoldt/ Airbus - Defence & Space", "website": "http://airbusdefenceandspace.com/"}}, {"type": "way", "id": 15807440, "center": {"lat": 48.1962682, "lon": 11.2026039}, "tags": {"landuse": "industrial"}}, {"type": "way", "id": 16617410, "center": {"lat": 48.0552275, "lon": 11.6744664}, "tags": {"landuse": "industrial", "name": "Gewerbegebiet Riemerling"}}, {"type": "way", "id": 16787662, "center": {"lat": 48.0898028, "lon": 11.654707}, "tags": {"barrier": "fence", "landuse": "industrial", "name": "Mercedes Benz"}}, {"type": "way", "id": 17473748, "center": {"lat": 48.0731169, "lon": 11.618905}, "tags": {"landuse": "industrial"}}, {"type": "way", "id": 17657708, "center": {"lat": 48.1831288, "lon": 11.2515149}, "tags": {"landuse": "industrial"}}, {"type": "way", "id": 17693469, "center": {"lat": 48.2715597, "lon": 11.789561}, "tags": {"generator:method": "anaerobic_digestion", "generator:source": "biomass", "generator:type": "bioreactor", "landuse": "industrial", "name": "Kloh GmbH", "operator": "Kloh GmbH Organische Verwertung", "phone": "+49 8123 1315", "plant:output:electricity": "yes", "power": "generator"}}, {"type": "way", "id": 17728123, "center": {"lat": 48.1905902, "lon": 11.7007439}, "tags": {"description": "Henze Gmbh", "landuse": "industrial"}}, {"type": "way", "id": 18442768, "center": {"lat": 48.1347284, "lon": 11.4539127}, "tags": {"landuse": "industrial"}}, {"type": "way", "id": 18629425, "center": {"lat": 48.2914423, "lon": 11.3708111}, "tags": {"addr:housenumber": "54", "addr:street": "Dorfstra\u00dfe", "barrier": "fence", "landuse": "industrial", "name": "Umspannwerk Oberbachern", "note": "Tennet: 380kV, 220kV; Bayernwerk: 110kV", "operator": "TenneT TSO;Bayernwer Netz", "power": "substation", "ref": "OBA", "substation": "transmission", "voltage": "380000;220000;110000"}}, {"type": "way", "id": 18655779, "center": {"lat": 48.1171841, "lon": 11.4458538}, "tags": {"landuse": "industrial"}}, {"type": "way", "id": 18748120, "center": {"lat": 47.5231084, "lon": 10.2783034}, "tags": {"landuse": "industrial"}}, {"type": "way", "id": 18870314, "center": {"lat": 47.5060984, "lon": 10.2750917}, "tags": {"landuse": "industrial"}}, {"type": "way", "id": 18871084, "center": {"lat": 47.5200896, "lon": 10.2803257}, "tags": {"landuse": "industrial"}}, {"type": "way", "id": 19187239, "center": {"lat": 48.8186877, "lon": 9.0265161}, "tags": {"landuse": "industrial"}}, {"type": "way", "id": 19269773, "center": {"lat": 48.1807334, "lon": 11.5591698}, "tags": {"industrial": "factory", "landuse": "industrial", "man_made": "works", "name": "BMW Group Werk M\u00fcnchen", "name:en": "BMW Group plant Munich", "product": "cars", "ref:bmw": "01.10", "website": "https://www.bmwgroup-werke.com/muenchen/de.html", "wikidata": "Q796356", "wikipedia": "de:BMW-Werk M\u00fcnchen"}}, {"type": "way", "id": 19327966, "center": {"lat": 48.1885407, "lon": 11.5592343}, "tags": {"landuse": "industrial"}}, {"type": "way", "id": 19328398, "center": {"lat": 48.1924762, "lon": 11.5576195}, "tags": {"landuse": "industrial"}}, {"type": "way", "id": 19539505, "center": {"lat": 48.1380566, "lon": 11.6544568}, "tags": {"landuse": "industrial"}}, {"type": "way", "id": 19539731, "center": {"lat": 48.1358633, "lon": 11.6620772}, "tags": {"landuse": "industrial"}}, {"type": "way", "id": 19802928, "center": {"lat": 48.8914028, "lon": 9.2631724}, "tags": {"landuse": "industrial", "name": "Gewerbegebiet Schie\u00dftal"}}, {"type": "way", "id": 19833507, "center": {"lat": 48.2427761, "lon": 10.7956557}, "tags": {"barrier": "fence", "landuse": "industrial"}}, {"type": "way", "id": 19835089, "center": {"lat": 48.2628179, "lon": 10.8122979}, "tags": {"landuse": "industrial", "name": "Industriepark Werk Bobingen"}}, {"type": "way", "id": 19841513, "center": {"lat": 48.1737232, "lon": 11.3451266}, "tags": {"landuse": "industrial"}}, {"type": "way", "id": 19855154, "center": {"lat": 48.8632797, "lon": 9.3258719}, "tags": {"landuse": "industrial", "name": "Gewerbegebiet Hohenacker"}}, {"type": "way", "id": 20167368, "center": {"lat": 47.5076715, "lon": 10.2744264}, "tags": {"landuse": "industrial"}}, {"type": "way", "id": 20336887, "center": {"lat": 48.7002981, "lon": 8.9485605}, "tags": {"landuse": "industrial", "name": "Gewerbepark Darmsheim"}}, {"type": "way", "id": 20337343, "center": {"lat": 48.7347027, "lon": 8.9449806}, "tags": {"industrial": "brickyard", "landuse": "industrial", "name": "Kronimus AG, Musteranlage"}}, {"type": "way", "id": 20466593, "center": {"lat": 48.8543481, "lon": 9.1202998}, "tags": {"landuse": "industrial", "name": "M\u00fcllerheim"}}, {"type": "way", "id": 20467812, "center": {"lat": 48.8445494, "lon": 9.1349802}, "tags": {"landuse": "industrial"}}, {"type": "way", "id": 20574749, "center": {"lat": 48.8372417, "lon": 9.1588535}, "tags": {"landuse": "industrial"}}, {"type": "way", "id": 21854483, "center": {"lat": 48.6905443, "lon": 10.2269208}, "tags": {"landuse": "industrial", "name": "Gewerbegebiet S\u00fcd"}}, {"type": "way", "id": 22604018, "center": {"lat": 48.8031209, "lon": 9.3147131}, "tags": {"landuse": "industrial", "name": "Bauhof + Recyclinghof Rommelshausen"}}, {"type": "way", "id": 22604023, "center": {"lat": 48.8021548, "lon": 9.3120558}, "tags": {"landuse": "industrial", "name": "Zweckverband Landeswasserversorgung"}}, {"type": "way", "id": 22635195, "center": {"lat": 48.4151909, "lon": 9.0533816}, "tags": {"landuse": "industrial", "name": "Schlattwiesen"}}, {"type": "way", "id": 22635208, "center": {"lat": 48.4560884, "lon": 9.0822668}, "tags": {"landuse": "industrial"}}, {"type": "way", "id": 22719840, "center": {"lat": 48.7108236, "lon": 9.2311779}, "tags": {"barrier": "fence", "landuse": "industrial", "man_made": "wastewater_plant", "name": "Kl\u00e4rwerk Plieningen", "operator": "Stadt Stuttgart"}}, {"type": "way", "id": 22722218, "center": {"lat": 48.7877735, "lon": 9.0280589}, "tags": {"landuse": "industrial"}}, {"type": "way", "id": 22722220, "center": {"lat": 48.7897519, "lon": 9.0335445}, "tags": {"addr:city": "Leonberg", "addr:housenumber": "28", "addr:postcode": "71229", "addr:street": "B\u00f6blinger Stra\u00dfe", "amenity": "social_facility", "email": "thomas.holderrieth@atrio-leonberg.de", "fax": "+49 7152 9752-11", "landuse": "industrial", "name": "Werkstatt f\u00fcr Menschen mit Behinderung", "operator": "Atrio Leonberg", "operator:type": "private", "phone": "+49 7152 9752-12", "social_facility": "workshop", "social_facility:for": "disabled", "website": "https://www.atrio-leonberg.de/werkstatt-leonberg.html", "wheelchair": "yes"}}, {"type": "way", "id": 22722305, "center": {"lat": 48.7831252, "lon": 9.0198116}, "tags": {"landuse": "industrial"}}, {"type": "way", "id": 22726389, "center": {"lat": 48.6645434, "lon": 9.1275503}, "tags": {"landuse": "industrial"}}, {"type": "way", "id": 22802786, "center": {"lat": 48.7079021, "lon": 9.248459}, "tags": {"landuse": "industrial"}}, {"type": "way", "id": 22803372, "center": {"lat": 48.691335, "lon": 9.3252493}, "tags": {"landuse": "industrial"}}, {"type": "way", "id": 22803375, "center": {"lat": 48.7033615, "lon": 9.3132116}, "tags": {"landuse": "industrial"}}, {"type": "way", "id": 22805650, "center": {"lat": 48.2629766, "lon": 11.5759589}, "tags": {"barrier": "fence", "fenced": "yes", "landuse": "industrial", "name": "Wasserwerk Schlei\u00dfheim"}}, {"type": "way", "id": 22811953, "center": {"lat": 48.3606303, "lon": 9.9409196}, "tags": {"landuse": "industrial", "name": "Industriegebiet Donautal"}}, {"type": "way", "id": 22860105, "center": {"lat": 48.6987303, "lon": 9.1459856}, "tags": {"access": "private", "landuse": "industrial", "name": "Robert Bosch Power Tools GmbH", "website": "https://www.bosch-pt.com/de/de/elektrowerkzeuge/elektrowerkzeuge.html"}}, {"type": "way", "id": 22888504, "center": {"lat": 48.7034058, "lon": 9.1720235}, "tags": {"barrier": "fence", "landuse": "industrial", "name": "Umspannwerk Echterdingen Nord", "operator": "Netze BW", "operator:wikidata": "Q16854888", "power": "substation", "substation": "distribution", "voltage": "110000"}}, {"type": "way", "id": 22899465, "center": {"lat": 47.516753, "lon": 10.2957795}, "tags": {"landuse": "industrial"}}, {"type": "way", "id": 22927455, "center": {"lat": 48.6309051, "lon": 9.229767}, "tags": {"landuse": "industrial", "name": "Aichholz"}}, {"type": "way", "id": 22929488, "center": {"lat": 48.6297527, "lon": 9.1396769}, "tags": {"landuse": "industrial"}}, {"type": "way", "id": 22929686, "center": {"lat": 48.5795931, "lon": 9.1797834}, "tags": {"landuse": "industrial"}}, {"type": "way", "id": 22960899, "center": {"lat": 48.8523043, "lon": 9.2159192}, "tags": {"access": "no", "barrier": "fence", "frequency": "50", "landuse": "industrial", "location": "outdoor", "name": "Umspannwerk M\u00fchlhausen", "operator": "Netze BW GmbH", "operator:wikidata": "Q16854888", "power": "substation", "substation": "transmission", "voltage": "380000;110000", "wikidata": "Q58049865"}}, {"type": "way", "id": 22983717, "center": {"lat": 48.4871811, "lon": 9.0042566}, "tags": {"landuse": "industrial", "name": "Siemens Technopark T\u00fcbingen", "source": "Yahoo Aerial", "source:name": "Aufschrift auf Geb\u00e4ude (https://youtu.be/tpQvVnraZXI?t=271)"}}, {"type": "way", "id": 22983747, "center": {"lat": 48.4976106, "lon": 9.033048}, "tags": {"landuse": "industrial", "source": "Yahoo Aerial"}}, {"type": "way", "id": 22984058, "center": {"lat": 48.0636006, "lon": 9.4218621}, "tags": {"landuse": "industrial"}}, {"type": "way", "id": 22986665, "center": {"lat": 48.64494, "lon": 9.2309995}, "tags": {"landuse": "industrial", "name": "Modine Europe GmbH"}}, {"type": "way", "id": 22993519, "center": {"lat": 48.6352631, "lon": 9.141179}, "tags": {"landuse": "industrial"}}, {"type": "way", "id": 22994072, "center": {"lat": 48.7064465, "lon": 9.1274975}, "tags": {"landuse": "industrial"}}, {"type": "way", "id": 22995544, "center": {"lat": 48.4350577, "lon": 10.0910129}, "tags": {"check_date": "2024-06-14", "landuse": "industrial", "name": "Bosch Rexroth", "operator": "Bosch Rexroth AG", "website": "http://www.boschrexroth.com/", "wikidata": "Q314852", "wikipedia": "de:Bosch Rexroth", "wikipedia:en": "Bosch Rexroth"}}, {"type": "way", "id": 23011449, "center": {"lat": 48.2568567, "lon": 10.9887498}, "tags": {"landuse": "industrial", "name": "Ludwig Leuchten"}}, {"type": "way", "id": 23017196, "center": {"lat": 48.6457326, "lon": 9.4274648}, "tags": {"landuse": "industrial", "name": "Kruichling"}}, {"type": "way", "id": 23021109, "center": {"lat": 48.6379959, "lon": 9.1241176}, "tags": {"food:product": "chocolate", "landuse": "industrial", "name": "Alfred Ritter GmbH & Co. KG", "wikidata": "Q5340109", "wikipedia": "de:Alfred Ritter GmbH & Co. KG"}}, {"type": "way", "id": 23030959, "center": {"lat": 48.7222329, "lon": 9.132355}, "tags": {"depot": "tram", "industrial": "depot", "landuse": "industrial", "name": "SSB Stadtbahnbetriebshof M\u00f6hringen BF2", "operator": "Stuttgarter Stra\u00dfenbahnen AG"}}, {"type": "way", "id": 23030984, "center": {"lat": 48.7222745, "lon": 9.1331258}, "tags": {"landuse": "industrial", "name": "SSB-Zentrum"}}, {"type": "way", "id": 23032766, "center": {"lat": 48.0590748, "lon": 11.6243965}, "tags": {"landuse": "industrial"}}, {"type": "way", "id": 23039873, "center": {"lat": 48.7704167, "lon": 9.1293718}, "tags": {"barrier": "fence", "landuse": "industrial", "man_made": "water_works", "name": "Wasserwerk Gallenklinge", "operator": "EnBW"}}, {"type": "way", "id": 23039938, "center": {"lat": 48.7855395, "lon": 9.062133}, "tags": {"brand:wikidata": "Q234021", "brand:wikipedia": "de:Robert Bosch GmbH", "landuse": "industrial", "name": "Robert Bosch GmbH"}}, {"type": "way", "id": 23042125, "center": {"lat": 48.8526131, "lon": 10.6675603}, "tags": {"landuse": "industrial", "name": "In der Metzenau"}}, {"type": "way", "id": 23055253, "center": {"lat": 48.6089444, "lon": 9.1099988}, "tags": {"landuse": "industrial", "name": "Breitwasen"}}, {"type": "way", "id": 23071522, "center": {"lat": 48.8095142, "lon": 8.9578995}, "tags": {"landuse": "industrial"}}, {"type": "way", "id": 23095370, "center": {"lat": 48.8224067, "lon": 9.1106478}, "tags": {"landuse": "industrial"}}, {"type": "way", "id": 23103815, "center": {"lat": 48.5679666, "lon": 9.8756967}, "tags": {"landuse": "industrial", "name": "Heidelberger Druckmaschinen", "official_name": "Gewerbegebiet Egelsee"}}, {"type": "way", "id": 23114324, "center": {"lat": 47.7837451, "lon": 10.6100875}, "tags": {"landuse": "industrial", "name": "AGCO GmbH / FENDT"}}, {"type": "way", "id": 23129332, "center": {"lat": 49.133034, "lon": 9.2160486}, "tags": {"landuse": "industrial", "name": "Industriegebiet Knorrstra\u00dfe"}}, {"type": "way", "id": 23166691, "center": {"lat": 49.1758398, "lon": 9.2130392}, "tags": {"landuse": "industrial", "name": "Industriegebiet Osthafen"}}, {"type": "way", "id": 23174043, "center": {"lat": 48.8035974, "lon": 8.9888381}, "tags": {"barrier": "fence", "landuse": "industrial", "name": "Umspannwerk Leonberg", "operator": "Netze BW GmbH", "operator:wikidata": "Q16854888", "power": "substation", "substation": "distribution", "voltage": "110000"}}, {"type": "way", "id": 23181362, "center": {"lat": 48.7121712, "lon": 11.1182061}, "tags": {"addr:city": "Oberhausen", "addr:housenumber": "11", "addr:postcode": "86697", "addr:street": "Sinninger Stra\u00dfe", "description": "Privates Ausbesserungswerk f\u00fcr Kesselwagen", "industrial": "factory", "landuse": "industrial", "name": "Railmaint Werk Oberhausen", "operator": "Railmaint Service & Solution Group", "operator:wikidata": "Q28037594", "website": "https://www.railmaint.com/de/unternehmen/standorte/werk-oberhausen/"}}, {"type": "way", "id": 23207747, "center": {"lat": 48.7237538, "lon": 11.1918555}, "tags": {"landuse": "industrial"}}, {"type": "way", "id": 23217396, "center": {"lat": 48.7233112, "lon": 11.1900902}, "tags": {"landuse": "industrial"}}, {"type": "way", "id": 23217459, "center": {"lat": 48.7250725, "lon": 11.1757905}, "tags": {"landuse": "industrial"}}, {"type": "way", "id": 23217515, "center": {"lat": 48.7228659, "lon": 11.1676218}, "tags": {"landuse": "industrial"}}, {"type": "way", "id": 23220308, "center": {"lat": 48.6761678, "lon": 9.200729}, "tags": {"landuse": "industrial"}}, {"type": "way", "id": 23229880, "center": {"lat": 48.7205169, "lon": 11.2233035}, "tags": {"landuse": "industrial"}}, {"type": "way", "id": 23292619, "center": {"lat": 48.190737, "lon": 9.0891323}, "tags": {"landuse": "industrial", "name": "Gewerbegebiet Schachen"}}, {"type": "way", "id": 23349237, "center": {"lat": 47.5915226, "lon": 10.2511845}, "tags": {"landuse": "industrial", "name": "Bosch Werke"}}, {"type": "way", "id": 23352687, "center": {"lat": 47.5249131, "lon": 9.0394963}, "tags": {"addr:postcode": "9556", "landuse": "industrial", "layer": "-1"}}, {"type": "way", "id": 23388216, "center": {"lat": 47.6907001, "lon": 9.7562086}, "tags": {"landuse": "industrial", "name": "Industriegebiet Schauwies"}}, {"type": "way", "id": 23441581, "center": {"lat": 48.5520787, "lon": 10.8601108}, "tags": {"industrial": "wellsite", "landuse": "industrial", "name": "SGL"}}, {"type": "way", "id": 23441582, "center": {"lat": 48.5115023, "lon": 10.8549034}, "tags": {"addr:city": "Meitingen", "addr:country": "DE", "addr:housenumber": "1", "addr:postcode": "86405", "addr:street": "Industriestra\u00dfe", "alt_name": "LSW", "contact:xing": "lech-stahlwerkegmbh", "industrial": "factory", "landuse": "industrial", "name": "Lech-Stahlwerke GmbH", "phone": "+49 821 71820", "website": "https://www.lech-stahlwerke.de", "wikipedia": "de:Lech-Stahlwerke"}}, {"type": "way", "id": 23457317, "center": {"lat": 48.0300375, "lon": 11.6168524}, "tags": {"addr:city": "Taufkirchen", "addr:housenumber": "5", "addr:postcode": "82024", "addr:street": "Karwendelstra\u00dfe", "amenity": "recycling", "barrier": "fence", "landuse": "industrial", "name": "Wertstoffhof Taufkirchen", "opening_hours": "Mo 16:00-18:30; We 16:00-18:30; Fr 16:00-18:30; Sa 09:30-13:00", "operator": "Gemeinde Taufkirchen", "recycling_type": "centre", "source": "survey", "website": "https://www.meintaufkirchen.de/Rathaus-Buergerservice/Ver-und-Entsorgung/Abfallwirtschaft/Wertstoffhof", "wheelchair": "yes"}}, {"type": "way", "id": 23470978, "center": {"lat": 48.3279821, "lon": 9.9051124}, "tags": {"landuse": "industrial"}}, {"type": "way", "id": 23547196, "center": {"lat": 49.0415566, "lon": 9.1740625}, "tags": {"addr:postcode": "74382", "addr:street": "Im Steinbruch", "barrier": "wall", "disused:power": "plant", "end_date": "2023-04-15", "landuse": "industrial", "name": "Gemeinschaftskraftwerk Neckarwestheim", "name:de": "Gemeinschaftskraftwerk Neckarwestheim", "name:en": "Neckarwestheim Nuclear Power Plant", "name:fr": "Centrale nucl\u00e9aire de Neckarwestheim", "name:it": "Centrale nucleare di Neckarwestheim", "name:no": "Neckarwestheim kjernekraftverk", "operator": "EnBW Kernkraft GmbH", "owner": "EnBW Energie Baden-W\u00fcrttemberg AG", "planned:end_date": "2022-12-31", "plant:method": "fission", "plant:output:electricity": "1400 MW", "plant:source": "nuclear", "railway:ref": "ITNWH", "ref": "GKN", "ref:EU:ENTSOE_EIC": "11WD4GKNK1S----S", "ref:bna": "BNA0686", "start_date": "1976-12-01", "wikidata": "Q302114", "wikipedia": "en:Neckarwestheim Nuclear Power Plant"}}, {"type": "way", "id": 23574806, "center": {"lat": 48.0531454, "lon": 11.6106477}, "tags": {"landuse": "industrial", "name": "Gewerbegebiet Westerham", "ref": "E"}}, {"type": "way", "id": 23602622, "center": {"lat": 47.8036604, "lon": 9.6057567}, "tags": {"company": "office", "industrial": "manufacturing", "landuse": "industrial", "name": "RAFI GmbH & Co. KG", "website": "https://www.rafi-group.com/", "wikidata": "Q1631113", "wikipedia": "de:RAFI"}}, {"type": "way", "id": 23619287, "center": {"lat": 48.8376434, "lon": 9.1482234}, "tags": {"landuse": "industrial"}}, {"type": "way", "id": 23710931, "center": {"lat": 48.0265408, "lon": 11.7099345}, "tags": {"landuse": "industrial"}}, {"type": "way", "id": 23725374, "center": {"lat": 48.0585936, "lon": 11.7087441}, "tags": {"addr:city": "Hohenbrunn", "addr:country": "DE", "addr:housenumber": "102-110", "addr:postcode": "85662", "addr:street": "Putzbrunner Stra\u00dfe", "email": "Suedbayern.am-hohenbrunn@autobahn.de", "landuse": "industrial", "name": "Autobahnmeisterei Hohenbrunn", "operator": "Autobahn GmbH", "source": "Yahoo Aerial Image and local knowledge"}}, {"type": "way", "id": 23775378, "center": {"lat": 48.0243511, "lon": 11.7034492}, "tags": {"landuse": "industrial"}}, {"type": "way", "id": 23782989, "center": {"lat": 48.7634117, "lon": 9.2061582}, "tags": {"landuse": "industrial"}}, {"type": "way", "id": 23783317, "center": {"lat": 48.2467041, "lon": 9.191909}, "tags": {"landuse": "industrial"}}, {"type": "way", "id": 23801109, "center": {"lat": 48.3854638, "lon": 8.9636856}, "tags": {"landuse": "industrial", "name": "Industriegebiet West"}}, {"type": "way", "id": 23823748, "center": {"lat": 49.0466881, "lon": 8.9899966}, "tags": {"landuse": "industrial", "name": "Wilhelm Layher GmbH & Co. KG", "website": "http://layher.de/"}}, {"type": "way", "id": 23875070, "center": {"lat": 48.6911027, "lon": 8.9411842}, "tags": {"landuse": "industrial"}}, {"type": "way", "id": 23876680, "center": {"lat": 48.68007, "lon": 9.7431592}, "tags": {"landuse": "industrial"}}, {"type": "way", "id": 23907283, "center": {"lat": 48.1718051, "lon": 11.4407817}, "tags": {"access": "no", "addr:housenumber": "69", "addr:street": "Lochhausener Stra\u00dfe", "barrier": "fence", "landuse": "industrial", "name": "Hauptumspannwerk Menzing", "operator": "Stadtwerke M\u00fcnchen", "operator:wikidata": "Q882871", "power": "substation", "ref": "MZ", "substation": "transmission", "voltage": "380000;110000"}}, {"type": "way", "id": 23915537, "center": {"lat": 47.5288072, "lon": 10.2640621}, "tags": {"landuse": "industrial", "name": "Gewerbegebiet Rieden"}}, {"type": "way", "id": 23915805, "center": {"lat": 48.6835692, "lon": 9.2533718}, "tags": {"landuse": "industrial"}}, {"type": "way", "id": 23915818, "center": {"lat": 48.6800178, "lon": 9.2445762}, "tags": {"landuse": "industrial"}}, {"type": "way", "id": 23926176, "center": {"lat": 48.5340805, "lon": 8.9621394}, "tags": {"landuse": "industrial"}}, {"type": "way", "id": 23976636, "center": {"lat": 47.8401463, "lon": 10.0152919}, "tags": {"landuse": "industrial", "name": "Bauhof"}}, {"type": "way", "id": 24013692, "center": {"lat": 48.2604437, "lon": 11.6577298}, "tags": {"building": "industrial", "landuse": "industrial", "name": "TUM Heizkraftwerk", "plant:method": "combustion", "plant:output:hot_water": "yes", "plant:source": "oil", "power": "plant", "ref": "6101"}}, {"type": "way", "id": 24020027, "center": {"lat": 48.7769651, "lon": 9.1249937}, "tags": {"landuse": "industrial"}}, {"type": "way", "id": 24020057, "center": {"lat": 48.7728894, "lon": 9.1316259}, "tags": {"created_by": "Potlatch 0.10f", "landuse": "industrial"}}, {"type": "way", "id": 24024845, "center": {"lat": 48.7768625, "lon": 9.1241566}, "tags": {"landuse": "industrial"}}, {"type": "way", "id": 24032677, "center": {"lat": 48.6554921, "lon": 8.9410366}, "tags": {"landuse": "industrial", "name": "Hintere Burgwiesen", "note": "http://wiki.openstreetmap.org/wiki/DE:Key:place?uselang=de", "place": "locality"}}, {"type": "way", "id": 24237879, "center": {"lat": 48.0519889, "lon": 11.29395}, "tags": {"access": "private", "landuse": "industrial", "name": "Umspannwerk Oberbrunn", "operator": "TenneT TSO;Bayernwerk Netz", "power": "substation", "ref": "OBR", "short_name": "UW OBR", "substation": "transmission", "voltage": "220000;110000"}}, {"type": "way", "id": 24239573, "center": {"lat": 48.5705673, "lon": 9.8814468}, "tags": {"landuse": "industrial", "name": "Gewerbegebiet Kreuzstein"}}, {"type": "way", "id": 24239574, "center": {"lat": 48.5181321, "lon": 9.905361}, "tags": {"landuse": "industrial", "name": "Steinige"}}, {"type": "way", "id": 24293565, "center": {"lat": 48.1320331, "lon": 11.2240719}, "tags": {"landuse": "industrial"}}, {"type": "way", "id": 24300917, "center": {"lat": 48.9702502, "lon": 9.6331996}, "tags": {"craft": "sawmill", "landuse": "industrial", "name": "S\u00e4gewerk Junginger"}}, {"type": "way", "id": 24313881, "center": {"lat": 48.9757927, "lon": 9.5990642}, "tags": {"landuse": "industrial"}}, {"type": "way", "id": 24345253, "center": {"lat": 48.3091937, "lon": 9.8915757}, "tags": {"landuse": "industrial"}}, {"type": "way", "id": 24345259, "center": {"lat": 48.3149899, "lon": 9.8901005}, "tags": {"landuse": "industrial"}}, {"type": "way", "id": 24376082, "center": {"lat": 47.8329507, "lon": 10.6457946}, "tags": {"landuse": "industrial", "name": "Nestl\u00e9"}}, {"type": "way", "id": 24431652, "center": {"lat": 48.1088638, "lon": 11.2869275}, "tags": {"landuse": "industrial", "name": "Gewerbepark Gilching Nord"}}, {"type": "way", "id": 24431819, "center": {"lat": 48.0931751, "lon": 11.3087261}, "tags": {"bdouble": "yes", "landuse": "industrial", "name": "Gewerbepark Gilching S\u00fcd"}}, {"type": "way", "id": 24453664, "center": {"lat": 48.8560255, "lon": 8.9943225}, "tags": {"landuse": "industrial", "name": "Industriegebiet Nord"}}, {"type": "way", "id": 24497540, "center": {"lat": 48.7553202, "lon": 9.1762378}, "tags": {"barrier": "fence", "landuse": "industrial", "name": "Netze BW Umspannwerk Degerloch", "operator": "Netze BW GmbH", "operator:wikidata": "Q16854888", "power": "substation", "source": "survey", "substation": "distribution"}}, {"type": "way", "id": 24521086, "center": {"lat": 48.0934693, "lon": 11.0242542}, "tags": {"landuse": "industrial"}}, {"type": "way", "id": 24521764, "center": {"lat": 48.0317778, "lon": 10.9196275}, "tags": {"landuse": "industrial"}}, {"type": "way", "id": 24522852, "center": {"lat": 48.7691008, "lon": 9.1414108}, "tags": {"alt_name": "Im Vogelsang / Westbahnhof", "landuse": "industrial", "name": "Im Vogelsang", "reg_name": "Hinterer Vogelsang"}}, {"type": "way", "id": 24533375, "center": {"lat": 48.8203467, "lon": 11.4229777}, "tags": {"landuse": "industrial", "name": "Industriegebiet"}}, {"type": "way", "id": 24534856, "center": {"lat": 48.2729578, "lon": 8.9986796}, "tags": {"landuse": "industrial"}}, {"type": "way", "id": 24535344, "center": {"lat": 48.1857419, "lon": 9.2176065}, "tags": {"landuse": "industrial"}}, {"type": "way", "id": 24537442, "center": {"lat": 48.3098257, "lon": 10.8699694}, "tags": {"addr:city": "Augsburg", "addr:country": "DE", "addr:housenumber": "57", "addr:postcode": "86199", "addr:street": "Hohenstaufenstra\u00dfe", "description": "ehem. Ziegelei", "landuse": "industrial"}}, {"type": "way", "id": 24544167, "center": {"lat": 48.3665206, "lon": 9.2954579}, "tags": {"landuse": "industrial"}}, {"type": "way", "id": 24551970, "center": {"lat": 48.7905009, "lon": 9.2178317}, "tags": {"barrier": "fence", "landuse": "industrial", "man_made": "works", "name": "Gaswerk Stuttgart-Gaisburg", "wikidata": "Q1169979"}}, {"type": "way", "id": 24598287, "center": {"lat": 48.5402312, "lon": 9.1534766}, "tags": {"landuse": "industrial", "man_made": "wastewater_plant", "operator": "Abwasserverbands Unteres Echaztal-H\u00e4rten", "source": "Yahoo Aerial"}}, {"type": "way", "id": 24607286, "center": {"lat": 48.6090778, "lon": 11.5789965}, "tags": {"landuse": "industrial", "name": "Gewerbegebiet Moos\u00e4cker"}}, {"type": "way", "id": 24614116, "center": {"lat": 47.8314218, "lon": 10.0138936}, "tags": {"fixme": "Geh\u00f6rt die komplette Fl\u00e4che zu Pfleiderer?", "landuse": "industrial"}}, {"type": "way", "id": 24614118, "center": {"lat": 47.8384579, "lon": 10.0122251}, "tags": {"landuse": "industrial"}}, {"type": "way", "id": 24614120, "center": {"lat": 47.8430362, "lon": 10.0106939}, "tags": {"amenity": "recycling", "landuse": "industrial", "name": "Wertstoffhof", "note": "Wertstoffhof", "recycling:batteries": "yes", "recycling:cans": "yes", "recycling:clothes": "yes", "recycling:glass_bottles": "yes", "recycling:paper": "yes", "recycling:scrap_metal": "yes", "recycling_type": "centre", "source": "Bing"}}, {"type": "way", "id": 24614121, "center": {"lat": 47.8431453, "lon": 10.0086235}, "tags": {"landuse": "industrial"}}, {"type": "way", "id": 24631171, "center": {"lat": 48.4645466, "lon": 10.9812532}, "tags": {"addr:city": "Affing", "addr:housenumber": "6", "addr:postcode": "86444", "addr:street": "Ziegeleiweg", "landuse": "industrial", "man_made": "works", "name": "Wurzer Profiliertechnik GmbH", "phone": "+49 8207 8990", "website": "https://www.wurzer-profile.de"}}, {"type": "way", "id": 24658608, "center": {"lat": 48.3130565, "lon": 11.9097403}, "tags": {"landuse": "industrial", "name": "Umspannwerk Erding", "power": "substation", "substation": "transmission", "voltage": "110000"}}, {"type": "way", "id": 24665151, "center": {"lat": 47.9001562, "lon": 10.6138557}, "tags": {"landuse": "industrial", "name": "Untere Au"}}, {"type": "way", "id": 24689165, "center": {"lat": 47.8242298, "lon": 10.6343839}, "tags": {"addr:city": "Biessenhofen", "addr:country": "DE", "addr:housenumber": "38", "addr:postcode": "87640", "addr:street": "Ebenhofener Stra\u00dfe", "landuse": "industrial", "name": "Umspannwerk Biessenhofen", "operator": "LEW", "power": "substation", "voltage": "110000"}}, {"type": "way", "id": 24704423, "center": {"lat": 48.6257643, "lon": 11.7790203}, "tags": {"landuse": "industrial", "name": "Wolf Klimatechnik GmbH", "operator": "Centrotec AG", "source": "Luftbilder des Bayerischen Vermessungsamts"}}, {"type": "way", "id": 24704424, "center": {"lat": 48.6310144, "lon": 11.7793729}, "tags": {"landuse": "industrial", "source": "Luftbilder des Bayerischen Vermessungsamts"}}, {"type": "way", "id": 24759264, "center": {"lat": 48.5550748, "lon": 9.467154}, "tags": {"landuse": "industrial", "name": "Papierfabrik Scheufelen", "wikidata": "Q2050692", "wikipedia": "de:Papierfabrik Scheufelen"}}, {"type": "way", "id": 24759266, "center": {"lat": 48.5442728, "lon": 9.474585}, "tags": {"landuse": "industrial"}}, {"type": "way", "id": 24767088, "center": {"lat": 49.1772514, "lon": 11.0253241}, "tags": {"barrier": "fence", "landuse": "industrial", "name": "Umspannwerk Petersgm\u00fcnd", "power": "substation", "substation": "transmission", "voltage": "110000"}}, {"type": "way", "id": 24768051, "center": {"lat": 48.7612393, "lon": 11.5077731}, "tags": {"barrier": "fence", "frequency": "50", "landuse": "industrial", "name": "Ingolstadt", "power": "substation", "ref": "IN", "substation": "transmission", "voltage": "380000;220000;110000"}}, {"type": "way", "id": 24768052, "center": {"lat": 48.7628277, "lon": 11.5035085}, "tags": {"barrier": "fence", "landuse": "industrial", "name": "Kraftwerk Ingolstadt", "operator": "E.ON", "operator:wikidata": "Q270223", "plant:method": "combustion", "plant:output:electricity": "840 MW", "plant:source": "oil", "power": "plant", "ref:EU:ENTSOE_EIC": "11WD2INGO0001783", "wikidata": "Q1640812", "wikipedia": "de:Kraftwerk Ingolstadt"}}, {"type": "way", "id": 24769788, "center": {"lat": 47.2770821, "lon": 11.4906162}, "tags": {"addr:city": "Hall in Tirol", "addr:country": "AT", "addr:housenumber": "51", "addr:postcode": "6060", "addr:street": "Innsbrucker Stra\u00dfe", "alt_name": "Tiroler R\u00f6hren und Metallwerke;R\u00f6hrenwerke", "landuse": "industrial", "name": "TRM Tiroler Rohre", "official_name": "Tiroler Rohre GmbH", "website": "https://trm.at/"}}, {"type": "way", "id": 24769789, "center": {"lat": 47.2753083, "lon": 11.4952226}, "tags": {"landuse": "industrial"}}, {"type": "way", "id": 24769790, "center": {"lat": 47.2789447, "lon": 11.4911442}, "tags": {"landuse": "industrial"}}, {"type": "way", "id": 24782252, "center": {"lat": 48.6380965, "lon": 9.2191509}, "tags": {"barrier": "fence", "landuse": "industrial", "man_made": "wastewater_plant"}}, {"type": "way", "id": 24786294, "center": {"lat": 47.5070287, "lon": 10.2723623}, "tags": {"addr:city": "Sonthofen", "addr:country": "DE", "addr:housenumber": "24", "addr:postcode": "87527", "addr:street": "Oberstdorfer Stra\u00dfe", "landuse": "industrial", "name": "RSGetriebe GmbH", "website": "https://www.rsgetriebe.de/"}}, {"type": "way", "id": 24792553, "center": {"lat": 48.4266253, "lon": 9.0436334}, "tags": {"landuse": "industrial", "name": "Weiherrain"}}, {"type": "way", "id": 24795926, "center": {"lat": 48.6609909, "lon": 10.1568641}, "tags": {"landuse": "industrial"}}, {"type": "way", "id": 24799047, "center": {"lat": 48.6239738, "lon": 10.0278745}, "tags": {"landuse": "industrial"}}, {"type": "way", "id": 24799054, "center": {"lat": 48.6240906, "lon": 10.0292002}, "tags": {"landuse": "industrial", "name": "Technologiepark"}}, {"type": "way", "id": 24810622, "center": {"lat": 47.6210671, "lon": 10.4895862}, "tags": {"barrier": "fence", "landuse": "industrial", "power": "substation", "substation": "distribution", "voltage": "110000"}}, {"type": "way", "id": 24827047, "center": {"lat": 48.1407119, "lon": 11.4281147}, "tags": {"addr:city": "M\u00fcnchen", "addr:country": "DE", "addr:housenumber": "21", "addr:street": "Brunhamstra\u00dfe", "barrier": "fence", "landuse": "industrial", "name": "Sirius Business Park"}}, {"type": "way", "id": 24833234, "center": {"lat": 48.8339846, "lon": 9.1790859}, "tags": {"landuse": "industrial"}}, {"type": "way", "id": 24839093, "center": {"lat": 48.8379525, "lon": 9.1892043}, "tags": {"landuse": "industrial"}}, {"type": "way", "id": 24843170, "center": {"lat": 48.1225205, "lon": 11.6927279}, "tags": {"landuse": "industrial"}}, {"type": "way", "id": 24880080, "center": {"lat": 48.4558758, "lon": 11.2503796}, "tags": {"industrial": "sawmill", "landuse": "industrial", "name": "Holzwerk A. Ziegenaus", "shop": "trade", "trade": "timber", "website": "https://spielgeraetebau-ziegenaus.de"}}, {"type": "way", "id": 24916804, "center": {"lat": 48.6265777, "lon": 9.452343}, "tags": {"landuse": "industrial"}}, {"type": "way", "id": 24956116, "center": {"lat": 48.8208971, "lon": 9.101645}, "tags": {"landuse": "industrial"}}, {"type": "way", "id": 24977222, "center": {"lat": 48.6776048, "lon": 10.8133797}, "tags": {"barrier": "fence", "landuse": "industrial", "name": "AGCO Fendt Werk 3"}}, {"type": "way", "id": 24980780, "center": {"lat": 48.1322139, "lon": 11.5264834}, "tags": {"addr:city": "M\u00fcnchen", "addr:country": "DE", "addr:housenumber": "13", "addr:postcode": "80686", "addr:street": "T\u00fcbinger Stra\u00dfe", "amenity": "recycling", "barrier": "fence", "check_date:opening_hours": "2020-12-15", "landuse": "industrial", "name": "Wertstoffhof T\u00fcbinger Stra\u00dfe 13", "opening_hours": "Mo 10:30-19:00; Tu-Fr 08:00-18:00; Sa 07:30-15:00", "operator": "Abfallwirtschaftsbetrieb M\u00fcnchen", "operator:short": "AWM", "operator:wikidata": "Q319971", "operator:wikipedia": "de:Abfallwirtschaftsbetrieb M\u00fcnchen", "phone": "+49 89 5470170", "recycling:batteries": "yes", "recycling:cans": "yes", "recycling:cardboard": "yes", "recycling:clothes": "yes", "recycling:engine_oil": "no", "recycling:glass": "yes", "recycling:paper": "yes", "recycling:plastic": "yes", "recycling:scrap_metal": "yes", "recycling:tyres": "no", "recycling:waste_oil": "no", "recycling:white_goods": "yes", "recycling:wood": "yes", "recycling_type": "centre", "website": "https://www.awm-muenchen.de/entsorgen/wertstoffhoefe/detail/wertstoffhof-in-sendling-westpark"}}, {"type": "way", "id": 24985845, "center": {"lat": 48.2504754, "lon": 11.3926361}, "tags": {"landuse": "industrial", "name": "Gewerbegebiet G\u00fcnding"}}, {"type": "way", "id": 24996000, "center": {"lat": 48.7583465, "lon": 9.2637944}, "tags": {"landuse": "industrial", "name": "Mercedes-Benz Werkteil Hedelfingen"}}, {"type": "way", "id": 25012730, "center": {"lat": 48.6854147, "lon": 10.1578507}, "tags": {"landuse": "industrial", "name": "ehem. WCM"}}, {"type": "way", "id": 25016060, "center": {"lat": 48.4723158, "lon": 11.1327174}, "tags": {"addr:city": "Aichach", "addr:country": "DE", "addr:housenumber": "17", "addr:postcode": "86551", "addr:street": "Zum Flugplatz", "barrier": "fence", "landuse": "industrial", "man_made": "wastewater_plant", "name": "Kl\u00e4ranlage Aichach", "operator": "Stadt Aichach"}}, {"type": "way", "id": 25016226, "center": {"lat": 47.8689172, "lon": 11.1641729}, "tags": {"landuse": "industrial"}}, {"type": "way", "id": 25047876, "center": {"lat": 49.0142539, "lon": 9.1562046}, "tags": {"landuse": "industrial"}}, {"type": "way", "id": 25049727, "center": {"lat": 49.1372777, "lon": 9.0722697}, "tags": {"landuse": "industrial", "name": "Gewerbegebiet Behaglicher Weg"}}, {"type": "way", "id": 25058828, "center": {"lat": 48.3218779, "lon": 11.5940496}, "tags": {"landuse": "industrial"}}, {"type": "way", "id": 25089467, "center": {"lat": 48.2303534, "lon": 10.0954841}, "tags": {"landuse": "industrial", "name": "Gewerbegebiet Rudolf-Diesel-Stra\u00dfe"}}, {"type": "way", "id": 25089468, "center": {"lat": 48.2284384, "lon": 10.0963313}, "tags": {"landuse": "industrial"}}, {"type": "way", "id": 25089469, "center": {"lat": 48.2167955, "lon": 10.0985268}, "tags": {"landuse": "industrial"}}, {"type": "way", "id": 25112099, "center": {"lat": 47.881874, "lon": 11.1857063}, "tags": {"landuse": "industrial"}}, {"type": "way", "id": 25118352, "center": {"lat": 48.672938, "lon": 10.8147607}, "tags": {"barrier": "fence", "landuse": "industrial", "name": "Bauhof"}}, {"type": "way", "id": 25118448, "center": {"lat": 48.5827443, "lon": 11.7579864}, "tags": {"landuse": "industrial", "name": "Hagl Autoverwertung"}}, {"type": "way", "id": 25131703, "center": {"lat": 48.2334394, "lon": 10.1002398}, "tags": {"landuse": "industrial"}}, {"type": "way", "id": 25150281, "center": {"lat": 48.6299755, "lon": 9.0255398}, "tags": {"landuse": "industrial", "name": "Buch/Sol", "wikidata": "Q101413376"}}, {"type": "way", "id": 25157668, "center": {"lat": 48.2759658, "lon": 11.4048477}, "tags": {"landuse": "industrial"}}, {"type": "way", "id": 25164842, "center": {"lat": 48.7017034, "lon": 10.8241131}, "tags": {"landuse": "industrial", "name": "ESG Kr\u00e4uter"}}, {"type": "way", "id": 25192350, "center": {"lat": 48.675148, "lon": 10.1597073}, "tags": {"disused:name": "Stowe-Woodward", "landuse": "industrial", "note": "2014 dauerhaft geschlossen"}}, {"type": "way", "id": 25209781, "center": {"lat": 47.2819937, "lon": 11.4865061}, "tags": {"landuse": "industrial", "name": "Gem\u00fcseland Tirol"}}, {"type": "way", "id": 25223902, "center": {"lat": 48.6692163, "lon": 10.1492072}, "tags": {"landuse": "industrial", "name": "Voith GmbH & Co. KGaA"}}, {"type": "way", "id": 25223903, "center": {"lat": 48.666225, "lon": 10.1500684}, "tags": {"landuse": "industrial", "name": "Voith GmbH & Co. KGaA"}}, {"type": "way", "id": 25223904, "center": {"lat": 48.6651172, "lon": 10.153967}, "tags": {"landuse": "industrial", "name": "Paul Hartmann AG"}}, {"type": "way", "id": 25223905, "center": {"lat": 48.6643983, "lon": 10.1524187}, "tags": {"landuse": "industrial", "name": "Paul Hartmann AG"}}, {"type": "way", "id": 25232713, "center": {"lat": 48.336923, "lon": 9.9945545}, "tags": {"landuse": "industrial"}}, {"type": "way", "id": 25232782, "center": {"lat": 48.3304335, "lon": 9.9616038}, "tags": {"landuse": "industrial"}}, {"type": "way", "id": 25278982, "center": {"lat": 48.5104954, "lon": 9.0719126}, "tags": {"image": "File:Stadtwerke T\u00fcbingen, Zentrale 2012.jpg", "landuse": "industrial", "name": "Stadtwerke T\u00fcbingen", "operator": "Stadtwerke T\u00fcbingen GmbH", "wikidata": "Q1343869", "wikimedia_commons": "Category:Stadtwerke T\u00fcbingen", "wikipedia": "de:Stadtwerke T\u00fcbingen"}}, {"type": "way", "id": 25280703, "center": {"lat": 48.4907637, "lon": 9.0667099}, "tags": {"landuse": "industrial"}}, {"type": "way", "id": 25287602, "center": {"lat": 48.674459, "lon": 10.1573104}, "tags": {"landuse": "industrial", "name": "Voith GmbH & Co. KGaA"}}, {"type": "way", "id": 25306869, "center": {"lat": 48.7509301, "lon": 9.2706644}, "tags": {"factory": "car_parts", "industrial": "factory", "landuse": "industrial", "name": "Mercedes-Benz Werkteil Mettingen (4)"}}, {"type": "way", "id": 25308395, "center": {"lat": 47.2684092, "lon": 9.6049968}, "tags": {"landuse": "industrial"}}, {"type": "way", "id": 25308411, "center": {"lat": 47.271339, "lon": 9.6060344}, "tags": {"landuse": "industrial"}}, {"type": "way", "id": 25316931, "center": {"lat": 48.7774009, "lon": 11.4262563}, "tags": {"landuse": "industrial", "name": "Stadtwerke Ingolstadt"}}, {"type": "way", "id": 25334110, "center": {"lat": 48.2579248, "lon": 11.453878}, "tags": {"landuse": "industrial"}}, {"type": "way", "id": 25340362, "center": {"lat": 48.2590645, "lon": 11.600975}, "tags": {"landuse": "industrial"}}, {"type": "way", "id": 25362077, "center": {"lat": 48.7384496, "lon": 11.2523711}, "tags": {"landuse": "industrial", "name": "Donau-Malz"}}, {"type": "way", "id": 25363084, "center": {"lat": 48.7413851, "lon": 11.2384675}, "tags": {"landuse": "industrial", "name": "Industriegebiet Neuburg-Gr\u00fcnau"}}, {"type": "way", "id": 25376679, "center": {"lat": 48.6777061, "lon": 10.8708375}, "tags": {"landuse": "industrial"}}, {"type": "way", "id": 25378507, "center": {"lat": 48.4390118, "lon": 11.8423361}, "tags": {"landuse": "industrial", "name": "Gewerbegebiet Eichenstra\u00dfe"}}, {"type": "way", "id": 25380501, "center": {"lat": 48.2552465, "lon": 11.7433669}, "tags": {"barrier": "fence", "landuse": "industrial", "note": "danger zone"}}, {"type": "way", "id": 25381679, "center": {"lat": 48.4978344, "lon": 9.0301599}, "tags": {"landuse": "industrial", "name": "Diener-Areal"}}, {"type": "way", "id": 25398321, "center": {"lat": 48.5885817, "lon": 9.6490937}, "tags": {"landuse": "industrial"}}, {"type": "way", "id": 25423146, "center": {"lat": 47.564053, "lon": 10.6971459}, "tags": {"landuse": "industrial", "name": "Magnus-Park", "website": "https://magnus-park.de/"}}, {"type": "way", "id": 25452422, "center": {"lat": 48.6977463, "lon": 11.0048875}, "tags": {"landuse": "industrial"}}, {"type": "way", "id": 25452528, "center": {"lat": 48.6922565, "lon": 11.0123244}, "tags": {"addr:city": "Burgheim", "addr:housenumber": "15", "addr:postcode": "86666", "addr:street": "Gempfinger Stra\u00dfe", "landuse": "industrial", "name": "Trouw Nutrition Deutschland GmbH", "website": "https://www.milkivit.de/"}}, {"type": "way", "id": 25468593, "center": {"lat": 48.9738233, "lon": 9.6498248}, "tags": {"landuse": "industrial", "name": "Gewerbegebiet Hauen"}}, {"type": "way", "id": 25476408, "center": {"lat": 48.0737193, "lon": 11.7260151}, "tags": {"landuse": "industrial", "name": "Gemeindewerk - Bauhof Putzbrunn", "operator": "Gemeinderwerk Putzbrunn"}}, {"type": "way", "id": 25477280, "center": {"lat": 48.6647726, "lon": 10.8104302}, "tags": {"landuse": "industrial", "name": "Zott"}}, {"type": "way", "id": 25477287, "center": {"lat": 48.6682996, "lon": 10.8125048}, "tags": {"landuse": "industrial", "name": "GEDA"}}, {"type": "way", "id": 25484890, "center": {"lat": 47.4942084, "lon": 10.7412821}, "tags": {"alt_name": "Plansee Metall", "landuse": "industrial", "name": "Plansee", "wikidata": "Q2098323", "wikipedia": "de:Plansee SE"}}, {"type": "way", "id": 25486283, "center": {"lat": 49.117858, "lon": 9.172391}, "tags": {"landuse": "industrial"}}, {"type": "way", "id": 25503085, "center": {"lat": 47.5524985, "lon": 10.6385373}, "tags": {"addr:city": "Vils", "addr:postcode": "6682", "landuse": "industrial", "man_made": "works", "name": "Schretter & Cie Werk Vils", "operator": "Schretter & Cie GmbH & Co KG", "operator:wikidata": "Q108283406", "product": "cement;calc", "source": "gis3.tirol.gv.at", "website": "https://www.schretter.tirol/"}}, {"type": "way", "id": 25513108, "center": {"lat": 48.1708161, "lon": 11.137488}, "tags": {"created_by": "Potlatch 0.9c", "landuse": "industrial"}}, {"type": "way", "id": 25521019, "center": {"lat": 47.741258, "lon": 8.9679816}, "tags": {"industrial": "factory", "landuse": "industrial", "name": "Allweiler"}}, {"type": "way", "id": 25524001, "center": {"lat": 48.1247094, "lon": 11.1760605}, "tags": {"landuse": "industrial"}}, {"type": "way", "id": 25553976, "center": {"lat": 48.6670321, "lon": 10.8220345}, "tags": {"landuse": "industrial", "name": "Karger"}}, {"type": "way", "id": 25557397, "center": {"lat": 49.1436279, "lon": 9.1509975}, "tags": {"access": "no", "barrier": "fence", "landuse": "industrial", "name": "Umspannwerk Gro\u00dfgartach", "wikidata": "Q53126418"}}, {"type": "way", "id": 25577367, "center": {"lat": 48.6666345, "lon": 9.7777078}, "tags": {"landuse": "industrial"}}, {"type": "way", "id": 25577402, "center": {"lat": 48.6508833, "lon": 9.7854166}, "tags": {"landuse": "industrial"}}, {"type": "way", "id": 25582822, "center": {"lat": 48.8203316, "lon": 9.0798532}, "tags": {"landuse": "industrial", "name": "Ditzingen-Ost"}}, {"type": "way", "id": 25597043, "center": {"lat": 48.300352, "lon": 10.0111015}, "tags": {"landuse": "industrial"}}, {"type": "way", "id": 25605032, "center": {"lat": 47.9918789, "lon": 9.6609749}, "tags": {"landuse": "industrial", "name": "Liebherr-Mischtechnik"}}, {"type": "way", "id": 25619995, "center": {"lat": 47.6720979, "lon": 9.3857944}, "tags": {"landuse": "industrial", "name": "bodensee business base"}}, {"type": "way", "id": 25629989, "center": {"lat": 48.6628816, "lon": 10.8060292}, "tags": {"landuse": "industrial", "name": "S\u00fcdstahl"}}, {"type": "way", "id": 25631947, "center": {"lat": 48.6646449, "lon": 10.8146078}, "tags": {"landuse": "industrial"}}, {"type": "way", "id": 25636649, "center": {"lat": 47.6700106, "lon": 9.3661533}, "tags": {"landuse": "industrial"}}, {"type": "way", "id": 25640082, "center": {"lat": 49.0644609, "lon": 9.2641821}, "tags": {"landuse": "industrial", "name": "Ilsfeld-Nord"}}, {"type": "way", "id": 25648916, "center": {"lat": 48.6814097, "lon": 10.1593115}, "tags": {"landuse": "industrial", "name": "Stadtwerke Heidenheim"}}, {"type": "way", "id": 25652922, "center": {"lat": 48.6212171, "lon": 10.2394455}, "tags": {"brand:wikidata": "Q151137", "landuse": "industrial", "name": "Margarete Steiff GmbH", "website": "https://www.steiff.com/"}}, {"type": "way", "id": 25652925, "center": {"lat": 48.6230563, "lon": 10.2548902}, "tags": {"landuse": "industrial", "name": "Albert Ziegler GmbH"}}, {"type": "way", "id": 25652928, "center": {"lat": 48.6234419, "lon": 10.2264945}, "tags": {"addr:city": "Giengen an der Brenz", "alt_name": "Bosch", "landuse": "industrial", "name": "BSH Hausger\u00e4te GmbH"}}, {"type": "way", "id": 25653370, "center": {"lat": 48.620288, "lon": 9.8332955}, "tags": {"landuse": "industrial", "name": "WMF"}}, {"type": "way", "id": 25660832, "center": {"lat": 48.7090079, "lon": 10.7544228}, "tags": {"landuse": "industrial"}}, {"type": "way", "id": 25662202, "center": {"lat": 48.7156865, "lon": 10.7583698}, "tags": {"amenity": "recycling", "barrier": "fence", "landuse": "industrial", "recycling:scrap_metal": "yes"}}, {"type": "way", "id": 25663893, "center": {"lat": 48.2115647, "lon": 11.2479575}, "tags": {"landuse": "industrial"}}, {"type": "way", "id": 25667067, "center": {"lat": 48.4712435, "lon": 10.8581405}, "tags": {"landuse": "industrial"}}, {"type": "way", "id": 25679054, "center": {"lat": 48.6891071, "lon": 9.2683512}, "tags": {"landuse": "industrial"}}, {"type": "way", "id": 25704791, "center": {"lat": 48.5185972, "lon": 10.9123317}, "tags": {"addr:city": "Todtenweis", "addr:country": "DE", "addr:housenumber": "20", "addr:postcode": "86447", "addr:street": "Kapellenstra\u00dfe", "addr:suburb": "Sand", "landuse": "industrial", "man_made": "works", "name": "Durach Carl Sauerkraut- & Konservenfabrik & Co. KG"}}, {"type": "way", "id": 25726615, "center": {"lat": 47.5722396, "lon": 10.5642502}, "tags": {"landuse": "industrial", "man_made": "works", "name": "DMG Mori Standort Pfronten", "operator": "DECKEL MAHO Pfronten GmbH", "operator:wikidata": "Q315290", "product": "machinery;software", "website": "https://ag.dmgmori.com"}}, {"type": "way", "id": 25735323, "center": {"lat": 48.2345482, "lon": 10.1068135}, "tags": {"landuse": "industrial", "name": "Industriegebiet Nord"}}, {"type": "way", "id": 25744874, "center": {"lat": 47.2812499, "lon": 11.4118289}, "tags": {"landuse": "industrial"}}, {"type": "way", "id": 25749656, "center": {"lat": 48.7768796, "lon": 11.4237991}, "tags": {"contact:website": "http://www.conti-online.com/generator/www/com/de/continental/portal/allgemein/home/index_de.html", "landuse": "industrial", "name": "AUMOVIO", "source": "HiRes aerial imagery"}}, {"type": "way", "id": 25764943, "center": {"lat": 48.6930828, "lon": 9.116298}, "tags": {"landuse": "industrial", "name": "MHZ"}}, {"type": "way", "id": 25769955, "center": {"lat": 48.7116475, "lon": 10.7837013}, "tags": {"landuse": "industrial"}}, {"type": "way", "id": 25786404, "center": {"lat": 48.9131899, "lon": 9.1969274}, "tags": {"access": "no", "barrier": "fence", "frequency": "50", "landuse": "industrial", "name": "Transnet BW Umspannwerk Hoheneck", "note": "FIXME: incomplete", "operator": "TransnetBW", "operator:wikidata": "Q1672772", "operator:wikipedia": "de:TransnetBW", "power": "substation", "substation": "transmission", "voltage": "220000;110000"}}, {"type": "way", "id": 25802269, "center": {"lat": 48.914433, "lon": 9.1907126}, "tags": {"access": "no", "barrier": "fence", "frequency": "50", "landuse": "industrial", "name": "Amprion Umspannwerk Hoheneck", "operator": "Amprion", "operator:wikidata": "Q477318", "operator:wikipedia": "de:Amprion", "power": "substation", "substation": "transmission", "voltage": "380000;220000;110000", "wikidata": "Q51607008"}}, {"type": "way", "id": 25805299, "center": {"lat": 48.161039, "lon": 10.7148482}, "tags": {"landuse": "industrial"}}, {"type": "way", "id": 25842716, "center": {"lat": 48.1639294, "lon": 10.7147327}, "tags": {"landuse": "industrial"}}, {"type": "way", "id": 25851305, "center": {"lat": 48.5159534, "lon": 11.1085494}, "tags": {"landuse": "industrial"}}, {"type": "way", "id": 25851497, "center": {"lat": 48.506805, "lon": 11.1194563}, "tags": {"barrier": "fence", "fence_type": "metal", "height": "3", "landuse": "industrial"}}, {"type": "way", "id": 25861541, "center": {"lat": 48.4906137, "lon": 10.1255775}, "tags": {"height": "2.5", "landuse": "industrial"}}, {"type": "way", "id": 25861956, "center": {"lat": 48.4983871, "lon": 10.0827103}, "tags": {"landuse": "industrial"}}, {"type": "way", "id": 25861958, "center": {"lat": 48.4896964, "lon": 10.0846401}, "tags": {"landuse": "industrial"}}, {"type": "way", "id": 25863896, "center": {"lat": 48.652742, "lon": 10.1630423}, "tags": {"addr:housenumber": "30", "addr:street": "Hainenbachstra\u00dfe", "industrial": "cement", "landuse": "industrial", "name": "Schwenk Zement", "website": "https://www.schwenk.de/zementwerk/schwenk-zementwerk-mergelstetten/"}}, {"type": "way", "id": 25870656, "center": {"lat": 48.492412, "lon": 10.1081027}, "tags": {"landuse": "industrial"}}, {"type": "way", "id": 25884392, "center": {"lat": 48.0862321, "lon": 10.6941004}, "tags": {"barrier": "fence", "landuse": "industrial", "note": "Sendeanlage komplett r\u00fcckgebaut, Masten 09/2014-01/2015 gesprengt, Teile als Solaranlage genutzt"}}, {"type": "way", "id": 25889392, "center": {"lat": 48.8089721, "lon": 9.086212}, "tags": {"landuse": "industrial"}}, {"type": "way", "id": 25913365, "center": {"lat": 48.9769316, "lon": 9.2629149}, "tags": {"landuse": "industrial", "name": "Kreuzweg\u00e4cker"}}, {"type": "way", "id": 25929795, "center": {"lat": 48.7818388, "lon": 10.100073}, "tags": {"landuse": "industrial", "name": "Carl Zeiss AG", "url": "http://www.zeiss.de/", "wikipedia": "en:Carl Zeiss AG"}}, {"type": "way", "id": 25933305, "center": {"lat": 48.7096089, "lon": 10.7636834}, "tags": {"landuse": "industrial", "name": "Birkenhof"}}, {"type": "way", "id": 25944912, "center": {"lat": 48.4498628, "lon": 11.2459672}, "tags": {"landuse": "industrial"}}, {"type": "way", "id": 25973419, "center": {"lat": 48.7186369, "lon": 9.3722745}, "tags": {"landuse": "industrial", "name": "Heizkraftwerk Altbach/Deizisau", "operator": "EnBW Energie Baden-W\u00fcrttemberg AG", "operator:wikidata": "Q644304", "operator:wikipedia": "de:EnBW Energie Baden-W\u00fcrttemberg", "plant:method": "combustion", "plant:output:electricity": "1022 MW", "plant:output:hot_water": "yes", "plant:source": "coal;gas", "power": "plant", "ref:EU:ENTSOE_EIC": "11WD4AL1KU1-S--E", "wikidata": "Q323828", "wikipedia": "de:Heizkraftwerk Altbach/Deizisau"}}, {"type": "way", "id": 26000659, "center": {"lat": 48.667092, "lon": 9.3960225}, "tags": {"landuse": "industrial"}}, {"type": "way", "id": 26095919, "center": {"lat": 48.7073592, "lon": 9.3074353}, "tags": {"is_in": "Denkendorf", "landuse": "industrial", "name": "Licht\u00e4cker"}}, {"type": "way", "id": 26147319, "center": {"lat": 47.5495909, "lon": 10.6548502}, "tags": {"landuse": "industrial"}}, {"type": "way", "id": 26162446, "center": {"lat": 48.9012727, "lon": 9.0762086}, "tags": {"landuse": "industrial"}}, {"type": "way", "id": 26164380, "center": {"lat": 48.6307753, "lon": 9.5083401}, "tags": {"landuse": "industrial"}}, {"type": "way", "id": 26170028, "center": {"lat": 48.0279574, "lon": 11.5879899}, "tags": {"addr:city": "Oberhaching", "addr:country": "DE", "addr:housenumber": "26", "addr:postcode": "82041", "addr:street": "Gr\u00fcnwalder Weg", "amenity": "recycling", "check_date:opening_hours": "2023-09-21", "landuse": "industrial", "name": "Wertstoffhof Oberhaching", "opening_hours": "Tu 14:00-20:00; Th,Sa 09:00-13:00; Fr 14:00-19:00", "recycling_type": "centre", "website": "https://www.oberhaching.de/de/Rathaus-Service/Ver-und-Entsorgung/Abfall-und-Wertstoffe/Wertstoffhof", "wheelchair": "yes"}}, {"type": "way", "id": 26180813, "center": {"lat": 47.6188786, "lon": 9.9921777}, "tags": {"landuse": "industrial"}}, {"type": "way", "id": 26181377, "center": {"lat": 47.8434458, "lon": 11.1404504}, "tags": {"addr:city": "Weilheim in Oberbayern", "addr:country": "DE", "addr:housenumber": "7", "addr:postcode": "82362", "addr:street": "Am \u00d6ferl", "amenity": "fuel", "fuel:HGV_diesel": "yes", "fuel:HVO100": "yes", "fuel:biodiesel": "yes", "fuel:diesel": "yes", "fuel:diesel_b0": "yes", "fuel:diesel_b7": "yes", "landuse": "industrial", "name": "Mineral\u00f6l Harrer GmbH", "opening_hours": "Mo-Fr 07:00-17:00", "phone": "+49 881 2555", "website": "https://harrer.biz"}}, {"type": "way", "id": 26181384, "center": {"lat": 47.8468655, "lon": 11.1413182}, "tags": {"landuse": "industrial"}}, {"type": "way", "id": 26195665, "center": {"lat": 49.1700445, "lon": 11.7296774}, "tags": {"landuse": "industrial", "man_made": "wastewater_plant", "name": "Kl\u00e4ranlage Parsberg"}}, {"type": "way", "id": 26258574, "center": {"lat": 48.1634608, "lon": 10.6792177}, "tags": {"landuse": "industrial", "name": "S\u00e4gewerk"}}, {"type": "way", "id": 26272562, "center": {"lat": 48.2775334, "lon": 8.998905}, "tags": {"landuse": "industrial"}}, {"type": "way", "id": 26283738, "center": {"lat": 48.8599202, "lon": 9.6108164}, "tags": {"landuse": "industrial", "name": "Reizenwiesen", "note": "Grenzen gesch\u00e4tzt"}}, {"type": "way", "id": 26287503, "center": {"lat": 48.6925666, "lon": 10.1643616}, "tags": {"landuse": "industrial", "name": "Sirius Business Park Heidenheim", "note": "southern border needs to be specified more precisely"}}, {"type": "way", "id": 26289513, "center": {"lat": 48.6983166, "lon": 10.1666865}, "tags": {"barrier": "fence", "fence_type": "chain", "landuse": "industrial", "name": "Althammer"}}, {"type": "way", "id": 26290664, "center": {"lat": 48.6994006, "lon": 10.168598}, "tags": {"landuse": "industrial", "name": "Pro Bau Kugel"}}, {"type": "way", "id": 26301546, "center": {"lat": 48.280134, "lon": 10.0700155}, "tags": {"landuse": "industrial", "name": "Wieland-Werke AG"}}, {"type": "way", "id": 26301547, "center": {"lat": 48.2719249, "lon": 10.0708762}, "tags": {"landuse": "industrial", "name": "Wieland-Werke AG"}}, {"type": "way", "id": 26318355, "center": {"lat": 48.2439361, "lon": 11.9467659}, "tags": {"landuse": "industrial"}}, {"type": "way", "id": 26322615, "center": {"lat": 48.4959758, "lon": 9.7149217}, "tags": {"landuse": "industrial", "name": "Laichinger Alb"}}, {"type": "way", "id": 26327920, "center": {"lat": 48.9648324, "lon": 9.2699103}, "tags": {"landuse": "industrial"}}, {"type": "way", "id": 26332010, "center": {"lat": 48.1500775, "lon": 10.1153678}, "tags": {"landuse": "industrial", "name": "Aldi Zentrallager"}}, {"type": "way", "id": 26334304, "center": {"lat": 47.814223, "lon": 9.642043}, "tags": {"addr:city": "Weingarten", "addr:housenumber": "54", "addr:postcode": "88250", "addr:street": "Gartenstra\u00dfe", "landuse": "industrial"}}, {"type": "way", "id": 26344182, "center": {"lat": 48.6918781, "lon": 10.1619237}, "tags": {"landuse": "industrial", "name": "Gewerbegebiet Seewiesen"}}, {"type": "way", "id": 26352614, "center": {"lat": 48.7913749, "lon": 11.5077369}, "tags": {"landuse": "industrial", "loc_name": "Interpark", "name": "InTerPark"}}, {"type": "way", "id": 26363719, "center": {"lat": 47.5396884, "lon": 10.2579115}, "tags": {"landuse": "industrial", "name": "Robert Bosch GmbH"}}, {"type": "way", "id": 26364206, "center": {"lat": 47.6633671, "lon": 9.4682646}, "tags": {"landuse": "industrial", "name": "ZF Friedrichshafen - Werk 2", "wikidata": "Q136119", "wikipedia": "de:ZF Friedrichshafen"}}, {"type": "way", "id": 26383564, "center": {"lat": 48.4579282, "lon": 10.7449642}, "tags": {"landuse": "industrial", "name": "Solarpark Heretsried", "plant:method": "photovoltaic", "plant:output:electricity": "yes", "plant:source": "solar", "power": "plant"}}, {"type": "way", "id": 26418840, "center": {"lat": 48.1328327, "lon": 10.7371556}, "tags": {"landuse": "industrial", "name": "Malteurop"}}, {"type": "way", "id": 26437534, "center": {"lat": 47.8627581, "lon": 11.7204444}, "tags": {"landuse": "industrial", "name": "Lochham", "postal_code": "83627"}}, {"type": "way", "id": 26438570, "center": {"lat": 48.9690418, "lon": 8.955032}, "tags": {"landuse": "industrial"}}, {"type": "way", "id": 26460976, "center": {"lat": 48.8009013, "lon": 8.9462217}, "tags": {"landuse": "industrial", "man_made": "wastewater_plant", "name": "Kl\u00e4ranlage Rutesheim"}}, {"type": "way", "id": 26462169, "center": {"lat": 48.4416926, "lon": 9.6561387}, "tags": {"amenity": "recycling", "landuse": "industrial", "name": "Bauhof", "recycling:batteries": "yes", "recycling:green_waste": "yes", "recycling:wood": "yes", "recycling_type": "container"}}, {"type": "way", "id": 26464550, "center": {"lat": 48.9025663, "lon": 9.099002}, "tags": {"landuse": "industrial", "name": "Maulbronner Weg"}}, {"type": "way", "id": 26464604, "center": {"lat": 48.9073079, "lon": 9.0892581}, "tags": {"barrier": "fence", "landuse": "industrial", "name": "Mahle"}}, {"type": "way", "id": 26494213, "center": {"lat": 47.9370286, "lon": 10.0843823}, "tags": {"landuse": "industrial", "name": "Marbeton"}}, {"type": "way", "id": 26499342, "center": {"lat": 48.8442257, "lon": 10.0898942}, "tags": {"landuse": "industrial", "name": "Nord"}}, {"type": "way", "id": 26505205, "center": {"lat": 49.1025391, "lon": 9.1110051}, "tags": {"landuse": "industrial"}}, {"type": "way", "id": 26508452, "center": {"lat": 48.7600954, "lon": 10.3020574}, "tags": {"industrial": "factory", "landuse": "industrial", "name": "Im Riegel"}}, {"type": "way", "id": 26516051, "center": {"lat": 49.007234, "lon": 10.8500308}, "tags": {"landuse": "industrial"}}, {"type": "way", "id": 26520047, "center": {"lat": 48.9311348, "lon": 9.0339463}, "tags": {"landuse": "industrial", "man_made": "works", "name": "Intek", "official_name": "Intek GmbH"}}, {"type": "way", "id": 26520048, "center": {"lat": 48.9291584, "lon": 9.0326045}, "tags": {"landuse": "industrial", "man_made": "wastewater_plant", "website": "https://www.oberriexingen.de/index.cfm?fuseaction=einrichtungen&id=4"}}, {"type": "way", "id": 26520950, "center": {"lat": 48.9343596, "lon": 9.0636506}, "tags": {"landuse": "industrial"}}, {"type": "way", "id": 26521198, "center": {"lat": 48.9114161, "lon": 9.0792933}, "tags": {"landuse": "industrial", "source": "Yahoo;Bing"}}, {"type": "way", "id": 26521199, "center": {"lat": 48.9108478, "lon": 9.0846465}, "tags": {"landuse": "industrial", "name": "Mall"}}, {"type": "way", "id": 26525879, "center": {"lat": 48.281073, "lon": 8.9441515}, "tags": {"barrier": "fence", "covered": "yes", "landuse": "industrial", "man_made": "reservoir", "name": "Hochbeh\u00e4lter Irrenberg", "operator": "Zweckverband Bodensee-Wasserversorgung"}}, {"type": "way", "id": 26554547, "center": {"lat": 48.7830279, "lon": 11.4758309}, "tags": {"landuse": "industrial", "name": "INNO Park"}}, {"type": "way", "id": 26556371, "center": {"lat": 48.4053051, "lon": 11.5833305}, "tags": {"landuse": "industrial"}}, {"type": "way", "id": 26558120, "center": {"lat": 48.2147874, "lon": 11.4741023}, "tags": {"landuse": "industrial", "name": "MAN Truck & Bus"}}, {"type": "way", "id": 26608208, "center": {"lat": 47.9479525, "lon": 10.0817004}, "tags": {"landuse": "industrial", "name": "Sauerstoffwerk Friedrichshafen Werk Aitrach"}}, {"type": "way", "id": 26654996, "center": {"lat": 48.6921629, "lon": 10.2310797}, "tags": {"addr:city": "Nattheim", "addr:country": "DE", "addr:housenumber": "27", "addr:postcode": "89564", "addr:street": "Heidenheimer Weg", "industrial": "garage", "landuse": "industrial", "name": "Autofachmarkt Meyer", "opening_hours": "Mo-Fr 08:00-12:00,13:30-18:00; Sa 08:00-12:00", "phone": "+49 7321 97920", "shop": "car_parts", "website": "https://afm-meyer.de"}}, {"type": "way", "id": 26657855, "center": {"lat": 48.9349043, "lon": 8.9294164}, "tags": {"landuse": "industrial"}}, {"type": "way", "id": 26661883, "center": {"lat": 48.6868726, "lon": 10.2378935}, "tags": {"landuse": "industrial", "name": "Gewerbegebiet Rinderberg"}}, {"type": "way", "id": 26685084, "center": {"lat": 48.6996668, "lon": 10.9100561}, "tags": {"addr:city": "Rain", "addr:country": "DE", "addr:housenumber": "50", "addr:postcode": "86641", "addr:street": "Donauw\u00f6rther Stra\u00dfe", "contact:website": "https://www.suedzucker.de/de", "description": "R\u00fcbenzuckerfabrik", "industrial": "sugar_refinery", "landuse": "industrial", "name": "S\u00fcdzucker AG Werk Rain", "operator": "S\u00fcdzucker AG", "product": "sugar", "source_ref": "https://www.suedzucker.de/de/unternehmen/standorte"}}, {"type": "way", "id": 26702831, "center": {"lat": 47.3585853, "lon": 9.6180963}, "tags": {"landuse": "industrial"}}, {"type": "way", "id": 26708144, "center": {"lat": 48.4980689, "lon": 9.3827191}, "tags": {"landuse": "industrial", "name": "Minimax"}}, {"type": "way", "id": 26716556, "center": {"lat": 48.4300495, "lon": 9.0735511}, "tags": {"landuse": "industrial", "name": "Industriegebiet S\u00fcd"}}, {"type": "way", "id": 26716709, "center": {"lat": 48.4365276, "lon": 9.069354}, "tags": {"landuse": "industrial", "name": "Industriegebiet Talstra\u00dfe"}}, {"type": "way", "id": 26724246, "center": {"lat": 48.8149799, "lon": 9.2215164}, "tags": {"landuse": "industrial", "name": "Kraftwerk Stuttgart-M\u00fcnster", "operator": "EnBW Energie Baden-W\u00fcrttemberg AG", "operator:wikidata": "Q644304", "plant:method": "combustion", "plant:output:electricity": "179.4 MW", "plant:output:hot_water": "450 MW", "plant:source": "coal;oil;waste", "power": "plant", "ref:EU:ENTSOE_EIC": "11WD4MUST5G----B", "voltage": "110000", "wikidata": "Q1786210", "wikipedia": "de:Kraftwerk Stuttgart-M\u00fcnster"}}, {"type": "way", "id": 26724775, "center": {"lat": 48.5446601, "lon": 9.7990686}, "tags": {"landuse": "industrial"}}, {"type": "way", "id": 26772739, "center": {"lat": 47.5678163, "lon": 10.6733302}, "tags": {"landuse": "industrial", "name": "Bauhof Stadt F\u00fcssen"}}, {"type": "way", "id": 26787465, "center": {"lat": 47.7185669, "lon": 9.7475519}, "tags": {"landuse": "industrial", "name": "Rink"}}, {"type": "way", "id": 26798395, "center": {"lat": 48.4161182, "lon": 9.4780439}, "tags": {"landuse": "industrial"}}, {"type": "way", "id": 26800162, "center": {"lat": 48.6679948, "lon": 9.1188763}, "tags": {"landuse": "industrial"}}, {"type": "way", "id": 26810569, "center": {"lat": 48.8192122, "lon": 9.1626222}, "tags": {"brand:wikidata": "Q234021", "brand:wikipedia": "de:Robert Bosch GmbH", "fenced": "yes", "landuse": "industrial", "name": "Bosch - Standort Feuerbach"}}, {"type": "way", "id": 26814092, "center": {"lat": 48.6955726, "lon": 9.1229281}, "tags": {"landuse": "industrial"}}, {"type": "way", "id": 26820599, "center": {"lat": 48.2097381, "lon": 11.7815363}, "tags": {"check_date": "2024-07-21", "generator:method": "anaerobic_digestion", "generator:output:biogas": "yes", "generator:source": "biomass", "generator:type": "bioreactor", "landuse": "industrial", "name": "Biomethananlage Pliening", "power": "generator"}}, {"type": "way", "id": 26830213, "center": {"lat": 48.1888124, "lon": 11.2427446}, "tags": {"landuse": "industrial"}}, {"type": "way", "id": 26830700, "center": {"lat": 48.9931328, "lon": 8.9470527}, "tags": {"landuse": "industrial", "name": "Reutwiesenstra\u00dfe"}}, {"type": "way", "id": 26844186, "center": {"lat": 47.5624712, "lon": 9.1012757}, "tags": {"landuse": "industrial", "source": "Bing"}}, {"type": "way", "id": 26844693, "center": {"lat": 47.5693481, "lon": 9.0962241}, "tags": {"landuse": "industrial"}}, {"type": "way", "id": 26845141, "center": {"lat": 48.5616814, "lon": 11.2528077}, "tags": {"landuse": "industrial", "name": "Bauer AG"}}, {"type": "way", "id": 26845613, "center": {"lat": 47.5617712, "lon": 9.1283292}, "tags": {"landuse": "industrial"}}, {"type": "way", "id": 26847904, "center": {"lat": 47.5625898, "lon": 9.0876525}, "tags": {"landuse": "industrial"}}, {"type": "way", "id": 26922795, "center": {"lat": 47.7029351, "lon": 10.0558577}, "tags": {"landuse": "industrial"}}, {"type": "way", "id": 26959396, "center": {"lat": 48.8091317, "lon": 8.9288251}, "tags": {"landuse": "industrial", "name": "Bauhof Rutesheim"}}, {"type": "way", "id": 26979328, "center": {"lat": 48.8096319, "lon": 8.9283251}, "tags": {"landuse": "industrial"}}, {"type": "way", "id": 26979409, "center": {"lat": 48.8079261, "lon": 8.9294347}, "tags": {"landuse": "industrial"}}, {"type": "way", "id": 27026847, "center": {"lat": 48.3153114, "lon": 10.8928515}, "tags": {"landuse": "industrial"}}, {"type": "way", "id": 27026851, "center": {"lat": 48.3165623, "lon": 10.8942887}, "tags": {"landuse": "industrial"}}, {"type": "way", "id": 27026893, "center": {"lat": 48.3177016, "lon": 10.8924633}, "tags": {"addr:city": "Augsburg", "addr:country": "DE", "addr:housenumber": "50", "addr:postcode": "86179", "addr:street": "Unterer Talweg", "landuse": "industrial", "name": "Gebr. J\u00e4cklin", "website": "https://www.jaecklin-industrial.de/"}}, {"type": "way", "id": 27038207, "center": {"lat": 48.9787618, "lon": 9.6555587}, "tags": {"industrial": "factory", "landuse": "industrial", "name": "Im Beundle"}}, {"type": "way", "id": 27043644, "center": {"lat": 47.9345448, "lon": 10.1051941}, "tags": {"landuse": "industrial", "name": "Gewerbegebiet Ferthofen"}}, {"type": "way", "id": 27074751, "center": {"lat": 48.2130566, "lon": 11.4759512}, "tags": {"landuse": "industrial", "name": "MTU Aero Engines", "website": "https://www.mtu.de/de/", "wikidata": "Q128929", "wikipedia": "de:MTU Aero Engines"}}, {"type": "way", "id": 27089333, "center": {"lat": 47.5607763, "lon": 9.098462}, "tags": {"landuse": "industrial"}}, {"type": "way", "id": 27094478, "center": {"lat": 49.0464948, "lon": 11.3425562}, "tags": {"landuse": "industrial"}}, {"type": "way", "id": 27112599, "center": {"lat": 48.3675231, "lon": 10.8740966}, "tags": {"landuse": "industrial", "name": "Eberle"}}, {"type": "way", "id": 27163833, "center": {"lat": 49.0189005, "lon": 10.9641715}, "tags": {"landuse": "industrial"}}, {"type": "way", "id": 27172819, "center": {"lat": 48.6801382, "lon": 10.9054594}, "tags": {"landuse": "industrial", "name": "Kittelm\u00fcllerberg"}}, {"type": "way", "id": 27223392, "center": {"lat": 48.9594451, "lon": 9.2598147}, "tags": {"landuse": "industrial", "name": "Gewerbegebiet Zinsser"}}, {"type": "way", "id": 27248660, "center": {"lat": 48.4714199, "lon": 11.1487904}, "tags": {"landuse": "industrial"}}, {"type": "way", "id": 27253509, "center": {"lat": 48.6656706, "lon": 9.6867353}, "tags": {"landuse": "industrial"}}, {"type": "way", "id": 27254451, "center": {"lat": 48.7065817, "lon": 9.6352731}, "tags": {"landuse": "industrial"}}, {"type": "way", "id": 27280309, "center": {"lat": 48.4105333, "lon": 9.0723312}, "tags": {"landuse": "industrial", "name": "Hegwiesen/Vor D\u00f6rnach"}}, {"type": "way", "id": 27327599, "center": {"lat": 48.3199155, "lon": 10.8284291}, "tags": {"landuse": "industrial"}}, {"type": "way", "id": 27362158, "center": {"lat": 48.0723012, "lon": 10.1331736}, "tags": {"addr:city": "Kirchdorf an der Iller", "addr:country": "DE", "addr:housenumber": "12", "addr:postcode": "88457", "addr:street": "Liebherrstra\u00dfe", "landuse": "industrial", "man_made": "works", "name": "Liebherr-Hydraulikbagger GmbH", "operator": "Liebherr-Hydraulikbagger GmbH", "product": "hydraulic_excavator", "website": "https://www.liebherr.com/de/deu/ber-liebherr/liebherr-weltweit/deutschland/kirchdorf/liebherr-hydraulikbagger-gmbh.html"}}, {"type": "way", "id": 27366433, "center": {"lat": 48.0873308, "lon": 11.7565848}, "tags": {"barrier": "fence", "frequency": "50", "height": "3", "landuse": "industrial", "location": "outdoor", "operator": "Bayernwerk Netz GmbH", "power": "substation", "substation": "transition", "voltage": "110000"}}, {"type": "way", "id": 27373814, "center": {"lat": 48.0253036, "lon": 11.5812969}, "tags": {"landuse": "industrial"}}, {"type": "way", "id": 27382147, "center": {"lat": 47.6774859, "lon": 9.5193545}, "tags": {"addr:city": "Meckenbeuren", "addr:country": "DE", "addr:housenumber": "3", "addr:postcode": "88074", "addr:street": "Gro\u00dfbuch", "barrier": "fence", "contact:email": "ov-friedrichshafen@thw.de", "contact:fax": "+49 7541 9513818", "contact:phone": "+49 7541 951380", "contact:website": "http://www.thw-friedrichshafen.de", "emergency": "disaster_response", "fence_type": "chain", "landuse": "industrial", "name": "THW Ortsverband Friedrichshafen", "operator": "Bundesanstalt Technisches Hilfswerk", "operator:short": "THW", "operator:wikidata": "Q697698", "ref:thw": "OFRH", "squad": "Fachgruppe R\u00e4umen (FGr R)", "thw:lv": "THW Landesverband Baden-W\u00fcrttemberg", "thw:rb": "THW Regionalbereich Biberach"}}, {"type": "way", "id": 27387203, "center": {"lat": 48.6699969, "lon": 10.2353855}, "tags": {"craft": "brewery", "landuse": "industrial", "name": "K\u00f6nigsbr\u00e4u"}}, {"type": "way", "id": 27393569, "center": {"lat": 48.2400169, "lon": 10.3449124}, "tags": {"landuse": "industrial", "old_name": "S\u00e4gewerk"}}, {"type": "way", "id": 27427163, "center": {"lat": 48.3539635, "lon": 11.5573302}, "tags": {"addr:city": "Fahrenzhausen", "addr:country": "DE", "addr:housenumber": "26", "addr:postcode": "85777", "addr:street": "Hauptstra\u00dfe", "landuse": "industrial", "name": "Andreas KARL GmbH & Co. KG", "website": "https://www.karlnet.de"}}, {"type": "way", "id": 27435020, "center": {"lat": 49.0509873, "lon": 9.7358252}, "tags": {"landuse": "industrial", "name": "BEW-Umformtechnik GmbH"}}, {"type": "way", "id": 27439136, "center": {"lat": 48.0534769, "lon": 11.5235858}, "tags": {"addr:city": "Pullach im Isartal", "addr:housenumber": "18", "addr:postcode": "82049", "addr:street": "Badstra\u00dfe", "landuse": "industrial", "name": "Laufwasserkraftwerk Pullach", "operator": "Uniper Kraftwerke", "operator:wikidata": "Q1273399", "operator:wikipedia": "de:Uniper Kraftwerke", "plant:method": "run-of-the-river", "plant:output:electricity": "4.1 MW", "plant:source": "hydro", "power": "plant", "wikidata": "Q2551170", "wikipedia": "de:Wasserkraftwerk Pullach"}}, {"type": "way", "id": 27450478, "center": {"lat": 48.2492905, "lon": 10.3561888}, "tags": {"landuse": "industrial"}}, {"type": "way", "id": 27472945, "center": {"lat": 48.7874843, "lon": 10.2697771}, "tags": {"landuse": "industrial"}}, {"type": "way", "id": 27522625, "center": {"lat": 49.005303, "lon": 10.9518863}, "tags": {"landuse": "industrial", "name": "Industriegebiet S\u00fcd II"}}, {"type": "way", "id": 27522630, "center": {"lat": 49.0192752, "lon": 10.9597091}, "tags": {"landuse": "industrial", "name": "Industriegebiet S\u00fcd I"}}, {"type": "way", "id": 27569651, "center": {"lat": 48.7203961, "lon": 9.6077687}, "tags": {"landuse": "industrial", "name": "Gewerbegebiet Haier\u00e4cker"}}, {"type": "way", "id": 27644087, "center": {"lat": 48.4460393, "lon": 9.0678653}, "tags": {"landuse": "industrial"}}, {"type": "way", "id": 27806844, "center": {"lat": 49.0330082, "lon": 10.9658337}, "tags": {"landuse": "industrial", "name": "Gewerbegebiet Lehenwiesenweg"}}, {"type": "way", "id": 27854209, "center": {"lat": 49.0339328, "lon": 10.9614245}, "tags": {"addr:city": "Wei\u00dfenburg in Bayern", "addr:country": "DE", "addr:housenumber": "21", "addr:postcode": "91781", "addr:street": "Lehenwiesenweg", "barrier": "fence", "landuse": "industrial", "man_made": "wastewater_plant", "name": "Zentralkl\u00e4ranlage Wei\u00dfenburg", "operator": "Stadt Wei\u00dfenburg i. Bay."}}, {"type": "way", "id": 27860227, "center": {"lat": 49.0413745, "lon": 10.9687873}, "tags": {"landuse": "industrial", "man_made": "works", "name": "GUTMANN GmbH"}}, {"type": "way", "id": 27863094, "center": {"lat": 48.6908096, "lon": 9.629068}, "tags": {"landuse": "industrial", "layer": "-1", "name": "Industriegebiet Jebenhausen-Autenbach"}}, {"type": "way", "id": 27892670, "center": {"lat": 48.9455936, "lon": 10.9128931}, "tags": {"barrier": "fence", "landuse": "industrial"}}, {"type": "way", "id": 27905011, "center": {"lat": 48.88745, "lon": 11.2522499}, "tags": {"landuse": "industrial"}}, {"type": "way", "id": 28014333, "center": {"lat": 48.788896, "lon": 11.4730644}, "tags": {"industrial": "refinery", "landuse": "industrial", "name": "GUNVOR Raffinerie Ingolstadt", "operator": "Gunvor"}}, {"type": "way", "id": 28027324, "center": {"lat": 48.8921539, "lon": 11.2695883}, "tags": {"barrier": "fence", "landuse": "industrial", "man_made": "wastewater_plant", "name": "Kl\u00e4ranlage"}}, {"type": "way", "id": 28032971, "center": {"lat": 48.0695879, "lon": 11.6511536}, "tags": {"landuse": "industrial", "name": "Bauhof Ottobrunn"}}, {"type": "way", "id": 28077438, "center": {"lat": 48.1640009, "lon": 11.0807343}, "tags": {"landuse": "industrial"}}, {"type": "way", "id": 28151722, "center": {"lat": 48.9558933, "lon": 9.0052027}, "tags": {"landuse": "industrial", "name": "Gewerbegebiet Aischbach"}}, {"type": "way", "id": 28152310, "center": {"lat": 47.9339318, "lon": 11.1042823}, "tags": {"barrier": "fence", "frequency": "50", "landuse": "industrial", "location": "outdoor", "name": "Umspannwerk Die\u00dfen", "name:abbreviation": "DIS", "operator": "E.ON Netz GmbH", "power": "substation", "substation": "distribution", "voltage": "110000"}}, {"type": "way", "id": 28173181, "center": {"lat": 49.0309831, "lon": 10.8244359}, "tags": {"landuse": "industrial", "man_made": "wastewater_plant", "name": "Kl\u00e4ranlage Meinheim"}}, {"type": "way", "id": 28174419, "center": {"lat": 47.8702181, "lon": 11.9667924}, "tags": {"industrial": "factory", "landuse": "industrial", "name": "Clariant"}}, {"type": "way", "id": 28196556, "center": {"lat": 48.6587542, "lon": 9.0586151}, "tags": {"industrial": "factory", "landuse": "industrial", "old_name": "Honeywell"}}, {"type": "way", "id": 28196566, "center": {"lat": 48.6591535, "lon": 9.0600394}, "tags": {"industrial": "factory", "landuse": "industrial", "old_name": "Honeywell"}}, {"type": "way", "id": 28213145, "center": {"lat": 47.7750048, "lon": 9.6010801}, "tags": {"landuse": "industrial"}}, {"type": "way", "id": 28219042, "center": {"lat": 48.6960994, "lon": 9.1463681}, "tags": {"landuse": "industrial"}}, {"type": "way", "id": 28243121, "center": {"lat": 49.0106457, "lon": 10.837642}, "tags": {"landuse": "industrial", "name": "Schmidt&Sohn GmbH"}}, {"type": "way", "id": 28252525, "center": {"lat": 48.7730787, "lon": 11.4304444}, "tags": {"depot": "bus", "industrial": "depot", "landuse": "industrial", "operator": "Stadtbus Ingolstadt GmbH", "source": "Bing(2012)"}}, {"type": "way", "id": 28259196, "center": {"lat": 47.6085872, "lon": 10.2642869}, "tags": {"landuse": "industrial", "name": "Neuss Fahrzeugbau GmbH Wohnwagen"}}, {"type": "way", "id": 28259312, "center": {"lat": 47.516542, "lon": 10.2707106}, "tags": {"landuse": "industrial"}}, {"type": "way", "id": 28259446, "center": {"lat": 48.6739154, "lon": 9.0042117}, "tags": {"landuse": "industrial", "man_made": "district_heating", "name": "Spitzenlastheizwerk Grund", "plant:method": "combustion", "plant:output:electricity": "50 MW", "plant:source": "gas", "power": "plant", "wikidata": "Q107369882"}}, {"type": "way", "id": 28265621, "center": {"lat": 48.1934244, "lon": 11.5349975}, "tags": {"landuse": "industrial"}}, {"type": "way", "id": 28316116, "center": {"lat": 49.0639667, "lon": 9.0812607}, "tags": {"landuse": "industrial", "name": "Talweg", "source": "landsat, partially improved acc. to newer Bing Sat images"}}, {"type": "way", "id": 28322166, "center": {"lat": 48.6780203, "lon": 9.624089}, "tags": {"landuse": "industrial", "name": "Industriegebiet Jebenhausen-S\u00fcd"}}, {"type": "way", "id": 28349247, "center": {"lat": 48.8562419, "lon": 10.3077691}, "tags": {"addr:housenumber": "1-5", "addr:postcode": "73441", "addr:street": "Zur Walkm\u00fchle", "landuse": "industrial", "name": "Holzwerke Ladenburger", "website": "https://www.ladenburger.de/"}}, {"type": "way", "id": 28385942, "center": {"lat": 47.7241587, "lon": 10.2596191}, "tags": {"addr:city": "Wiggensbach", "addr:housenumber": "30", "addr:postcode": "87487", "addr:street": "Mariabergstra\u00dfe", "email": "info@ek-pack.com", "fax": "+49 8370 80827", "landuse": "industrial", "man_made": "works", "name": "EK- Pack", "opening_hours": "Mo-Th 08:00-16:30; Fr 08:00-14:00", "operator": "EK-Pack Folien GmbH", "phone": "+49 8370 8080"}}, {"type": "way", "id": 28393352, "center": {"lat": 48.6038165, "lon": 9.7979741}, "tags": {"landuse": "industrial"}}, {"type": "way", "id": 28393506, "center": {"lat": 48.6788734, "lon": 10.1145964}, "tags": {"landuse": "industrial"}}, {"type": "way", "id": 28405189, "center": {"lat": 48.5001388, "lon": 11.6058969}, "tags": {"landuse": "industrial"}}, {"type": "way", "id": 28409450, "center": {"lat": 49.0554313, "lon": 9.2809243}, "tags": {"landuse": "industrial", "name": "Auenstein Ost"}}, {"type": "way", "id": 28436397, "center": {"lat": 48.0279571, "lon": 11.6166217}, "tags": {"landuse": "industrial", "name": "BioEnergie Taufkirchen", "operator": "BioEnergie Taufkirchen GmbH & Co. KG", "source": "survey", "website": "https://www.bioenergie-taufkirchen.de/", "wikipedia": "de:BioEnergie Taufkirchen"}}, {"type": "way", "id": 28473203, "center": {"lat": 47.8767798, "lon": 10.5309558}, "tags": {"landuse": "industrial", "name": "Gewerbegebiet Friesenried-Nord"}}, {"type": "way", "id": 28475098, "center": {"lat": 48.1866371, "lon": 11.2833528}, "tags": {"barrier": "fence", "landuse": "industrial", "name": "Bauhof Emmering"}}, {"type": "way", "id": 28477487, "center": {"lat": 48.1612343, "lon": 11.2199176}, "tags": {"landuse": "industrial", "man_made": "works", "name": "Coca-Cola European Partners Deutschland GmbH", "old_name": "Coca-Cola Erfrischungsgetr\u00e4nke AG"}}, {"type": "way", "id": 28477953, "center": {"lat": 48.1589159, "lon": 11.2185971}, "tags": {"barrier": "fence", "landuse": "industrial"}}, {"type": "way", "id": 28480059, "center": {"lat": 48.1883928, "lon": 11.2722229}, "tags": {"landuse": "industrial"}}, {"type": "way", "id": 28487631, "center": {"lat": 49.0327606, "lon": 10.9776587}, "tags": {"landuse": "industrial", "man_made": "works", "name": "Plastic Omnium"}}, {"type": "way", "id": 28487638, "center": {"lat": 49.0349207, "lon": 10.9789722}, "tags": {"addr:city": "Wei\u00dfenburg in Bayern", "addr:country": "DE", "addr:housenumber": "7", "addr:postcode": "91781", "addr:street": "Otto-Rieder-Stra\u00dfe", "landuse": "industrial", "man_made": "works", "name": "Ossberger"}}, {"type": "way", "id": 28492084, "center": {"lat": 48.7683881, "lon": 9.5061051}, "tags": {"landuse": "industrial"}}, {"type": "way", "id": 28495909, "center": {"lat": 49.091363, "lon": 9.08385}, "tags": {"landuse": "industrial", "name": "Bischofswiesen"}}, {"type": "way", "id": 28496508, "center": {"lat": 48.1756283, "lon": 11.7193215}, "tags": {"landuse": "industrial", "source": "Yahoo"}}, {"type": "way", "id": 28498458, "center": {"lat": 48.4013042, "lon": 10.874612}, "tags": {"addr:housenumber": "5", "addr:street": "Biberbachstra\u00dfe", "landuse": "industrial", "name": "LEW Lechwerke AG"}}, {"type": "way", "id": 28516176, "center": {"lat": 48.4030492, "lon": 10.8760964}, "tags": {"landuse": "industrial", "name": "Forvia", "old_name": "Faurecia Clean Mobility"}}, {"type": "way", "id": 28516181, "center": {"lat": 48.3993426, "lon": 10.877985}, "tags": {"landuse": "industrial", "name": "LEW Lechwerke AG"}}, {"type": "way", "id": 28518533, "center": {"lat": 47.3167225, "lon": 11.6677849}, "tags": {"landuse": "industrial", "name": "Gewerbegebiet", "old_name": "Gewerbegebiet Weer"}}, {"type": "way", "id": 28518552, "center": {"lat": 47.310941, "lon": 11.6598375}, "tags": {"landuse": "industrial"}}, {"type": "way", "id": 28518563, "center": {"lat": 47.3256838, "lon": 11.6890569}, "tags": {"landuse": "industrial"}}, {"type": "way", "id": 28529732, "center": {"lat": 48.8552714, "lon": 10.107404}, "tags": {"landuse": "industrial", "name": "Alfing"}}, {"type": "way", "id": 28529869, "center": {"lat": 48.8587337, "lon": 10.1003749}, "tags": {"landuse": "industrial"}}, {"type": "way", "id": 28556519, "center": {"lat": 48.9745656, "lon": 10.1275744}, "tags": {"addr:city": "Ellwangen (Jagst)", "addr:housenumber": "1", "addr:postcode": "73479", "addr:street": "Daimlerstra\u00dfe", "landuse": "industrial", "name": "VARTA Microbattery"}}, {"type": "way", "id": 28556538, "center": {"lat": 48.9722365, "lon": 10.1294062}, "tags": {"landuse": "industrial", "name": "VARTA Microbattery"}}, {"type": "way", "id": 28557000, "center": {"lat": 48.9704193, "lon": 10.1279345}, "tags": {"landuse": "industrial", "name": "EnBW ODR / Netze ODR GmbH/ NetCom BW"}}, {"type": "way", "id": 28574744, "center": {"lat": 48.1209734, "lon": 11.6914421}, "tags": {"landuse": "industrial"}}, {"type": "way", "id": 28588795, "center": {"lat": 48.1177095, "lon": 9.7684922}, "tags": {"landuse": "industrial"}}, {"type": "way", "id": 28607063, "center": {"lat": 47.8083702, "lon": 10.6411444}, "tags": {"landuse": "industrial", "name": "Gewerbepark Altdorf"}}, {"type": "way", "id": 28614955, "center": {"lat": 48.6952005, "lon": 9.3312537}, "tags": {"landuse": "industrial"}}, {"type": "way", "id": 28618124, "center": {"lat": 47.9715896, "lon": 11.773922}, "tags": {"industrial": "brewery", "landuse": "industrial", "name": "Ayinger Privatbrauerei", "source": "landsat and local knwoledge", "website": "https://www.ayinger.de/"}}, {"type": "way", "id": 28629765, "center": {"lat": 47.7688148, "lon": 10.4646626}, "tags": {"landuse": "industrial"}}, {"type": "way", "id": 28638311, "center": {"lat": 48.7231129, "lon": 9.130959}, "tags": {"addr:city": "Stuttgart", "addr:housenumber": "50", "addr:postcode": "70565", "addr:street": "Schockenriedstra\u00dfe", "building:levels": "1", "depot": "bus", "industrial": "depot", "landuse": "industrial", "name": "SSB Busbetriebshof Zentrum BF7", "operator": "Stuttgarter Stra\u00dfenbahnen AG", "roof:levels": "0", "roof:shape": "flat"}}, {"type": "way", "id": 28653243, "center": {"lat": 48.1484631, "lon": 10.8665971}, "tags": {"building": "industrial", "landuse": "industrial", "layer": "1", "name": "Lechstaustufe 19 Schwabstadl", "operator": "Uniper Kraftwerke", "operator:wikidata": "Q1273399", "operator:wikipedia": "de:Uniper Kraftwerke", "plant:method": "run-of-the-river", "plant:output:electricity": "12 MW", "plant:source": "hydro", "power": "plant", "ref": "BNA1245", "start_date": "1981", "waterway": "dam", "wikidata": "Q60692923", "wikipedia": "de:Lechstaustufe 19 \u2013 Schwabstadl"}}, {"type": "way", "id": 28672727, "center": {"lat": 48.9984351, "lon": 9.1145734}, "tags": {"landuse": "industrial"}}, {"type": "way", "id": 28704229, "center": {"lat": 48.1031186, "lon": 11.4455254}, "tags": {"landuse": "industrial"}}, {"type": "way", "id": 28705865, "center": {"lat": 48.6842851, "lon": 9.3755233}, "tags": {"landuse": "industrial"}}, {"type": "way", "id": 28706271, "center": {"lat": 48.67086, "lon": 9.3632002}, "tags": {"landuse": "industrial"}}, {"type": "way", "id": 28709700, "center": {"lat": 48.1855437, "lon": 9.831147}, "tags": {"landuse": "industrial", "name": "Stopferteile"}}, {"type": "way", "id": 28718294, "center": {"lat": 47.296302, "lon": 11.5976479}, "tags": {"landuse": "industrial", "name": "Swarovski Wattens", "wikidata": "Q611115"}}, {"type": "way", "id": 28719664, "center": {"lat": 48.3826395, "lon": 10.8894906}, "tags": {"landuse": "industrial", "name": "Industriepark Augsburg", "website": "https://www.industriepark-augsburg.de/"}}, {"type": "way", "id": 28729840, "center": {"lat": 48.7478398, "lon": 9.3834781}, "tags": {"landuse": "industrial", "name": "Aichschie\u00df Industriegebiet"}}, {"type": "way", "id": 28733291, "center": {"lat": 49.0732381, "lon": 9.1798273}, "tags": {"landuse": "industrial", "name": "Im vorderen Burgfeld"}}, {"type": "way", "id": 28734557, "center": {"lat": 48.8923973, "lon": 9.005259}, "tags": {"landuse": "industrial", "name": "Gewerbegebiet Pulverdinger Weg"}}, {"type": "way", "id": 28735753, "center": {"lat": 48.4873887, "lon": 9.983136}, "tags": {"landuse": "industrial"}}, {"type": "way", "id": 28736627, "center": {"lat": 48.4534935, "lon": 9.9718666}, "tags": {"landuse": "industrial", "name": "Industriegebiet Ulm Nord"}}, {"type": "way", "id": 28749351, "center": {"lat": 48.4307848, "lon": 9.983572}, "tags": {"landuse": "industrial", "name": "Industriegebiet Franzenhauserweg"}}, {"type": "way", "id": 28779596, "center": {"lat": 48.4619548, "lon": 9.9681106}, "tags": {"landuse": "industrial", "name": "Industriegebiet Dornstadt S\u00fcd - Exit62"}}, {"type": "way", "id": 28798318, "center": {"lat": 48.3796306, "lon": 11.731763},