[{"type": "way", "id": 4248124, "center": {"lat": 51.5997936, "lon": 7.484286}, "tags": {"landuse": "industrial"}}, {"type": "way", "id": 4399157, "center": {"lat": 51.4585795, "lon": 6.6135165}, "tags": {"landuse": "industrial"}}, {"type": "way", "id": 4399195, "center": {"lat": 51.4701772, "lon": 6.6425985}, "tags": {"addr:city": "Moers", "addr:housenumber": "733", "addr:postcode": "47443", "addr:street": "R\u00f6merstra\u00dfe", "industrial": "factory", "landuse": "industrial", "name": "INEOS Solvents Germany GmbH / Huntsman Products GmbH"}}, {"type": "way", "id": 4436299, "center": {"lat": 51.6187599, "lon": 7.5503348}, "tags": {"landuse": "industrial", "operator": "CAT"}}, {"type": "way", "id": 4475262, "center": {"lat": 51.6023087, "lon": 7.4955693}, "tags": {"landuse": "industrial", "name": "Stadthafen L\u00fcnen"}}, {"type": "way", "id": 4479021, "center": {"lat": 51.6034938, "lon": 7.496867}, "tags": {"landuse": "industrial"}}, {"type": "way", "id": 4526028, "center": {"lat": 53.0180609, "lon": 8.8610876}, "tags": {"landuse": "industrial", "name": "Gewerbegebiet Dreye West III"}}, {"type": "way", "id": 4526029, "center": {"lat": 53.015788, "lon": 8.8754326}, "tags": {"landuse": "industrial", "name": "Gewerbegebiet Dreye Ost"}}, {"type": "way", "id": 4526031, "center": {"lat": 53.0209636, "lon": 8.8711319}, "tags": {"landuse": "industrial", "name": "Gewerbegebiet Dreye West II"}}, {"type": "way", "id": 4549250, "center": {"lat": 51.5883109, "lon": 7.5118234}, "tags": {"landuse": "industrial", "name": "ehem. Zeche Preu\u00dfen I auch Victoria 3/4"}}, {"type": "way", "id": 4670340, "center": {"lat": 51.6366721, "lon": 7.6174278}, "tags": {"barrier": "fence", "landuse": "industrial", "name": "Kraftwerk Bergkamen", "operator": "RWE;evonik", "plant:method": "combustion", "plant:output:electricity": "717 MW", "plant:source": "coal", "power": "plant", "ref:EU:ENTSOE_EIC": "11WD7BERG1S--KWB", "start_date": "1981", "wikidata": "Q318019", "wikipedia": "de:Kraftwerk Bergkamen"}}, {"type": "way", "id": 4689955, "center": {"lat": 53.0271812, "lon": 6.582838}, "tags": {"landuse": "industrial", "name": "Messchenveld I"}}, {"type": "way", "id": 4690009, "center": {"lat": 53.0253306, "lon": 6.565164}, "tags": {"landuse": "industrial", "name": "Peelerpark"}}, {"type": "way", "id": 4714221, "center": {"lat": 53.0768059, "lon": 8.7926474}, "tags": {"industrial": "brewery", "landuse": "industrial", "man_made": "works", "name": "Brauerei Beck GmbH & Co. KG", "operator": "Anheuser-Busch InBev", "product": "beer", "website": "https://becks.de/", "wikidata": "Q106854", "wikipedia": "de:Brauerei Beck"}}, {"type": "way", "id": 4766613, "center": {"lat": 52.9726052, "lon": 6.5603865}, "tags": {"landuse": "industrial", "name": "Korenmaat"}}, {"type": "way", "id": 4766614, "center": {"lat": 52.9776508, "lon": 6.5617367}, "tags": {"landuse": "industrial", "name": "Schepersmaat"}}, {"type": "way", "id": 4766745, "center": {"lat": 52.995759, "lon": 6.5339542}, "tags": {"alt_name": "Zendmastweg", "landuse": "industrial", "name": "De Zendmast"}}, {"type": "way", "id": 4766788, "center": {"lat": 52.992136, "lon": 6.5194769}, "tags": {"landuse": "industrial"}}, {"type": "way", "id": 4766789, "center": {"lat": 52.9949692, "lon": 6.5213637}, "tags": {"landuse": "industrial"}}, {"type": "way", "id": 4766811, "center": {"lat": 52.9977521, "lon": 6.5287004}, "tags": {"landuse": "industrial"}}, {"type": "way", "id": 4813083, "center": {"lat": 51.4670488, "lon": 7.2668706}, "tags": {"contact:youtube": "https://www.youtube.com/@mark51-74", "description": "ehem. Opel Werk I", "landuse": "industrial", "name": "MARK 51\u00b07", "old_name": "Opel Werk I", "wikidata": "Q350571"}}, {"type": "way", "id": 4936362, "center": {"lat": 52.0462534, "lon": 8.7603498}, "tags": {"landuse": "industrial", "name": "Gewerbegebiet Holzhausen"}}, {"type": "way", "id": 4936363, "center": {"lat": 52.0479122, "lon": 8.7552546}, "tags": {"landuse": "industrial"}}, {"type": "way", "id": 4936379, "center": {"lat": 52.0557382, "lon": 8.7555463}, "tags": {"landuse": "industrial"}}, {"type": "way", "id": 4937087, "center": {"lat": 52.1769826, "lon": 8.6726519}, "tags": {"landuse": "industrial"}}, {"type": "way", "id": 4943267, "center": {"lat": 52.0356121, "lon": 8.8289155}, "tags": {"landuse": "industrial", "name": "Industriegebiet Lemgo West (Lieme)"}}, {"type": "way", "id": 4955555, "center": {"lat": 52.0324942, "lon": 8.7621696}, "tags": {"landuse": "industrial"}}, {"type": "way", "id": 4967984, "center": {"lat": 52.1946211, "lon": 8.6492962}, "tags": {"alt_name": "Kraftwerk Kirchlengern", "landuse": "industrial", "name": "Gasturbinenkraftwerk Kirchlengern", "operator": "EON WestfalenWeser", "plant:method": "combustion", "plant:output:electricity": "184.5 MW", "plant:source": "gas", "power": "plant", "surveillance": "outdoor", "wikidata": "Q1473343", "wikipedia": "de:Kraftwerk Kirchlengern"}}, {"type": "way", "id": 4981891, "center": {"lat": 52.1910159, "lon": 8.678475}, "tags": {"landuse": "industrial"}}, {"type": "way", "id": 4982093, "center": {"lat": 52.1992397, "lon": 8.734141}, "tags": {"landuse": "industrial"}}, {"type": "way", "id": 4982171, "center": {"lat": 52.2015916, "lon": 8.7347931}, "tags": {"landuse": "industrial"}}, {"type": "way", "id": 4982809, "center": {"lat": 52.1836206, "lon": 8.6963942}, "tags": {"landuse": "industrial", "name": "Nolte-K\u00fcchen"}}, {"type": "way", "id": 5234436, "center": {"lat": 52.2048547, "lon": 8.6201346}, "tags": {"landuse": "industrial"}}, {"type": "way", "id": 5363705, "center": {"lat": 52.1635624, "lon": 8.6925242}, "tags": {"landuse": "industrial"}}, {"type": "way", "id": 5839038, "center": {"lat": 52.1891741, "lon": 8.6459279}, "tags": {"landuse": "industrial"}}, {"type": "way", "id": 5941928, "center": {"lat": 52.2283987, "lon": 8.6296008}, "tags": {"landuse": "industrial"}}, {"type": "way", "id": 6318285, "center": {"lat": 51.1666962, "lon": 5.8832882}, "tags": {"landuse": "industrial"}}, {"type": "way", "id": 6318286, "center": {"lat": 51.1658844, "lon": 5.956748}, "tags": {"description": "chemische fabriek", "landuse": "industrial", "name": "Solvay"}}, {"type": "way", "id": 6318288, "center": {"lat": 51.1703, "lon": 5.87075}, "tags": {"landuse": "industrial"}}, {"type": "way", "id": 6318289, "center": {"lat": 51.1734866, "lon": 5.8750656}, "tags": {"landuse": "industrial"}}, {"type": "way", "id": 6318292, "center": {"lat": 51.1752922, "lon": 5.8778927}, "tags": {"landuse": "industrial"}}, {"type": "way", "id": 6318307, "center": {"lat": 51.2142, "lon": 5.930251}, "tags": {"landuse": "industrial"}}, {"type": "way", "id": 6318310, "center": {"lat": 51.2248329, "lon": 5.9592956}, "tags": {"landuse": "industrial", "name": "Windmolenbos"}}, {"type": "way", "id": 6318311, "center": {"lat": 51.2361176, "lon": 6.0363872}, "tags": {"landuse": "industrial"}}, {"type": "way", "id": 6318314, "center": {"lat": 51.2386551, "lon": 6.0563528}, "tags": {"landuse": "industrial"}}, {"type": "way", "id": 6318324, "center": {"lat": 51.2594842, "lon": 6.0017226}, "tags": {"landuse": "industrial"}}, {"type": "way", "id": 6318344, "center": {"lat": 51.27815, "lon": 6.0453}, "tags": {"landuse": "industrial"}}, {"type": "way", "id": 6318347, "center": {"lat": 51.2801034, "lon": 6.0823967}, "tags": {"landuse": "industrial"}}, {"type": "way", "id": 6318352, "center": {"lat": 51.2838943, "lon": 6.0345729}, "tags": {"landuse": "industrial", "name": "De Kruisberg"}}, {"type": "way", "id": 6318353, "center": {"lat": 51.2894471, "lon": 6.0891673}, "tags": {"landuse": "industrial"}}, {"type": "way", "id": 6318355, "center": {"lat": 51.307513, "lon": 6.1083403}, "tags": {"landuse": "industrial"}}, {"type": "way", "id": 6318368, "center": {"lat": 51.319759, "lon": 6.1230954}, "tags": {"landuse": "industrial", "name": "Bedrijvenpark Geloerveld"}}, {"type": "way", "id": 6318371, "center": {"lat": 51.3282075, "lon": 5.9692393}, "tags": {"landuse": "industrial"}}, {"type": "way", "id": 6318379, "center": {"lat": 51.3339545, "lon": 6.0911766}, "tags": {"landuse": "industrial", "name": "Handelsterrein De Kieen"}}, {"type": "way", "id": 6318382, "center": {"lat": 51.3371955, "lon": 6.137325}, "tags": {"landuse": "industrial", "name": "Krekelsberg"}}, {"type": "way", "id": 6318384, "center": {"lat": 51.3338356, "lon": 5.9268994}, "tags": {"landuse": "industrial", "name": "Industrieterrein Beringe"}}, {"type": "way", "id": 6318386, "center": {"lat": 51.3356517, "lon": 6.1402478}, "tags": {"landuse": "industrial", "name": "Windhond"}}, {"type": "way", "id": 6318388, "center": {"lat": 51.3363535, "lon": 6.1591857}, "tags": {"landuse": "industrial", "name": "Kaldenkerkerweg Oost"}}, {"type": "way", "id": 6318392, "center": {"lat": 51.3408816, "lon": 6.149901}, "tags": {"landuse": "industrial"}}, {"type": "way", "id": 6318393, "center": {"lat": 51.3433897, "lon": 6.1925474}, "tags": {"landuse": "industrial"}}, {"type": "way", "id": 6318401, "center": {"lat": 51.3472843, "lon": 6.1413974}, "tags": {"landuse": "industrial"}}, {"type": "way", "id": 6318411, "center": {"lat": 51.3527537, "lon": 5.8786741}, "tags": {"landuse": "industrial", "name": "De Wielen"}}, {"type": "way", "id": 6318417, "center": {"lat": 51.3557471, "lon": 6.159696}, "tags": {"landuse": "industrial"}}, {"type": "way", "id": 6318426, "center": {"lat": 51.363328, "lon": 6.0611685}, "tags": {"landuse": "industrial", "name": "De Schor"}}, {"type": "way", "id": 6318433, "center": {"lat": 51.3762411, "lon": 6.1494946}, "tags": {"landuse": "industrial"}}, {"type": "way", "id": 6318447, "center": {"lat": 51.3791459, "lon": 6.1516743}, "tags": {"landuse": "industrial", "name": "Industrieterrein Ubroek"}}, {"type": "way", "id": 6318454, "center": {"lat": 51.3882986, "lon": 6.1852305}, "tags": {"landuse": "industrial", "name": "Veegtes"}}, {"type": "way", "id": 6318465, "center": {"lat": 51.3983695, "lon": 6.1334144}, "tags": {"landuse": "industrial", "name": "Trade Port Oost"}}, {"type": "way", "id": 6318479, "center": {"lat": 51.4227267, "lon": 6.037921}, "tags": {"landuse": "industrial", "name": "Bedrijventerrein Berghem"}}, {"type": "way", "id": 6318511, "center": {"lat": 51.4416516, "lon": 6.056901}, "tags": {"landuse": "industrial", "name": "Industrieterrein Hoogveld"}}, {"type": "way", "id": 6318515, "center": {"lat": 51.4462504, "lon": 6.1774699}, "tags": {"landuse": "industrial"}}, {"type": "way", "id": 6318580, "center": {"lat": 51.490021, "lon": 5.8938461}, "tags": {"landuse": "industrial"}}, {"type": "way", "id": 6318581, "center": {"lat": 51.4903705, "lon": 6.0924154}, "tags": {"landuse": "industrial"}}, {"type": "way", "id": 6318589, "center": {"lat": 51.4933, "lon": 5.8953}, "tags": {"landuse": "industrial"}}, {"type": "way", "id": 6318593, "center": {"lat": 51.4960537, "lon": 5.8949004}, "tags": {"landuse": "industrial", "name": "Agrarisch Bedrijventerrein"}}, {"type": "way", "id": 6318630, "center": {"lat": 51.5221815, "lon": 6.02604}, "tags": {"landuse": "industrial", "name": "De Witte Vennen"}}, {"type": "way", "id": 6318632, "center": {"lat": 51.5248747, "lon": 6.0087427}, "tags": {"landuse": "industrial", "name": "De Hulst"}}, {"type": "way", "id": 6318639, "center": {"lat": 51.5418248, "lon": 6.0733604}, "tags": {"landuse": "industrial"}}, {"type": "way", "id": 6318646, "center": {"lat": 51.540125, "lon": 6.0835266}, "tags": {"landuse": "industrial"}}, {"type": "way", "id": 6318648, "center": {"lat": 51.5411627, "lon": 5.9915389}, "tags": {"landuse": "industrial", "name": "Keizersveld"}}, {"type": "way", "id": 6318664, "center": {"lat": 51.5449522, "lon": 5.9828374}, "tags": {"landuse": "industrial", "name": "Smakterheide"}}, {"type": "way", "id": 6318690, "center": {"lat": 51.5717012, "lon": 5.9378414}, "tags": {"landuse": "industrial"}}, {"type": "way", "id": 6318732, "center": {"lat": 51.5972, "lon": 5.9999}, "tags": {"landuse": "industrial"}}, {"type": "way", "id": 6318743, "center": {"lat": 51.6030881, "lon": 5.8696118}, "tags": {"landuse": "industrial"}}, {"type": "way", "id": 6318765, "center": {"lat": 51.6234384, "lon": 5.8685002}, "tags": {"landuse": "industrial"}}, {"type": "way", "id": 6318832, "center": {"lat": 51.6783773, "lon": 5.972335}, "tags": {"landuse": "industrial", "name": "Hoogveld"}}, {"type": "way", "id": 6318836, "center": {"lat": 51.680208, "lon": 5.9775692}, "tags": {"landuse": "industrial", "name": "De Groote Heeze"}}, {"type": "way", "id": 6318894, "center": {"lat": 51.7254179, "lon": 5.8689514}, "tags": {"landuse": "industrial", "name": "De Beijerd en 't Riet"}}, {"type": "way", "id": 6318921, "center": {"lat": 51.762112, "lon": 5.8801466}, "tags": {"landuse": "industrial", "name": "Korendal"}}, {"type": "way", "id": 6318923, "center": {"lat": 51.7622006, "lon": 5.877711}, "tags": {"landuse": "industrial"}}, {"type": "way", "id": 6318924, "center": {"lat": 51.7626225, "lon": 5.8757865}, "tags": {"landuse": "industrial", "name": "Hoeveveld"}}, {"type": "way", "id": 6319064, "center": {"lat": 51.8511213, "lon": 6.1132901}, "tags": {"landuse": "industrial"}}, {"type": "way", "id": 6319066, "center": {"lat": 51.8497423, "lon": 5.9656548}, "tags": {"landuse": "industrial"}}, {"type": "way", "id": 6319084, "center": {"lat": 51.8574739, "lon": 6.4764097}, "tags": {"landuse": "industrial", "name": "De Rietstap"}}, {"type": "way", "id": 6319101, "center": {"lat": 51.8683508, "lon": 6.0303127}, "tags": {"landuse": "industrial"}}, {"type": "way", "id": 6319106, "center": {"lat": 51.8716578, "lon": 6.3619095}, "tags": {"landuse": "industrial"}}, {"type": "way", "id": 6319120, "center": {"lat": 51.8741261, "lon": 6.2678909}, "tags": {"landuse": "industrial", "name": "'t Goor"}}, {"type": "way", "id": 6319121, "center": {"lat": 51.8762813, "lon": 6.0442157}, "tags": {"email": "straatbakstenen@wienerberger.com", "fax": "+31 88 118 5040", "industrial": "brickyard", "landuse": "industrial", "name": "Kijfwaard West", "operator": "Wienerberger - straatbakstenen", "phone": "+31 88 118 5600"}}, {"type": "way", "id": 6319133, "center": {"lat": 51.8796, "lon": 6.38425}, "tags": {"landuse": "industrial", "name": "De IJsselweide"}}, {"type": "way", "id": 6319198, "center": {"lat": 51.8983755, "lon": 6.3083718}, "tags": {"industrial": "factory", "landuse": "industrial", "name": "Wienerberger Azewijn"}}, {"type": "way", "id": 6319226, "center": {"lat": 51.901944, "lon": 6.3639679}, "tags": {"landuse": "industrial"}}, {"type": "way", "id": 6319236, "center": {"lat": 51.90775, "lon": 6.1500008}, "tags": {"landuse": "industrial"}}, {"type": "way", "id": 6319269, "center": {"lat": 51.9097513, "lon": 5.8644393}, "tags": {"landuse": "industrial", "name": "De Aam"}}, {"type": "way", "id": 6319286, "center": {"lat": 51.9147129, "lon": 6.5712932}, "tags": {"landuse": "industrial", "name": "'t Broek"}}, {"type": "way", "id": 6319293, "center": {"lat": 51.921765, "lon": 6.1873844}, "tags": {"landuse": "industrial", "name": "Matjeskolk"}}, {"type": "way", "id": 6319294, "center": {"lat": 51.9225474, "lon": 6.0684743}, "tags": {"landuse": "industrial", "name": "Zuidspoor"}}, {"type": "way", "id": 6319301, "center": {"lat": 51.9203264, "lon": 6.342855}, "tags": {"landuse": "industrial", "name": "Akkermansweide"}}, {"type": "way", "id": 6319309, "center": {"lat": 51.92845, "lon": 6.336251}, "tags": {"landuse": "industrial", "name": "Akkermansweide"}}, {"type": "way", "id": 6319313, "center": {"lat": 51.9332106, "lon": 6.1398261}, "tags": {"landuse": "industrial", "name": "De Fluun"}}, {"type": "way", "id": 6319319, "center": {"lat": 51.9316525, "lon": 6.0941677}, "tags": {"landuse": "industrial", "name": "Bedrijventerrein Hengelder"}}, {"type": "way", "id": 6319334, "center": {"lat": 51.946873, "lon": 6.2836033}, "tags": {"landuse": "industrial", "name": "Bedrijventerrein Wijnbergen"}}, {"type": "way", "id": 6319345, "center": {"lat": 51.9504197, "lon": 6.2973749}, "tags": {"landuse": "industrial", "name": "Verheulsweide Zuid"}}, {"type": "way", "id": 6319355, "center": {"lat": 51.9538312, "lon": 5.8836549}, "tags": {"landuse": "industrial", "name": "Overmaat"}}, {"type": "way", "id": 6319361, "center": {"lat": 51.9626036, "lon": 6.6953482}, "tags": {"landuse": "industrial", "name": "Industrieterrein Misterweg"}}, {"type": "way", "id": 6319374, "center": {"lat": 51.9631659, "lon": 6.7142372}, "tags": {"landuse": "industrial", "name": "Industrieterrein V\u00e8\u00e8neslat Noord"}}, {"type": "way", "id": 6319409, "center": {"lat": 51.9745251, "lon": 5.927438}, "tags": {"landuse": "industrial", "name": "RijnPark"}}, {"type": "way", "id": 6319410, "center": {"lat": 51.9841022, "lon": 6.2557576}, "tags": {"landuse": "industrial", "name": "IJzergieterij"}}, {"type": "way", "id": 6319420, "center": {"lat": 51.990135, "lon": 6.5816326}, "tags": {"landuse": "industrial", "name": "De Kamp"}}, {"type": "way", "id": 6319441, "center": {"lat": 52.0013355, "lon": 6.1394402}, "tags": {"landuse": "industrial"}}, {"type": "way", "id": 6319446, "center": {"lat": 52.0002985, "lon": 6.3489277}, "tags": {"landuse": "industrial", "name": "Bedrijventerrein Industriepark"}}, {"type": "way", "id": 6319475, "center": {"lat": 52.0195169, "lon": 6.1366965}, "tags": {"landuse": "industrial", "name": "Verhuellweg"}}, {"type": "way", "id": 6319564, "center": {"lat": 52.0813882, "lon": 6.4529044}, "tags": {"landuse": "industrial", "name": "Schansekamp"}}, {"type": "way", "id": 6319571, "center": {"lat": 52.0909108, "lon": 6.0397864}, "tags": {"landuse": "industrial", "name": "Coldenhove Papier BV"}}, {"type": "way", "id": 6319572, "center": {"lat": 52.0931648, "lon": 6.144805}, "tags": {"landuse": "industrial"}}, {"type": "way", "id": 6319578, "center": {"lat": 52.1031465, "lon": 6.1550802}, "tags": {"landuse": "industrial", "name": "Rhienderen Noord"}}, {"type": "way", "id": 6319594, "center": {"lat": 52.1158044, "lon": 6.2226573}, "tags": {"landuse": "industrial", "name": "Revelhorst"}}, {"type": "way", "id": 6319605, "center": {"lat": 52.1251785, "lon": 6.2131487}, "tags": {"landuse": "industrial", "name": "De Stoven"}}, {"type": "way", "id": 6319617, "center": {"lat": 52.1327922, "lon": 6.2218091}, "tags": {"landuse": "industrial"}}, {"type": "way", "id": 6319624, "center": {"lat": 52.1385473, "lon": 6.0613961}, "tags": {"landuse": "industrial", "old_name": "Achterste Molen"}}, {"type": "way", "id": 6319657, "center": {"lat": 52.1548691, "lon": 6.7253361}, "tags": {"landuse": "industrial", "name": "Bedrijfsterrein Brammelo"}}, {"type": "way", "id": 6319665, "center": {"lat": 52.1558254, "lon": 6.200301}, "tags": {"landuse": "industrial", "name": "De Mars"}}, {"type": "way", "id": 6319712, "center": {"lat": 52.1860112, "lon": 5.9918841}, "tags": {"landuse": "industrial", "name": "Kuipersveld"}}, {"type": "way", "id": 6319727, "center": {"lat": 52.1958679, "lon": 5.9395966}, "tags": {"landuse": "industrial", "name": "Brouwersmolen"}}, {"type": "way", "id": 6319731, "center": {"lat": 52.2041755, "lon": 6.6334329}, "tags": {"landuse": "industrial"}}, {"type": "way", "id": 6319732, "center": {"lat": 52.2049264, "lon": 5.9486698}, "tags": {"landuse": "industrial"}}, {"type": "way", "id": 6319743, "center": {"lat": 52.2076374, "lon": 6.8025629}, "tags": {"landuse": "industrial", "name": "De Plooy"}}, {"type": "way", "id": 6319768, "center": {"lat": 52.2194602, "lon": 6.9334551}, "tags": {"landuse": "industrial", "name": "Sleutelkamp"}}, {"type": "way", "id": 6319771, "center": {"lat": 52.2223009, "lon": 5.9742795}, "tags": {"landuse": "industrial"}}, {"type": "way", "id": 6319778, "center": {"lat": 52.2239893, "lon": 6.9326822}, "tags": {"landuse": "industrial"}}, {"type": "way", "id": 6319787, "center": {"lat": 52.2244787, "lon": 6.9501107}, "tags": {"landuse": "industrial", "name": "Euregio Bedrijvenpark"}}, {"type": "way", "id": 6319789, "center": {"lat": 52.22545, "lon": 5.9761964}, "tags": {"landuse": "industrial"}}, {"type": "way", "id": 6319790, "center": {"lat": 52.2278973, "lon": 6.593441}, "tags": {"landuse": "industrial", "name": "Haven"}}, {"type": "way", "id": 6319793, "center": {"lat": 52.2269626, "lon": 5.975563}, "tags": {"landuse": "industrial"}}, {"type": "way", "id": 6319804, "center": {"lat": 52.2395851, "lon": 6.0981046}, "tags": {"landuse": "industrial"}}, {"type": "way", "id": 6319805, "center": {"lat": 52.2393461, "lon": 6.5845439}, "tags": {"landuse": "industrial", "name": "Finigoor"}}, {"type": "way", "id": 6319806, "center": {"lat": 52.2399777, "lon": 6.2171932}, "tags": {"landuse": "industrial"}}, {"type": "way", "id": 6319812, "center": {"lat": 52.2405363, "lon": 5.9847023}, "tags": {"landuse": "industrial", "name": "Bedrijvenpark Apeldoorn-Noord"}}, {"type": "way", "id": 6319813, "center": {"lat": 52.2446039, "lon": 6.5763197}, "tags": {"landuse": "industrial", "name": "De Whee"}}, {"type": "way", "id": 6319815, "center": {"lat": 52.2460014, "lon": 6.5940798}, "tags": {"landuse": "industrial", "name": "De Spechthorst"}}, {"type": "way", "id": 6319822, "center": {"lat": 52.2481602, "lon": 7.0122821}, "tags": {"landuse": "industrial", "name": "De Pol"}}, {"type": "way", "id": 6319832, "center": {"lat": 52.2547547, "lon": 6.8092956}, "tags": {"landuse": "industrial"}}, {"type": "way", "id": 6319837, "center": {"lat": 52.25565, "lon": 5.95505}, "tags": {"landuse": "industrial"}}, {"type": "way", "id": 6319839, "center": {"lat": 52.2548027, "lon": 6.69595}, "tags": {"landuse": "industrial", "name": "Schneiderbos"}}, {"type": "way", "id": 6319842, "center": {"lat": 52.2584827, "lon": 6.8068338}, "tags": {"landuse": "industrial"}}, {"type": "way", "id": 6319859, "center": {"lat": 52.2776938, "lon": 6.3983064}, "tags": {"landuse": "industrial", "name": "De Vletgaarsmaten"}}, {"type": "way", "id": 6319862, "center": {"lat": 52.2786462, "lon": 6.4064761}, "tags": {"landuse": "industrial", "name": "de Haar"}}, {"type": "way", "id": 6319863, "center": {"lat": 52.2809237, "lon": 6.8072295}, "tags": {"landuse": "industrial", "name": "Timmersveld"}}, {"type": "way", "id": 6319868, "center": {"lat": 52.2848737, "lon": 6.8465}, "tags": {"landuse": "industrial", "name": "Bedrijventerrein Oosterveld-Weijinkshoek", "website": "https://bedrijventerreinoosterveld.nl/"}}, {"type": "way", "id": 6319870, "center": {"lat": 52.285876, "lon": 5.9660265}, "tags": {"industrial": "factory", "landuse": "industrial", "name": "Royal Vaassen Flexible Packaging", "website": "https://royalvaassen.com"}}, {"type": "way", "id": 6319877, "center": {"lat": 52.2906995, "lon": 6.7497196}, "tags": {"landuse": "industrial"}}, {"type": "way", "id": 6319879, "center": {"lat": 52.2885428, "lon": 6.5701615}, "tags": {"landuse": "industrial", "name": "de Vonder"}}, {"type": "way", "id": 6319888, "center": {"lat": 52.2945033, "lon": 6.9082302}, "tags": {"landuse": "industrial"}}, {"type": "way", "id": 6319893, "center": {"lat": 52.2994288, "lon": 5.9919871}, "tags": {"landuse": "industrial", "name": "Eekterveld"}}, {"type": "way", "id": 6319909, "center": {"lat": 52.3080061, "lon": 6.738663}, "tags": {"landuse": "industrial"}}, {"type": "way", "id": 6319913, "center": {"lat": 52.3145509, "lon": 6.99771}, "tags": {"landuse": "industrial"}}, {"type": "way", "id": 6319919, "center": {"lat": 52.318473, "lon": 6.4988208}, "tags": {"landuse": "industrial", "long_name": "Bedrijventerrein Plaagslagen", "name": "Plaagslagen"}}, {"type": "way", "id": 6319920, "center": {"lat": 52.3183906, "lon": 6.5152483}, "tags": {"landuse": "industrial", "long_name": "Bedrijventerrein De Mors", "name": "De Mors"}}, {"type": "way", "id": 6319924, "center": {"lat": 52.3261844, "lon": 6.6515}, "tags": {"landuse": "industrial", "name": "Twentepoort Oost"}}, {"type": "way", "id": 6319925, "center": {"lat": 52.3277889, "lon": 6.6458099}, "tags": {"landuse": "industrial", "name": "Twentepoort West"}}, {"type": "way", "id": 6319926, "center": {"lat": 52.3291787, "lon": 6.2855305}, "tags": {"landuse": "industrial"}}, {"type": "way", "id": 6319930, "center": {"lat": 52.3315844, "lon": 5.998433}, "tags": {"email": "info@vmi-group.com", "landuse": "industrial", "name": "VMI Holland", "phone": "+31 578 679111", "website": "https://vmi-group.com/"}}, {"type": "way", "id": 6319932, "center": {"lat": 52.33255, "lon": 6.6535883}, "tags": {"landuse": "industrial"}}, {"type": "way", "id": 6319935, "center": {"lat": 52.3347516, "lon": 6.1152855}, "tags": {"landuse": "industrial", "name": "Bedrijventerrein Industrieweg"}}, {"type": "way", "id": 6319937, "center": {"lat": 52.3368408, "lon": 6.651949}, "tags": {"landuse": "industrial"}}, {"type": "way", "id": 6319948, "center": {"lat": 52.3374063, "lon": 6.688795}, "tags": {"landuse": "industrial"}}, {"type": "way", "id": 6319954, "center": {"lat": 52.3446764, "lon": 5.9951056}, "tags": {"landuse": "industrial", "name": "Kweekweg"}}, {"type": "way", "id": 6319955, "center": {"lat": 52.3451646, "lon": 6.8573756}, "tags": {"landuse": "industrial", "name": "Echelpoel"}}, {"type": "way", "id": 6319958, "center": {"lat": 52.34765, "lon": 6.8524}, "tags": {"landuse": "industrial", "name": "Gunnerstraat"}}, {"type": "way", "id": 6319959, "center": {"lat": 52.347896, "lon": 6.1135688}, "tags": {"landuse": "industrial", "name": "Bedrijventerrein de Meente"}}, {"type": "way", "id": 6319965, "center": {"lat": 52.3526666, "lon": 6.6218232}, "tags": {"landuse": "industrial", "name": "Buitenhaven"}}, {"type": "way", "id": 6319967, "center": {"lat": 52.3559034, "lon": 6.4790276}, "tags": {"landuse": "industrial"}}, {"type": "way", "id": 6319970, "center": {"lat": 52.362136, "lon": 6.5835333}, "tags": {"landuse": "industrial", "name": "Violenhoek"}}, {"type": "way", "id": 6319974, "center": {"lat": 52.3635565, "lon": 6.5959266}, "tags": {"landuse": "industrial", "name": "Hogelucht"}}, {"type": "way", "id": 6319976, "center": {"lat": 52.3652589, "lon": 6.1908225}, "tags": {"landuse": "industrial"}}, {"type": "way", "id": 6319977, "center": {"lat": 52.3637388, "lon": 6.5889049}, "tags": {"landuse": "industrial", "name": "Kluinveen"}}, {"type": "way", "id": 6319982, "center": {"lat": 52.36846, "lon": 6.4687066}, "tags": {"alt_name:en": "Ten Cate Fabrics", "industrial": "factory", "landuse": "industrial", "long_name": "Koninklijke Ten Cate B.V.", "long_name:en": "Royal TenCate", "name": "Ten Cate"}}, {"type": "way", "id": 6320000, "center": {"lat": 52.382527, "lon": 7.0196666}, "tags": {"landuse": "industrial", "name": "Bedrijventerrein Sombeek"}}, {"type": "way", "id": 6320002, "center": {"lat": 52.3766173, "lon": 6.2878865}, "tags": {"landuse": "industrial", "name": "De Zegge"}}, {"type": "way", "id": 6320003, "center": {"lat": 52.3821401, "lon": 6.1308596}, "tags": {"landuse": "industrial", "name": "De Enk"}}, {"type": "way", "id": 6320014, "center": {"lat": 52.3857895, "lon": 7.0143018}, "tags": {"landuse": "industrial", "name": "Kloppendijk"}}, {"type": "way", "id": 6320018, "center": {"lat": 52.3879888, "lon": 6.2864318}, "tags": {"landuse": "industrial"}}, {"type": "way", "id": 6320020, "center": {"lat": 52.3939368, "lon": 6.1419372}, "tags": {"landuse": "industrial", "name": "Noordmanshoek"}}, {"type": "way", "id": 6320024, "center": {"lat": 52.3989828, "lon": 6.0457674}, "tags": {"landuse": "industrial"}}, {"type": "way", "id": 6320029, "center": {"lat": 52.4120379, "lon": 6.9074678}, "tags": {"landuse": "industrial", "name": "De Mors"}}, {"type": "way", "id": 6320030, "center": {"lat": 52.4096811, "lon": 6.5994401}, "tags": {"landuse": "industrial", "name": "Weitzelpoort"}}, {"type": "way", "id": 6320033, "center": {"lat": 52.4181314, "lon": 6.7262432}, "tags": {"landuse": "industrial", "name": "Lutkeberg"}}, {"type": "way", "id": 6320039, "center": {"lat": 52.4215018, "lon": 5.8759392}, "tags": {"landuse": "industrial"}}, {"type": "way", "id": 6320044, "center": {"lat": 52.4270405, "lon": 6.7315257}, "tags": {"landuse": "industrial"}}, {"type": "way", "id": 6320056, "center": {"lat": 52.435328, "lon": 6.0728836}, "tags": {"landuse": "industrial"}}, {"type": "way", "id": 6320061, "center": {"lat": 52.4439419, "lon": 6.2334198}, "tags": {"landuse": "industrial", "name": "Blankenfoort"}}, {"type": "way", "id": 6320064, "center": {"lat": 52.4503285, "lon": 5.9967565}, "tags": {"landuse": "industrial", "name": "Bedrijventerrein Engeland"}}, {"type": "way", "id": 6320066, "center": {"lat": 52.447999, "lon": 6.0746627}, "tags": {"landuse": "industrial"}}, {"type": "way", "id": 6320068, "center": {"lat": 52.451611, "lon": 6.5649779}, "tags": {"landuse": "industrial", "name": "Linderflier"}}, {"type": "way", "id": 6320074, "center": {"lat": 52.4595675, "lon": 6.5034107}, "tags": {"landuse": "industrial", "name": "Kroezenhoek"}}, {"type": "way", "id": 6320079, "center": {"lat": 52.4632284, "lon": 6.6292136}, "tags": {"landuse": "industrial", "name": "Garstelanden"}}, {"type": "way", "id": 6320087, "center": {"lat": 52.4649617, "lon": 6.0754099}, "tags": {"landuse": "industrial"}}, {"type": "way", "id": 6320120, "center": {"lat": 52.49945, "lon": 6.67485}, "tags": {"landuse": "industrial"}}, {"type": "way", "id": 6320130, "center": {"lat": 52.4935197, "lon": 6.1283475}, "tags": {"landuse": "industrial", "name": "Marslanden"}}, {"type": "way", "id": 6320162, "center": {"lat": 52.5166906, "lon": 6.0616584}, "tags": {"landuse": "industrial", "name": "Voorst"}}, {"type": "way", "id": 6320168, "center": {"lat": 52.522037, "lon": 6.1188819}, "tags": {"landuse": "industrial", "name": "De Vrolijkheid"}}, {"type": "way", "id": 6320170, "center": {"lat": 52.5261047, "lon": 6.1305457}, "tags": {"landuse": "industrial", "name": "Bedrijvenpark Berkum"}}, {"type": "way", "id": 6320173, "center": {"lat": 52.5302337, "lon": 6.4280559}, "tags": {"landuse": "industrial"}}, {"type": "way", "id": 6320177, "center": {"lat": 52.5377628, "lon": 6.1732734}, "tags": {"landuse": "industrial", "name": "Hessenpoort"}}, {"type": "way", "id": 6320190, "center": {"lat": 52.5559264, "lon": 5.9331614}, "tags": {"landuse": "industrial"}}, {"type": "way", "id": 6320193, "center": {"lat": 52.5579734, "lon": 6.6377578}, "tags": {"landuse": "industrial"}}, {"type": "way", "id": 6320199, "center": {"lat": 52.5695175, "lon": 5.88152}, "tags": {"landuse": "industrial", "name": "Haatland"}}, {"type": "way", "id": 6320200, "center": {"lat": 52.5826792, "lon": 6.0932246}, "tags": {"landuse": "industrial", "name": "Zwarte Water"}}, {"type": "way", "id": 6320201, "center": {"lat": 52.588847, "lon": 6.2504897}, "tags": {"landuse": "industrial", "name": "Bedrijventerrein Nieuwleusen"}}, {"type": "way", "id": 6320204, "center": {"lat": 52.6031135, "lon": 6.3955583}, "tags": {"addr:city": "Balkbrug", "addr:housenumber": "27", "addr:postcode": "7707CG", "addr:street": "Hoogeveenseweg", "landuse": "industrial", "name": "Buiter Beton", "website": "https://www.buiterbeton.nl/"}}, {"type": "way", "id": 6320205, "center": {"lat": 52.6011669, "lon": 6.4881172}, "tags": {"landuse": "industrial", "name": "De Rollepaal"}}, {"type": "way", "id": 6320207, "center": {"lat": 52.6135073, "lon": 6.6835488}, "tags": {"landuse": "industrial", "name": "De Doorbraak"}}, {"type": "way", "id": 6320216, "center": {"lat": 52.6206538, "lon": 6.0537317}, "tags": {"landuse": "industrial", "name": "Zevenhont"}}, {"type": "way", "id": 6320224, "center": {"lat": 52.6292967, "lon": 6.2140132}, "tags": {"landuse": "industrial", "name": "De Esch"}}, {"type": "way", "id": 6320233, "center": {"lat": 52.6386144, "lon": 6.2241365}, "tags": {"landuse": "industrial", "name": "De Baarge"}}, {"type": "way", "id": 6320237, "center": {"lat": 52.644532, "lon": 6.0887597}, "tags": {"landuse": "industrial", "name": "Zwartsluis"}}, {"type": "way", "id": 6320240, "center": {"lat": 52.6496193, "lon": 6.629584}, "tags": {"landuse": "industrial"}}, {"type": "way", "id": 6320242, "center": {"lat": 52.6444088, "lon": 6.7389966}, "tags": {"landuse": "industrial", "name": "Europark", "wikidata": "Q15731365"}}, {"type": "way", "id": 6320248, "center": {"lat": 52.65515, "lon": 6.735}, "tags": {"landuse": "industrial"}}, {"type": "way", "id": 6320250, "center": {"lat": 52.6556869, "lon": 6.7278774}, "tags": {"landuse": "industrial"}}, {"type": "way", "id": 6320255, "center": {"lat": 52.663436, "lon": 5.8944162}, "tags": {"landuse": "industrial"}}, {"type": "way", "id": 6320256, "center": {"lat": 52.6655031, "lon": 5.9024968}, "tags": {"landuse": "industrial"}}, {"type": "way", "id": 6320257, "center": {"lat": 52.6653329, "lon": 6.7308484}, "tags": {"landuse": "industrial"}}, {"type": "way", "id": 6320258, "center": {"lat": 52.6640103, "lon": 6.7256659}, "tags": {"landuse": "industrial"}}, {"type": "way", "id": 6320259, "center": {"lat": 52.6675911, "lon": 6.4369008}, "tags": {"landuse": "industrial", "name": "Zuiderkerkes"}}, {"type": "way", "id": 6320271, "center": {"lat": 52.6816343, "lon": 5.9612137}, "tags": {"landuse": "industrial", "name": "De Weijert"}}, {"type": "way", "id": 6320273, "center": {"lat": 52.6866151, "lon": 6.8686171}, "tags": {"landuse": "industrial", "name": "De Vierslagen"}}, {"type": "way", "id": 6320275, "center": {"lat": 52.6886638, "lon": 6.1984164}, "tags": {"landuse": "industrial"}}, {"type": "way", "id": 6320288, "center": {"lat": 52.6986342, "lon": 6.1797067}, "tags": {"landuse": "industrial", "name": "Oevers C"}}, {"type": "way", "id": 6320289, "center": {"lat": 52.7032048, "lon": 6.1794904}, "tags": {"landuse": "industrial"}}, {"type": "way", "id": 6320293, "center": {"lat": 52.7035461, "lon": 6.1873718}, "tags": {"landuse": "industrial", "name": "Oude Vaart"}}, {"type": "way", "id": 6320297, "center": {"lat": 52.7055113, "lon": 6.1857566}, "tags": {"landuse": "industrial", "name": "Noordpoort"}}, {"type": "way", "id": 6320309, "center": {"lat": 52.7084987, "lon": 5.8708854}, "tags": {"landuse": "industrial"}}, {"type": "way", "id": 6320313, "center": {"lat": 52.7114438, "lon": 6.1972786}, "tags": {"landuse": "industrial", "name": "Noord I"}}, {"type": "way", "id": 6320317, "center": {"lat": 52.715703, "lon": 6.2437559}, "tags": {"landuse": "industrial", "name": "Hoge Akkers"}}, {"type": "way", "id": 6320323, "center": {"lat": 52.7208534, "lon": 6.8518545}, "tags": {"landuse": "industrial", "name": "Bedrijventerrein De Tweeling"}}, {"type": "way", "id": 6320325, "center": {"lat": 52.7220489, "lon": 7.0154362}, "tags": {"landuse": "industrial"}}, {"type": "way", "id": 6320328, "center": {"lat": 52.7288955, "lon": 6.9987109}, "tags": {"landuse": "industrial"}}, {"type": "way", "id": 6320329, "center": {"lat": 52.7237578, "lon": 6.4665743}, "tags": {"landuse": "industrial"}}, {"type": "way", "id": 6320332, "center": {"lat": 52.7320843, "lon": 6.9743245}, "tags": {"landuse": "industrial", "name": "Bedrijventerrein Pollux"}}, {"type": "way", "id": 6320336, "center": {"lat": 52.7337156, "lon": 6.159785}, "tags": {"landuse": "industrial", "name": "Spijkerserve"}}, {"type": "way", "id": 6320338, "center": {"lat": 52.7339469, "lon": 6.5196727}, "tags": {"landuse": "industrial"}}, {"type": "way", "id": 6320339, "center": {"lat": 52.7325454, "lon": 6.4906047}, "tags": {"landuse": "industrial", "name": "De Wieken"}}, {"type": "way", "id": 6320341, "center": {"lat": 52.7372627, "lon": 6.4720021}, "tags": {"landuse": "industrial", "name": "Toldijk"}}, {"type": "way", "id": 6320345, "center": {"lat": 52.75316, "lon": 6.8791206}, "tags": {"landuse": "industrial", "name": "Waanderveld"}}, {"type": "way", "id": 6320353, "center": {"lat": 52.75988, "lon": 6.9275917}, "tags": {"landuse": "industrial", "name": "Bargermeer", "wikidata": "Q2459788", "wikipedia": "nl:Bargermeer"}}, {"type": "way", "id": 6320354, "center": {"lat": 52.7759202, "lon": 6.9541794}, "tags": {"landuse": "industrial"}}, {"type": "way", "id": 6320357, "center": {"lat": 52.7791671, "lon": 6.092904}, "tags": {"landuse": "industrial", "name": "Groot Verlaat"}}, {"type": "way", "id": 6320364, "center": {"lat": 52.7906536, "lon": 6.1009581}, "tags": {"landuse": "industrial"}}, {"type": "way", "id": 6320372, "center": {"lat": 52.8236959, "lon": 5.9650942}, "tags": {"landuse": "industrial", "name": "Boterberg"}}, {"type": "way", "id": 6320375, "center": {"lat": 52.8397199, "lon": 6.7645288}, "tags": {"landuse": "industrial"}}, {"type": "way", "id": 6320381, "center": {"lat": 52.8481677, "lon": 6.7596999}, "tags": {"landuse": "industrial"}}, {"type": "way", "id": 6320382, "center": {"lat": 52.8531, "lon": 6.9904}, "tags": {"landuse": "industrial"}}, {"type": "way", "id": 6320383, "center": {"lat": 52.8550661, "lon": 6.5188426}, "tags": {"description": "zuivelfabriek", "landuse": "industrial", "man_made": "works", "name": "FrieslandCampina DOMO", "product": "dairy"}}, {"type": "way", "id": 6320385, "center": {"lat": 52.8577248, "lon": 6.5024156}, "tags": {"landuse": "industrial"}}, {"type": "way", "id": 6320387, "center": {"lat": 52.8750718, "lon": 6.5166407}, "tags": {"landuse": "industrial", "name": "Hanekampen"}}, {"type": "way", "id": 6320391, "center": {"lat": 52.8852593, "lon": 7.0526662}, "tags": {"landuse": "industrial"}}, {"type": "way", "id": 6320408, "center": {"lat": 52.9196764, "lon": 7.0238718}, "tags": {"landuse": "industrial"}}, {"type": "way", "id": 6320411, "center": {"lat": 52.9243012, "lon": 7.052316}, "tags": {"addr:city": "Ter Apelkanaal", "addr:housenumber": "11", "addr:postcode": "9563TM", "addr:street": "M. en O.-weg", "landuse": "industrial", "man_made": "works", "name": "Avebe Ter Apelkanaal", "product": "potato starch", "seveso": "Lagedrempelinrichting"}}, {"type": "way", "id": 6320429, "center": {"lat": 52.9501924, "lon": 6.9167601}, "tags": {"landuse": "industrial"}}, {"type": "way", "id": 6320440, "center": {"lat": 52.9643338, "lon": 5.8928459}, "tags": {"landuse": "industrial", "name": "Businesspark Friesland-West"}}, {"type": "way", "id": 6320445, "center": {"lat": 52.9634022, "lon": 5.9060479}, "tags": {"landuse": "industrial", "name": "Businesspark Friesland"}}, {"type": "way", "id": 6320447, "center": {"lat": 52.9746704, "lon": 5.9385604}, "tags": {"landuse": "industrial", "name": "De Kavels"}}, {"type": "way", "id": 6320449, "center": {"lat": 52.9737391, "lon": 5.8801389}, "tags": {"landuse": "industrial", "name": "Haskerveen"}}, {"type": "way", "id": 6320457, "center": {"lat": 52.9745489, "lon": 5.8954113}, "tags": {"landuse": "industrial"}}, {"type": "way", "id": 6320461, "center": {"lat": 52.973627, "lon": 6.9662767}, "tags": {"landuse": "industrial"}}, {"type": "way", "id": 6320466, "center": {"lat": 52.9791012, "lon": 6.9809968}, "tags": {"landuse": "industrial"}}, {"type": "way", "id": 6320467, "center": {"lat": 52.9825089, "lon": 5.8931444}, "tags": {"landuse": "industrial"}}, {"type": "way", "id": 6320469, "center": {"lat": 52.9808117, "lon": 6.30276}, "tags": {"landuse": "industrial", "name": "Venekoten"}}, {"type": "way", "id": 6320471, "center": {"lat": 52.9866315, "lon": 6.8703881}, "tags": {"landuse": "industrial", "man_made": "works", "name": "Avebe", "product": "potato starch"}}, {"type": "way", "id": 6320474, "center": {"lat": 52.9967072, "lon": 6.7623498}, "tags": {"landuse": "industrial"}}, {"type": "way", "id": 6320477, "center": {"lat": 53.0046141, "lon": 6.0559833}, "tags": {"landuse": "industrial"}}, {"type": "way", "id": 6320490, "center": {"lat": 53.0331989, "lon": 5.9877819}, "tags": {"landuse": "industrial"}}, {"type": "way", "id": 6320507, "center": {"lat": 53.0651048, "lon": 6.01769}, "tags": {"landuse": "industrial"}}, {"type": "way", "id": 6320513, "center": {"lat": 53.0841783, "lon": 6.9640402}, "tags": {"landuse": "industrial"}}, {"type": "way", "id": 6320514, "center": {"lat": 53.083904, "lon": 6.59886}, "tags": {"landuse": "industrial", "name": "Vriezerbrug"}}, {"type": "way", "id": 6320518, "center": {"lat": 53.0884158, "lon": 6.8720064}, "tags": {"landuse": "industrial"}}, {"type": "way", "id": 6320522, "center": {"lat": 53.0921562, "lon": 6.8977533}, "tags": {"landuse": "industrial"}}, {"type": "way", "id": 6320534, "center": {"lat": 53.0953599, "lon": 6.9855636}, "tags": {"landuse": "industrial"}}, {"type": "way", "id": 6320536, "center": {"lat": 53.0989913, "lon": 6.6932981}, "tags": {"landuse": "industrial", "name": "Bolwerk"}}, {"type": "way", "id": 6320539, "center": {"lat": 53.0980664, "lon": 6.8896162}, "tags": {"landuse": "industrial", "name": "De Vrijheid"}}, {"type": "way", "id": 6320543, "center": {"lat": 53.09755, "lon": 6.8795618}, "tags": {"landuse": "industrial"}}, {"type": "way", "id": 6320547, "center": {"lat": 53.1070139, "lon": 6.0708405}, "tags": {"landuse": "industrial"}}, {"type": "way", "id": 6320548, "center": {"lat": 53.1085721, "lon": 6.1352406}, "tags": {"landuse": "industrial"}}, {"type": "way", "id": 6320550, "center": {"lat": 53.1057951, "lon": 7.0214866}, "tags": {"landuse": "industrial"}}, {"type": "way", "id": 6320552, "center": {"lat": 53.1110333, "lon": 6.8922539}, "tags": {"landuse": "industrial", "name": "Lloyds"}}, {"type": "way", "id": 6320553, "center": {"lat": 53.1148426, "lon": 6.0640992}, "tags": {"landuse": "industrial"}}, {"type": "way", "id": 6601477, "center": {"lat": 51.1653145, "lon": 6.8535148}, "tags": {"landuse": "industrial", "name": "SEGRO Business Park D\u00fcsseldorf-S\u00fcd", "website": "https://www.segro.com/countries-repository/germany/segro-park-duesseldorf-sued/segro-park-duesseldorf-sued-bonner-strasse-203-40589-duesseldorf-germany"}}, {"type": "way", "id": 7863017, "center": {"lat": 53.006851, "lon": 6.5762081}, "tags": {"landuse": "industrial"}}, {"type": "way", "id": 7925308, "center": {"lat": 51.4338656, "lon": 7.1309004}, "tags": {"addr:city": "Bochum", "addr:housenumber": "222", "addr:postcode": "44879", "addr:street": "Dr.-C.-Otto-Stra\u00dfe", "industrial": "factory", "landuse": "industrial", "name": "RHI Magnesita Bochum GmbH", "old_name": "P-D refractories GmbH", "wikipedia": "de:Dr. C. Otto & Comp."}}, {"type": "way", "id": 7978960, "center": {"lat": 53.0934521, "lon": 6.1766858}, "tags": {"landuse": "industrial", "name": "De Gilden"}}, {"type": "way", "id": 8089454, "center": {"lat": 51.6215232, "lon": 7.8577872}, "tags": {"landuse": "industrial"}}, {"type": "way", "id": 8150960, "center": {"lat": 53.0131898, "lon": 6.5819994}, "tags": {"landuse": "industrial"}}, {"type": "way", "id": 9702518, "center": {"lat": 51.8435416, "lon": 6.275256}, "tags": {"landuse": "industrial"}}, {"type": "way", "id": 9702519, "center": {"lat": 51.8310624, "lon": 6.2598841}, "tags": {"landuse": "industrial", "source": "landsat"}}, {"type": "way", "id": 9702522, "center": {"lat": 51.8330764, "lon": 6.2317957}, "tags": {"landuse": "industrial", "man_made": "works", "name": "KLK Emmerich GmbH", "old_name": "Unichema / Croda", "source": "landsat", "website": "https://www.klkoleo.com/klkemmerich/"}}, {"type": "way", "id": 10051922, "center": {"lat": 51.6587839, "lon": 6.2697116}, "tags": {"landuse": "industrial", "name": "Gewerbegebiet Uedem"}}, {"type": "way", "id": 10495608, "center": {"lat": 51.2172241, "lon": 7.0056097}, "tags": {"landuse": "industrial", "name": "Industriegebiet D\u00fcsselberg", "postal_code": "42781"}}, {"type": "way", "id": 10571188, "center": {"lat": 52.6755376, "lon": 8.223766}, "tags": {"addr:city": "Lohne (Oldenburg)", "addr:country": "DE", "addr:housenumber": "73", "addr:postcode": "49393", "addr:street": "Bakumer Stra\u00dfe", "email": "info@poeppelmann.com", "landuse": "industrial", "name": "P\u00f6ppelmann Werk 1", "website": "https://www.poeppelmann.com", "wikidata": "Q1531950", "wikipedia": "de:P\u00f6ppelmann (Unternehmen)"}}, {"type": "way", "id": 10601148, "center": {"lat": 52.6657411, "lon": 8.2087616}, "tags": {"landuse": "industrial"}}, {"type": "way", "id": 10601277, "center": {"lat": 52.6674434, "lon": 8.2524052}, "tags": {"landuse": "industrial", "name": "RPC Bramlage"}}, {"type": "way", "id": 10740994, "center": {"lat": 51.4004392, "lon": 7.4257676}, "tags": {"landuse": "industrial"}}, {"type": "way", "id": 11010599, "center": {"lat": 52.6588707, "lon": 8.1911386}, "tags": {"landuse": "industrial"}}, {"type": "way", "id": 11010606, "center": {"lat": 52.6617273, "lon": 8.1960604}, "tags": {"landuse": "industrial", "name": "Gewergebiet Am Fladder"}}, {"type": "way", "id": 11017194, "center": {"lat": 52.6625288, "lon": 8.2264886}, "tags": {"landuse": "industrial"}}, {"type": "way", "id": 11383236, "center": {"lat": 51.5308697, "lon": 7.7173505}, "tags": {"landuse": "industrial", "name": "Industriegebiet Unna-Ost"}}, {"type": "way", "id": 11657292, "center": {"lat": 52.6589096, "lon": 8.2076586}, "tags": {"landuse": "industrial"}}, {"type": "way", "id": 11760019, "center": {"lat": 52.904768, "lon": 8.4401142}, "tags": {"landuse": "industrial"}}, {"type": "way", "id": 11944243, "center": {"lat": 52.6817424, "lon": 8.2707405}, "tags": {"landuse": "industrial"}}, {"type": "way", "id": 11962499, "center": {"lat": 52.2219251, "lon": 5.9719121}, "tags": {"landuse": "industrial"}}, {"type": "way", "id": 12129889, "center": {"lat": 52.1182911, "lon": 7.0962998}, "tags": {"landuse": "industrial", "note": "Test for landuse industrial, area is mixed by supermarket, industrial buildings and shops"}}, {"type": "way", "id": 12129890, "center": {"lat": 52.1212649, "lon": 7.0965611}, "tags": {"landuse": "industrial", "name": "Gewerbegebiet Stroot"}}, {"type": "way", "id": 12130209, "center": {"lat": 52.1179647, "lon": 7.0937317}, "tags": {"landuse": "industrial"}}, {"type": "way", "id": 13647797, "center": {"lat": 53.0358718, "lon": 8.7240988}, "tags": {"landuse": "industrial"}}, {"type": "way", "id": 13767017, "center": {"lat": 52.8814936, "lon": 8.4158386}, "tags": {"landuse": "industrial"}}, {"type": "way", "id": 13768271, "center": {"lat": 52.8877025, "lon": 8.4159765}, "tags": {"landuse": "industrial"}}, {"type": "way", "id": 13768329, "center": {"lat": 52.8927341, "lon": 8.4164322}, "tags": {"landuse": "industrial"}}, {"type": "way", "id": 14361711, "center": {"lat": 52.1342547, "lon": 8.6381107}, "tags": {"landuse": "industrial", "name": "Remmers Industrielacke GmbH", "website": "http://www.remmers-industrielacke.de"}}, {"type": "way", "id": 15729057, "center": {"lat": 52.0957889, "lon": 8.6858236}, "tags": {"landuse": "industrial"}}, {"type": "way", "id": 15779685, "center": {"lat": 51.4405301, "lon": 7.5532491}, "tags": {"contact:website": "http://www.deutsche-nickel.de", "landuse": "industrial", "name": "Deutsche Nickel GmbH"}}, {"type": "way", "id": 16245600, "center": {"lat": 52.45246, "lon": 6.5805174}, "tags": {"landuse": "industrial"}}, {"type": "way", "id": 16591285, "center": {"lat": 52.2569438, "lon": 8.9009255}, "tags": {"landuse": "industrial"}}, {"type": "way", "id": 16591436, "center": {"lat": 52.2606787, "lon": 8.904466}, "tags": {"landuse": "industrial"}}, {"type": "way", "id": 17506636, "center": {"lat": 51.9594652, "lon": 8.8407884}, "tags": {"landuse": "industrial"}}, {"type": "way", "id": 18895280, "center": {"lat": 51.4365651, "lon": 7.5590323}, "tags": {"landuse": "industrial"}}, {"type": "way", "id": 18895456, "center": {"lat": 51.4158327, "lon": 7.5140612}, "tags": {"landuse": "industrial"}}, {"type": "way", "id": 18895574, "center": {"lat": 51.4170093, "lon": 7.5277124}, "tags": {"image": "https://www.tws-schwerte.de/wp-content/uploads/TWS-Schwerte-Gewerbegebiet-Auf-Der-Hofestatt.jpg", "landuse": "industrial", "name": "Industriegebiet \u201eAuf der Hofestatt\u201c", "surveillance": "outdoor"}}, {"type": "way", "id": 21101330, "center": {"lat": 51.3872616, "lon": 7.4372739}, "tags": {"landuse": "industrial"}}, {"type": "way", "id": 21539082, "center": {"lat": 51.1811493, "lon": 6.4542305}, "tags": {"landuse": "industrial", "name": "Schorch"}}, {"type": "way", "id": 22605468, "center": {"lat": 52.0667773, "lon": 8.6141975}, "tags": {"barrier": "fence", "landuse": "industrial", "man_made": "wastewater_plant", "name": "Kl\u00e4rwerk Brake"}}, {"type": "way", "id": 22717536, "center": {"lat": 51.382041, "lon": 7.4123272}, "tags": {"landuse": "industrial", "name": "Gewerbegebiet Friedrichstra\u00dfe"}}, {"type": "way", "id": 22724028, "center": {"lat": 53.1056871, "lon": 8.4689132}, "tags": {"landuse": "industrial", "name": "Multionline"}}, {"type": "way", "id": 22724043, "center": {"lat": 53.1038125, "lon": 8.472689}, "tags": {"landuse": "industrial", "name": "Amazone"}}, {"type": "way", "id": 22724044, "center": {"lat": 53.1017047, "lon": 8.4807688}, "tags": {"landuse": "industrial"}}, {"type": "way", "id": 22724072, "center": {"lat": 53.0993606, "lon": 8.4915215}, "tags": {"landuse": "industrial"}}, {"type": "way", "id": 22913962, "center": {"lat": 51.9306087, "lon": 8.1164917}, "tags": {"landuse": "industrial"}}, {"type": "way", "id": 22914039, "center": {"lat": 51.9315579, "lon": 8.1060872}, "tags": {"landuse": "industrial"}}, {"type": "way", "id": 22914057, "center": {"lat": 51.9169758, "lon": 8.1569831}, "tags": {"landuse": "industrial"}}, {"type": "way", "id": 22914573, "center": {"lat": 51.9254055, "lon": 8.0954596}, "tags": {"landuse": "industrial", "name": "Hartmann M\u00f6bel"}}, {"type": "way", "id": 22914574, "center": {"lat": 51.9317252, "lon": 8.0973362}, "tags": {"landuse": "industrial"}}, {"type": "way", "id": 22920702, "center": {"lat": 51.6056303, "lon": 7.2488204}, "tags": {"landuse": "industrial"}}, {"type": "way", "id": 22926508, "center": {"lat": 51.5776728, "lon": 7.1159145}, "tags": {"landuse": "industrial", "name": "Gewerbegebiet Engelbertstra\u00dfe"}}, {"type": "way", "id": 22926546, "center": {"lat": 51.5852721, "lon": 7.1128659}, "tags": {"landuse": "industrial", "name": "Gewerbegebiet Middelicher Stra\u00dfe"}}, {"type": "way", "id": 22926705, "center": {"lat": 51.5437654, "lon": 7.0592984}, "tags": {"landuse": "industrial"}}, {"type": "way", "id": 22943608, "center": {"lat": 51.6001805, "lon": 7.0078917}, "tags": {"landuse": "industrial", "name": "Kraftwerk Scholven", "name:en": "Scholven Power Plant", "operator": "Uniper Kraftwerke", "operator:wikidata": "Q1273399", "plant:method": "combustion", "plant:output:electricity": "690 MW", "plant:source": "coal", "power": "plant", "ref:EU:ENTSOE_EIC": "11WD7SCHO-S--KWW", "wikidata": "Q454978", "wikipedia": "de:Kraftwerk Scholven"}}, {"type": "way", "id": 22943681, "center": {"lat": 51.5995892, "lon": 7.0252513}, "tags": {"industrial": "refinery", "landuse": "industrial", "name": "Ruhr Oel Raffinerie Scholven", "wikipedia": "de:BP Gelsenkirchen"}}, {"type": "way", "id": 22944670, "center": {"lat": 51.5855093, "lon": 7.0362947}, "tags": {"landuse": "industrial", "name": "Gewerbegebiet Buschgrundstra\u00dfe"}}, {"type": "way", "id": 22946242, "center": {"lat": 51.5965164, "lon": 7.0441247}, "tags": {"landuse": "industrial"}}, {"type": "way", "id": 22954734, "center": {"lat": 51.5361808, "lon": 7.0455355}, "tags": {"industrial": "refinery", "landuse": "industrial", "name": "BP Ruhr \u00d6l Gelsenkirchen Horst", "wikipedia": "de:BP Gelsenkirchen"}}, {"type": "way", "id": 22962289, "center": {"lat": 51.1675112, "lon": 6.8428634}, "tags": {"landuse": "industrial"}}, {"type": "way", "id": 22970283, "center": {"lat": 51.5531296, "lon": 7.0355126}, "tags": {"landuse": "industrial", "name": "Gewerbegebiet Kampstra\u00dfe"}}, {"type": "way", "id": 23016638, "center": {"lat": 51.5861607, "lon": 7.0486416}, "tags": {"landuse": "industrial"}}, {"type": "way", "id": 23022863, "center": {"lat": 51.6017806, "lon": 7.0771664}, "tags": {"landuse": "industrial", "name": "Bergwerk Lippe"}}, {"type": "way", "id": 23027395, "center": {"lat": 51.5446134, "lon": 7.0445646}, "tags": {"barrier": "fence", "industrial": "oil", "landuse": "industrial"}}, {"type": "way", "id": 23027738, "center": {"lat": 51.5073824, "lon": 7.4334981}, "tags": {"landuse": "industrial"}}, {"type": "way", "id": 23027813, "center": {"lat": 51.5403205, "lon": 7.0202225}, "tags": {"landuse": "industrial"}}, {"type": "way", "id": 23032938, "center": {"lat": 51.5046629, "lon": 7.0536676}, "tags": {"landuse": "industrial", "name": "ehem. Zeche Zollverein 4/5/11"}}, {"type": "way", "id": 23037538, "center": {"lat": 51.5146691, "lon": 7.0724269}, "tags": {"landuse": "industrial"}}, {"type": "way", "id": 23043474, "center": {"lat": 51.5341954, "lon": 7.471537}, "tags": {"landuse": "industrial"}}, {"type": "way", "id": 23053398, "center": {"lat": 51.4846148, "lon": 7.0807796}, "tags": {"landuse": "industrial"}}, {"type": "way", "id": 23053472, "center": {"lat": 51.4948836, "lon": 7.0868996}, "tags": {"landuse": "industrial"}}, {"type": "way", "id": 23053576, "center": {"lat": 51.4996036, "lon": 7.0808057}, "tags": {"landuse": "industrial"}}, {"type": "way", "id": 23053836, "center": {"lat": 51.4979013, "lon": 7.0916778}, "tags": {"landuse": "industrial"}}, {"type": "way", "id": 23060344, "center": {"lat": 51.5033862, "lon": 7.1295601}, "tags": {"landuse": "industrial", "name": "Gewerbegebiet Am Luftschacht"}}, {"type": "way", "id": 23060430, "center": {"lat": 51.499972, "lon": 7.124716}, "tags": {"landuse": "industrial"}}, {"type": "way", "id": 23065720, "center": {"lat": 51.6018173, "lon": 7.1997428}, "tags": {"industrial": "slaughterhouse", "landuse": "industrial", "name": "Gewerbegebiet Schlachthof"}}, {"type": "way", "id": 23067321, "center": {"lat": 51.5261014, "lon": 7.1145437}, "tags": {"landuse": "industrial", "name": "Gewerbegebiet Ahlmannshof"}}, {"type": "way", "id": 23067780, "center": {"lat": 51.5965321, "lon": 7.2316724}, "tags": {"landuse": "industrial"}}, {"type": "way", "id": 23068899, "center": {"lat": 51.5367407, "lon": 7.124816}, "tags": {"landuse": "industrial"}}, {"type": "way", "id": 23070046, "center": {"lat": 51.5338562, "lon": 7.0842223}, "tags": {"landuse": "industrial"}}, {"type": "way", "id": 23076692, "center": {"lat": 51.6300103, "lon": 7.3301563}, "tags": {"disused:power": "plant", "landuse": "industrial", "name": "Kraftwerk Datteln", "wikidata": "Q1786083", "wikipedia": "de:Kraftwerk Datteln"}}, {"type": "way", "id": 23077190, "center": {"lat": 51.6086901, "lon": 7.2770444}, "tags": {"landuse": "industrial"}}, {"type": "way", "id": 23077191, "center": {"lat": 51.6109614, "lon": 7.2759535}, "tags": {"landuse": "industrial"}}, {"type": "way", "id": 23093220, "center": {"lat": 51.475643, "lon": 7.1702022}, "tags": {"addr:city": "Bochum", "addr:country": "DE", "addr:housenumber": "200", "addr:postcode": "44793", "addr:street": "Essener Stra\u00dfe", "landuse": "industrial", "name": "ThyssenKrupp Steel"}}, {"type": "way", "id": 23094129, "center": {"lat": 51.6879974, "lon": 7.0907709}, "tags": {"addr:city": "Marl", "addr:country": "DE", "addr:housenumber": "1", "addr:postcode": "45772", "addr:street": "Paul-Baumann-Stra\u00dfe", "blinds:information": "yes", "landuse": "industrial", "name": "Chemiepark Marl", "phone": "+49 2365 499436", "toilets:wheelchair": "yes", "website": "http://site-services.evonik.de/", "wheelchair:access": "limited", "wheelchair:guided_tour": "Nach Vereinbarung", "wheelchair:source": "ruhr2010-barrierefrei.de", "wikidata": "Q3552594", "wikipedia": "de:Chemiepark Marl"}}, {"type": "way", "id": 23100246, "center": {"lat": 51.689521, "lon": 7.110462}, "tags": {"landuse": "industrial", "name": "gate.ruhr - Ehemalige Schachtanlage Auguste Victoria"}}, {"type": "way", "id": 23105077, "center": {"lat": 52.2690774, "lon": 8.6793637}, "tags": {"landuse": "industrial", "name": "Gewerbegebiet Tengerholz"}}, {"type": "way", "id": 23105212, "center": {"lat": 53.098111, "lon": 6.1321905}, "tags": {"landuse": "industrial"}}, {"type": "way", "id": 23105274, "center": {"lat": 53.1119196, "lon": 6.1431636}, "tags": {"landuse": "industrial"}}, {"type": "way", "id": 23105305, "center": {"lat": 52.2591834, "lon": 8.7043981}, "tags": {"landuse": "industrial"}}, {"type": "way", "id": 23107782, "center": {"lat": 52.2381447, "lon": 8.7457763}, "tags": {"landuse": "industrial"}}, {"type": "way", "id": 23113891, "center": {"lat": 51.3278912, "lon": 6.9502632}, "tags": {"landuse": "industrial"}}, {"type": "way", "id": 23113987, "center": {"lat": 51.3312995, "lon": 6.9523952}, "tags": {"addr:city": "Heiligenhaus", "addr:country": "DE", "addr:housenumber": "52-54", "addr:postcode": "42579", "addr:street": "Talburgstra\u00dfe", "landuse": "industrial"}}, {"type": "way", "id": 23119131, "center": {"lat": 52.1679692, "lon": 8.7213167}, "tags": {"landuse": "industrial", "name": "Hillpark"}}, {"type": "way", "id": 23130510, "center": {"lat": 51.961404, "lon": 8.2094397}, "tags": {"contact:website": "http://www.claas.com", "craft": "agricultural_engines", "industrial": "factory", "landuse": "industrial", "name": "Claas", "start_date": "1913", "wikidata": "Q704756", "wikimedia_commons": "File:Claas Luftbild.jpg", "wikipedia": "de:Claas"}}, {"type": "way", "id": 23130819, "center": {"lat": 51.87749, "lon": 8.2185372}, "tags": {"landuse": "industrial"}}, {"type": "way", "id": 23138553, "center": {"lat": 52.3799603, "lon": 8.6247759}, "tags": {"landuse": "industrial", "name": "Harting Werk 1", "website": "https://www.harting.com/"}}, {"type": "way", "id": 23140773, "center": {"lat": 51.2109976, "lon": 6.8188468}, "tags": {"landuse": "industrial", "name": "Rheinbahn Betriebshof Lierenfeld", "operator": "Rheinbahn AG"}}, {"type": "way", "id": 23141854, "center": {"lat": 51.2105133, "lon": 6.8260303}, "tags": {"landuse": "industrial"}}, {"type": "way", "id": 23148977, "center": {"lat": 51.2117523, "lon": 6.821802}, "tags": {"landuse": "industrial"}}, {"type": "way", "id": 23225052, "center": {"lat": 51.7166414, "lon": 7.2677645}, "tags": {"addr:city": "Haltern am See", "addr:housenumber": "605", "addr:postcode": "45721", "addr:street": "Flaesheimer Stra\u00dfe", "email": "info@cirkel.de", "landuse": "industrial", "man_made": "works", "name": "Cirkel Kalksandsteinwerk", "operator": "Cirkel GmbH & Co. KG", "phone": "+49 2364 93810", "product": "concrete;brick", "website": "https://www.cirkel.de/"}}, {"type": "way", "id": 23240190, "center": {"lat": 53.0391126, "lon": 8.5849619}, "tags": {"landuse": "industrial"}}, {"type": "way", "id": 23240340, "center": {"lat": 53.0361106, "lon": 8.6748464}, "tags": {"landuse": "industrial"}}, {"type": "way", "id": 23240341, "center": {"lat": 53.035333, "lon": 8.6707295}, "tags": {"landuse": "industrial"}}, {"type": "way", "id": 23240342, "center": {"lat": 53.0324444, "lon": 8.666377}, "tags": {"landuse": "industrial"}}, {"type": "way", "id": 23242466, "center": {"lat": 51.7252399, "lon": 8.5459854}, "tags": {"landuse": "industrial", "name": "Industriegebiet Boke"}}, {"type": "way", "id": 23244091, "center": {"lat": 51.5004382, "lon": 7.3751018}, "tags": {"landuse": "industrial"}}, {"type": "way", "id": 23244203, "center": {"lat": 51.4955409, "lon": 7.3773569}, "tags": {"landuse": "industrial"}}, {"type": "way", "id": 23251788, "center": {"lat": 51.5901098, "lon": 7.2361587}, "tags": {"landuse": "industrial", "name": "Gewerbegebiet K\u00f6nig Ludwig Nord"}}, {"type": "way", "id": 23252026, "center": {"lat": 51.5917887, "lon": 7.2249754}, "tags": {"landuse": "industrial"}}, {"type": "way", "id": 23252035, "center": {"lat": 51.5941275, "lon": 7.2325156}, "tags": {"addr:city": "Recklinghausen", "addr:country": "DE", "addr:housenumber": "190", "addr:postcode": "45659", "addr:street": "Blitzkuhlenstra\u00dfe", "email": "info@bracht-autokrane.de", "fax": "+49 2361 9604520", "landuse": "industrial", "name": "Franz Bracht Kranvermietung GmbH", "phone": "+49 2361 960450", "website": "https://www.bracht-autokrane.de/"}}, {"type": "way", "id": 23252037, "center": {"lat": 51.5944132, "lon": 7.2292117}, "tags": {"landuse": "industrial"}}, {"type": "way", "id": 23252039, "center": {"lat": 51.5838928, "lon": 7.2384659}, "tags": {"landuse": "industrial", "name": "Gewerbegebiet K\u00f6nig Ludwig Nord"}}, {"type": "way", "id": 23269439, "center": {"lat": 52.2279294, "lon": 7.3718135}, "tags": {"landuse": "industrial"}}, {"type": "way", "id": 23269440, "center": {"lat": 52.2279559, "lon": 7.377658}, "tags": {"landuse": "industrial"}}, {"type": "way", "id": 23282346, "center": {"lat": 51.298815, "lon": 6.9307718}, "tags": {"landuse": "industrial"}}, {"type": "way", "id": 23297039, "center": {"lat": 51.3716985, "lon": 6.9217826}, "tags": {"access": "no", "addr:housenumber": "20", "addr:postcode": "45219", "addr:street": "Mendener Stra\u00dfe", "landuse": "industrial", "man_made": "wastewater_plant", "name": "Kl\u00e4ranlage Essen-Kettwig", "operator": "Ruhrverband", "operator:short": "RV", "operator:wikidata": "Q2175142"}}, {"type": "way", "id": 23317985, "center": {"lat": 51.5304962, "lon": 7.4678315}, "tags": {"addr:city": "Dortmund", "addr:country": "DE", "addr:housenumber": "20", "addr:postcode": "44145", "addr:street": "Steigerstra\u00dfe", "industrial": "brewery", "landuse": "industrial", "name": "Dortmunder Actien-Brauerei AG", "note": "3,2 Mio. hl (2002) #6 in Germany", "operator": "Radeberger Gruppe", "website": "https://www.dab.de", "wikidata": "Q458609", "wikimedia_commons": "Category:Dortmunder Actien-Brauerei", "wikipedia": "de:Dortmunder Actien-Brauerei"}}, {"type": "way", "id": 23329616, "center": {"lat": 51.5052401, "lon": 6.9578868}, "tags": {"industrial": "distillates_storage", "landuse": "industrial", "name": "Tanklager", "operator": "Ruhr Oel GmbH"}}, {"type": "way", "id": 23329768, "center": {"lat": 51.5023817, "lon": 6.9517489}, "tags": {"landuse": "industrial", "name": "TSR THE METAL COMPANY"}}, {"type": "way", "id": 23331726, "center": {"lat": 53.0334856, "lon": 8.8836888}, "tags": {"landuse": "industrial"}}, {"type": "way", "id": 23347421, "center": {"lat": 51.732839, "lon": 7.1714668}, "tags": {"landuse": "industrial", "name": "Im Mersch"}}, {"type": "way", "id": 23373464, "center": {"lat": 52.2412144, "lon": 5.9713142}, "tags": {"landuse": "industrial", "name": "Stadhoudersmolen", "operator": "Waterschap Vallei en Veluwe"}}, {"type": "way", "id": 23436701, "center": {"lat": 53.0201341, "lon": 8.6448892}, "tags": {"landuse": "industrial"}}, {"type": "way", "id": 23436702, "center": {"lat": 53.0225198, "lon": 8.6411599}, "tags": {"landuse": "industrial"}}, {"type": "way", "id": 23436703, "center": {"lat": 53.0250631, "lon": 8.6437258}, "tags": {"landuse": "industrial"}}, {"type": "way", "id": 23436704, "center": {"lat": 53.0241125, "lon": 8.6400824}, "tags": {"landuse": "industrial"}}, {"type": "way", "id": 23480543, "center": {"lat": 51.5033318, "lon": 6.5275387}, "tags": {"addr:city": "Kamp-Lintfort", "addr:housenumber": "6", "addr:postcode": "47475", "addr:street": "Moerser Stra\u00dfe", "landuse": "industrial", "man_made": "wastewater_plant", "name": "Kl\u00e4ranlage Kamp-Lintfort", "operator": "LINEG"}}, {"type": "way", "id": 23483759, "center": {"lat": 51.5369467, "lon": 6.6116515}, "tags": {"landuse": "industrial"}}, {"type": "way", "id": 23484022, "center": {"lat": 51.5563531, "lon": 6.5837684}, "tags": {"landuse": "industrial"}}, {"type": "way", "id": 23484574, "center": {"lat": 51.5585914, "lon": 6.5715664}, "tags": {"landuse": "industrial", "name": "INOVYN"}}, {"type": "way", "id": 23484722, "center": {"lat": 51.5644939, "lon": 6.5815019}, "tags": {"landuse": "industrial", "name": "Deutsche Solvay Werke"}}, {"type": "way", "id": 23485230, "center": {"lat": 51.568982, "lon": 6.5942145}, "tags": {"landuse": "industrial", "man_made": "wastewater_plant", "name": "Kl\u00e4ranlage Rheinberg"}}, {"type": "way", "id": 23485930, "center": {"lat": 51.7459691, "lon": 8.6746614}, "tags": {"landuse": "industrial", "name": "Gewerbegebiet M\u00fchlenteich"}}, {"type": "way", "id": 23485983, "center": {"lat": 51.7315324, "lon": 8.7035405}, "tags": {"landuse": "industrial"}}, {"type": "way", "id": 23486123, "center": {"lat": 51.3351257, "lon": 7.0523286}, "tags": {"landuse": "industrial", "name": "CES"}}, {"type": "way", "id": 23486151, "center": {"lat": 51.5482028, "lon": 6.5484502}, "tags": {"landuse": "industrial"}}, {"type": "way", "id": 23486743, "center": {"lat": 51.3391915, "lon": 7.0543761}, "tags": {"alt_name": "Huf", "landuse": "industrial", "name": "Huf H\u00fclsbeck & F\u00fcrst", "not:name": "HuF", "official_name": "Huf H\u00fclsbeck & F\u00fcrst GmbH & Co. KG", "wikidata": "Q1633995", "wikipedia": "de:Huf H\u00fclsbeck & F\u00fcrst"}}, {"type": "way", "id": 23488389, "center": {"lat": 51.6152199, "lon": 6.5495469}, "tags": {"landuse": "industrial", "name": "Steinsalz-Bergwerk"}}, {"type": "way", "id": 23491466, "center": {"lat": 51.5320767, "lon": 6.6791488}, "tags": {"addr:city": "Rheinberg", "addr:housenumber": "1", "addr:postcode": "47495", "addr:street": "Hafenstra\u00dfe", "industrial": "port", "landuse": "industrial", "name": "Hafen Orsoy", "wikidata": "Q1567821"}}, {"type": "way", "id": 23493658, "center": {"lat": 51.564987, "lon": 6.5997796}, "tags": {"disused": "yes", "landuse": "industrial", "name": "Schachtanlage Rheinberg"}}, {"type": "way", "id": 23494651, "center": {"lat": 51.4763256, "lon": 6.6756087}, "tags": {"addr:city": "Duisburg", "addr:country": "DE", "addr:housenumber": "10", "addr:postcode": "47199", "addr:street": "Kohlenstra\u00dfe", "landuse": "industrial", "name": "Wetterschacht \"Gerdt\", Schachtanlage Rheinpreu\u00dfen 8"}}, {"type": "way", "id": 23494865, "center": {"lat": 51.4771798, "lon": 6.6552325}, "tags": {"landuse": "industrial", "name": "Gewerbegebiet Lohmannsheide"}}, {"type": "way", "id": 23497641, "center": {"lat": 51.3352164, "lon": 7.0569564}, "tags": {"landuse": "industrial", "name": "EMKA"}}, {"type": "way", "id": 23506370, "center": {"lat": 52.9884304, "lon": 8.8462816}, "tags": {"landuse": "industrial", "name": "Gewerbegebiet Im Bruch", "source": "yahoo"}}, {"type": "way", "id": 23533793, "center": {"lat": 51.5527376, "lon": 7.1328321}, "tags": {"landuse": "industrial"}}, {"type": "way", "id": 23570255, "center": {"lat": 51.4711144, "lon": 6.6642935}, "tags": {"landuse": "industrial", "man_made": "wastewater_plant", "name": "Kl\u00e4ranlage Moers-Gerdt"}}, {"type": "way", "id": 23570539, "center": {"lat": 51.3921156, "lon": 7.5032983}, "tags": {"landuse": "industrial", "name": "Industriegebiet Lennetal"}}, {"type": "way", "id": 23575198, "center": {"lat": 51.3292332, "lon": 7.048318}, "tags": {"landuse": "industrial"}}, {"type": "way", "id": 23575262, "center": {"lat": 51.3302913, "lon": 7.0433861}, "tags": {"landuse": "industrial", "name": "BKS"}}, {"type": "way", "id": 23590199, "center": {"lat": 51.4759695, "lon": 7.4552992}, "tags": {"landuse": "industrial", "name": "Busbetriebshof Br\u00fcnninghausen"}}, {"type": "way", "id": 23593188, "center": {"lat": 51.3737873, "lon": 7.5430784}, "tags": {"landuse": "industrial"}}, {"type": "way", "id": 23602198, "center": {"lat": 51.6814645, "lon": 7.4141405}, "tags": {"landuse": "industrial"}}, {"type": "way", "id": 23602202, "center": {"lat": 51.6727935, "lon": 7.4179015}, "tags": {"landuse": "industrial", "name": "Mengelkamp"}}, {"type": "way", "id": 23602204, "center": {"lat": 51.6823232, "lon": 7.4083192}, "tags": {"landuse": "industrial", "name": "Merten"}}, {"type": "way", "id": 23602548, "center": {"lat": 51.7030891, "lon": 7.385674}, "tags": {"landuse": "industrial"}}, {"type": "way", "id": 23602641, "center": {"lat": 51.7606886, "lon": 7.4283981}, "tags": {"landuse": "industrial"}}, {"type": "way", "id": 23602702, "center": {"lat": 51.8456003, "lon": 7.484357}, "tags": {"landuse": "industrial"}}, {"type": "way", "id": 23603155, "center": {"lat": 51.693587, "lon": 7.4444109}, "tags": {"landuse": "industrial", "name": "NSM"}}, {"type": "way", "id": 23605614, "center": {"lat": 51.4947161, "lon": 7.3430481}, "tags": {"landuse": "industrial"}}, {"type": "way", "id": 23618089, "center": {"lat": 51.3235698, "lon": 7.0568865}, "tags": {"landuse": "industrial"}}, {"type": "way", "id": 23620135, "center": {"lat": 51.377611, "lon": 6.7308719}, "tags": {"landuse": "industrial"}}, {"type": "way", "id": 23620938, "center": {"lat": 51.3294827, "lon": 7.0411849}, "tags": {"landuse": "industrial"}}, {"type": "way", "id": 23629175, "center": {"lat": 51.3763134, "lon": 7.5443936}, "tags": {"landuse": "industrial", "name": "K\u00fchne + Nagel"}}, {"type": "way", "id": 23629298, "center": {"lat": 51.3794824, "lon": 7.5296542}, "tags": {"landuse": "industrial", "name": "DHL"}}, {"type": "way", "id": 23629509, "center": {"lat": 51.3781448, "lon": 7.5384258}, "tags": {"landuse": "industrial"}}, {"type": "way", "id": 23640461, "center": {"lat": 51.3231427, "lon": 7.0589841}, "tags": {"landuse": "industrial", "name": "Schlagbaum AG"}}, {"type": "way", "id": 23659190, "center": {"lat": 51.6720061, "lon": 7.4606769}, "tags": {"landuse": "industrial"}}, {"type": "way", "id": 23661400, "center": {"lat": 53.098287, "lon": 8.863178}, "tags": {"addr:city": "Bremen", "addr:country": "DE", "addr:housenumber": "4", "addr:postcode": "28359", "addr:street": "Achterstra\u00dfe", "alt_name": "Recycling-Station Horn", "amenity": "recycling", "landuse": "industrial", "name": "Gr\u00fcn-Station Horn", "opening_hours": "Mo 09:00-14:00; Th 12:00-17:00; Fr,Sa 09:00-14:00; PH off", "operator": "Die Bremer Stadtreinigung", "recycling:books": "yes", "recycling:cardboard": "yes", "recycling:cartons": "yes", "recycling:clothes": "yes", "recycling:glass": "yes", "recycling:glass_bottles": "yes", "recycling:green_waste": "yes", "recycling:magazines": "yes", "recycling:newspaper": "yes", "recycling:paper": "yes", "recycling:plastic": "yes", "recycling:plastic_packaging": "yes", "recycling:scrap_metal": "yes", "recycling:waste": "yes", "recycling_type": "centre"}}, {"type": "way", "id": 23698660, "center": {"lat": 51.3273958, "lon": 7.041216}, "tags": {"landuse": "industrial"}}, {"type": "way", "id": 23716459, "center": {"lat": 51.1947897, "lon": 6.3772735}, "tags": {"landuse": "industrial"}}, {"type": "way", "id": 23723190, "center": {"lat": 51.2949409, "lon": 7.0551293}, "tags": {"landuse": "industrial"}}, {"type": "way", "id": 23723191, "center": {"lat": 51.2955968, "lon": 7.05787}, "tags": {"landuse": "industrial"}}, {"type": "way", "id": 23723227, "center": {"lat": 51.2953589, "lon": 7.0140289}, "tags": {"landuse": "industrial", "name": "Rheinkalk Werk W\u00fclfrath"}}, {"type": "way", "id": 23727524, "center": {"lat": 51.6311938, "lon": 6.8970428}, "tags": {"landuse": "industrial", "name": "Quarzwerk M. U. E. Tebbe-Neuenhaus oHG"}}, {"type": "way", "id": 23733247, "center": {"lat": 51.3449576, "lon": 7.0479353}, "tags": {"landuse": "industrial", "name": "WITTE Velbert"}}, {"type": "way", "id": 23737311, "center": {"lat": 51.6482415, "lon": 6.9190004}, "tags": {"landuse": "industrial", "name": "Euroquarz GmbH"}}, {"type": "way", "id": 23741584, "center": {"lat": 51.1895993, "lon": 6.3900267}, "tags": {"amenity": "waste_transfer_station", "landuse": "industrial", "name": "mags M\u00f6nchengladbacher Abfall-, Gr\u00fcn- und Stra\u00dfenbetriebe A\u00f6R"}}, {"type": "way", "id": 23743140, "center": {"lat": 51.1965199, "lon": 6.3870602}, "tags": {"landuse": "industrial"}}, {"type": "way", "id": 23802050, "center": {"lat": 51.3805391, "lon": 7.5149532}, "tags": {"landuse": "industrial"}}, {"type": "way", "id": 23824019, "center": {"lat": 51.5269049, "lon": 6.8160652}, "tags": {"landuse": "industrial", "name": "Gewerbepark Waldteich"}}, {"type": "way", "id": 23837938, "center": {"lat": 51.4809746, "lon": 7.4331842}, "tags": {"landuse": "industrial"}}, {"type": "way", "id": 23838506, "center": {"lat": 51.202877, "lon": 6.4672985}, "tags": {"landuse": "industrial"}}, {"type": "way", "id": 23839883, "center": {"lat": 51.295563, "lon": 7.0541126}, "tags": {"landuse": "industrial"}}, {"type": "way", "id": 23840053, "center": {"lat": 51.6374675, "lon": 6.8979475}, "tags": {"addr:city": "Schermbeck", "addr:housenumber": "131", "addr:postcode": "46514", "addr:street": "Kirchhellener Stra\u00dfe", "landuse": "industrial", "name": "Xella Kalksandsteinwerk"}}, {"type": "way", "id": 23844200, "center": {"lat": 52.0931895, "lon": 6.1858625}, "tags": {"barrier": "fence", "landuse": "industrial", "man_made": "wastewater_plant", "name": "Rioolwaterzuiverings-installatie Brummen", "operator": "Waterschap Vallei en Veluwe"}}, {"type": "way", "id": 23918221, "center": {"lat": 51.9230024, "lon": 7.6003114}, "tags": {"landuse": "industrial"}}, {"type": "way", "id": 23945161, "center": {"lat": 51.1884233, "lon": 6.4190055}, "tags": {"landuse": "industrial"}}, {"type": "way", "id": 23946279, "center": {"lat": 51.4745748, "lon": 6.5590971}, "tags": {"landuse": "industrial", "name": "Zeche Friedrich-Heinrich Schacht 3"}}, {"type": "way", "id": 23956803, "center": {"lat": 51.5686166, "lon": 6.9348}, "tags": {"landuse": "industrial", "name": "Pilkington", "type": "industry"}}, {"type": "way", "id": 23956996, "center": {"lat": 51.5719504, "lon": 6.9397127}, "tags": {"landuse": "industrial", "name": "Innovationszentrum Wiesenbusch Gladbeck - IWG", "type": "Wissenspark"}}, {"type": "way", "id": 23976233, "center": {"lat": 51.6013113, "lon": 6.8875817}, "tags": {"landuse": "industrial", "name": "Ehemaliges Bergwerk Prosper V Schacht 10", "wikipedia": "de:Zeche Prosper"}}, {"type": "way", "id": 23982420, "center": {"lat": 51.7846912, "lon": 7.9527349}, "tags": {"landuse": "industrial", "name": "ehemals Bosenberg Zementwerk", "source": "Landsat, survey"}}, {"type": "way", "id": 23982421, "center": {"lat": 51.7877825, "lon": 7.9615634}, "tags": {"landuse": "industrial", "source": "Landsat, survey"}}, {"type": "way", "id": 23982422, "center": {"lat": 51.7883712, "lon": 7.9564848}, "tags": {"landuse": "industrial", "source": "survey"}}, {"type": "way", "id": 23984752, "center": {"lat": 51.3794938, "lon": 6.9383193}, "tags": {"landuse": "industrial"}}, {"type": "way", "id": 24004947, "center": {"lat": 51.2479996, "lon": 6.3965616}, "tags": {"landuse": "industrial"}}, {"type": "way", "id": 24034451, "center": {"lat": 51.1677449, "lon": 6.8774115}, "tags": {"landuse": "industrial", "name": "Konecranes"}}, {"type": "way", "id": 24040454, "center": {"lat": 51.1716232, "lon": 6.877243}, "tags": {"landuse": "industrial", "name": "Komatsu"}}, {"type": "way", "id": 24042916, "center": {"lat": 51.4109554, "lon": 7.7858582}, "tags": {"landuse": "industrial", "name": "Industriepark Edelburg"}}, {"type": "way", "id": 24063419, "center": {"lat": 51.5184827, "lon": 7.4192228}, "tags": {"landuse": "industrial", "source": "yahoo images"}}, {"type": "way", "id": 24068309, "center": {"lat": 51.3351013, "lon": 7.5209853}, "tags": {"landuse": "industrial", "name": "Wippermann jun. GmbH Industrieketten"}}, {"type": "way", "id": 24145486, "center": {"lat": 51.4201235, "lon": 6.5020506}, "tags": {"landuse": "industrial", "name": "Kl\u00e4ranlage T\u00f6nisberg"}}, {"type": "way", "id": 24149115, "center": {"lat": 53.0344259, "lon": 8.8984282}, "tags": {"landuse": "industrial"}}, {"type": "way", "id": 24152975, "center": {"lat": 51.5094843, "lon": 7.3662072}, "tags": {"landuse": "industrial"}}, {"type": "way", "id": 24206571, "center": {"lat": 51.5365867, "lon": 7.6700613}, "tags": {"landuse": "industrial"}}, {"type": "way", "id": 24235612, "center": {"lat": 51.3837486, "lon": 7.5277736}, "tags": {"landuse": "industrial"}}, {"type": "way", "id": 24238974, "center": {"lat": 51.5274817, "lon": 7.3295772}, "tags": {"landuse": "industrial"}}, {"type": "way", "id": 24242295, "center": {"lat": 51.7974435, "lon": 8.3696079}, "tags": {"landuse": "industrial"}}, {"type": "way", "id": 24252070, "center": {"lat": 51.1674213, "lon": 6.4595577}, "tags": {"landuse": "industrial"}}, {"type": "way", "id": 24264341, "center": {"lat": 51.8795409, "lon": 8.4435311}, "tags": {"landuse": "industrial"}}, {"type": "way", "id": 24268136, "center": {"lat": 51.8803336, "lon": 8.4367536}, "tags": {"landuse": "industrial"}}, {"type": "way", "id": 24269045, "center": {"lat": 51.3754713, "lon": 7.7811138}, "tags": {"landuse": "industrial", "name": "Sundwiger Messingwerk"}}, {"type": "way", "id": 24269049, "center": {"lat": 51.3724268, "lon": 7.7847932}, "tags": {"landuse": "industrial"}}, {"type": "way", "id": 24272235, "center": {"lat": 51.1674628, "lon": 6.4275583}, "tags": {"description": "https://www.radio901.de/artikel/plaene-fuer-neues-wohngebiet-in-schrievers-einsehbar-1533568.html", "landuse": "industrial", "name": "Beines Areal", "name:etymology": "Name beruht auf der ehem. ans\u00e4ssigen Textilfabrik Wilhelm Beines & S\u00f6hne", "note:upcoming_change": "Neubaugebiet \u201eBP 807/S\u201c", "old_name": "Textilfabrik Wilhelm Beines & S\u00f6hne", "source:note": "https://www.o-sp.de/moenchengladbach/plan?L1=7&pid=71384"}}, {"type": "way", "id": 24280467, "center": {"lat": 51.5672233, "lon": 6.9069099}, "tags": {"landuse": "industrial", "name": "Ehemaliges Bergwerk Prosper IV, Schacht 9", "type": "Zeche"}}, {"type": "way", "id": 24280503, "center": {"lat": 51.5447179, "lon": 6.8819349}, "tags": {"access": "private", "landuse": "industrial", "name": "Schachtanlage Franz Haniel 1/2", "wikidata": "Q169819", "wikipedia": "de:Zeche Franz Haniel"}}, {"type": "way", "id": 24285367, "center": {"lat": 51.6596946, "lon": 7.6085884}, "tags": {"landuse": "industrial", "name": "Wahrbrink"}}, {"type": "way", "id": 24293332, "center": {"lat": 51.5615004, "lon": 6.8152389}, "tags": {"landuse": "industrial"}}, {"type": "way", "id": 24316287, "center": {"lat": 51.6321068, "lon": 7.4189323}, "tags": {"landuse": "industrial", "name": "Im Wirrigen"}}, {"type": "way", "id": 24340594, "center": {"lat": 51.7065159, "lon": 7.5529182}, "tags": {"landuse": "industrial"}}, {"type": "way", "id": 24346783, "center": {"lat": 51.4825852, "lon": 7.2046003}, "tags": {"landuse": "industrial", "name": "Bochumer Verein"}}, {"type": "way", "id": 24373191, "center": {"lat": 51.4121585, "lon": 6.668665}, "tags": {"landuse": "industrial", "source": "yahoo"}}, {"type": "way", "id": 24382174, "center": {"lat": 51.3925578, "lon": 7.1712958}, "tags": {"landuse": "industrial", "name": "Gewerbegebiet Beul II"}}, {"type": "way", "id": 24386742, "center": {"lat": 52.2975465, "lon": 8.5370029}, "tags": {"landuse": "industrial"}}, {"type": "way", "id": 24389353, "center": {"lat": 51.3697613, "lon": 7.1327609}, "tags": {"landuse": "industrial", "name": "Steinbrink"}}, {"type": "way", "id": 24389359, "center": {"lat": 51.3751123, "lon": 7.1280145}, "tags": {"landuse": "industrial", "name": "Wieland"}}, {"type": "way", "id": 24389362, "center": {"lat": 51.368376, "lon": 7.1384796}, "tags": {"landuse": "industrial", "name": "Spitznas"}}, {"type": "way", "id": 24389364, "center": {"lat": 51.3678447, "lon": 7.1327544}, "tags": {"landuse": "industrial"}}, {"type": "way", "id": 24389369, "center": {"lat": 51.3639644, "lon": 7.12737}, "tags": {"landuse": "industrial"}}, {"type": "way", "id": 24389392, "center": {"lat": 51.7908558, "lon": 8.4227143}, "tags": {"landuse": "industrial", "name": "An der Umgehung"}}, {"type": "way", "id": 24389419, "center": {"lat": 51.3483625, "lon": 7.1050007}, "tags": {"landuse": "industrial"}}, {"type": "way", "id": 24392722, "center": {"lat": 51.429445, "lon": 6.8635651}, "tags": {"landuse": "industrial"}}, {"type": "way", "id": 24392822, "center": {"lat": 51.307799, "lon": 7.1088084}, "tags": {"landuse": "industrial", "name": "Gewerbegebiet Siebeneick"}}, {"type": "way", "id": 24394028, "center": {"lat": 52.3276661, "lon": 8.6281375}, "tags": {"landuse": "industrial", "name": "Industriegebiet Ost"}}, {"type": "way", "id": 24394053, "center": {"lat": 52.3262113, "lon": 8.6340399}, "tags": {"landuse": "industrial"}}, {"type": "way", "id": 24397434, "center": {"lat": 51.2236843, "lon": 6.8193252}, "tags": {"landuse": "industrial", "name": "Betriebshof Stadtwerke"}}, {"type": "way", "id": 24401652, "center": {"lat": 51.8411761, "lon": 8.3701903}, "tags": {"landuse": "industrial"}}, {"type": "way", "id": 24401778, "center": {"lat": 51.8320094, "lon": 8.3587884}, "tags": {"landuse": "industrial"}}, {"type": "way", "id": 24412735, "center": {"lat": 52.3200697, "lon": 8.6270301}, "tags": {"landuse": "industrial"}}, {"type": "way", "id": 24453795, "center": {"lat": 51.8193643, "lon": 8.4351656}, "tags": {"landuse": "industrial"}}, {"type": "way", "id": 24453809, "center": {"lat": 51.7956981, "lon": 8.4240218}, "tags": {"landuse": "industrial"}}, {"type": "way", "id": 24454001, "center": {"lat": 51.5529344, "lon": 6.9874951}, "tags": {"landuse": "industrial"}}, {"type": "way", "id": 24454880, "center": {"lat": 51.8057853, "lon": 8.4287261}, "tags": {"landuse": "industrial", "name": "Kuper", "website": "https://www.kuper.de/"}}, {"type": "way", "id": 24454887, "center": {"lat": 51.8046384, "lon": 8.4279108}, "tags": {"created_by": "Potlatch 0.9a", "landuse": "industrial", "name": "Kuper"}}, {"type": "way", "id": 24462137, "center": {"lat": 51.3917117, "lon": 7.7600277}, "tags": {"landuse": "industrial"}}, {"type": "way", "id": 24476648, "center": {"lat": 51.4302184, "lon": 7.8049362}, "tags": {"landuse": "industrial"}}, {"type": "way", "id": 24476664, "center": {"lat": 51.4243429, "lon": 7.8141943}, "tags": {"landuse": "industrial"}}, {"type": "way", "id": 24476704, "center": {"lat": 51.4274934, "lon": 7.8032898}, "tags": {"landuse": "industrial"}}, {"type": "way", "id": 24476794, "center": {"lat": 51.4217542, "lon": 7.7943511}, "tags": {"landuse": "industrial"}}, {"type": "way", "id": 24488824, "center": {"lat": 51.8786243, "lon": 8.4888157}, "tags": {"landuse": "industrial"}}, {"type": "way", "id": 24488851, "center": {"lat": 51.8773006, "lon": 8.4789649}, "tags": {"landuse": "industrial"}}, {"type": "way", "id": 24498704, "center": {"lat": 52.1684727, "lon": 8.595173}, "tags": {"landuse": "industrial", "name": "Industriegebiet Bustedt"}}, {"type": "way", "id": 24509604, "center": {"lat": 52.0725512, "lon": 8.7627119}, "tags": {"landuse": "industrial", "name": "ESC"}}, {"type": "way", "id": 24511038, "center": {"lat": 51.2958094, "lon": 7.2955517}, "tags": {"landuse": "industrial"}}, {"type": "way", "id": 24524828, "center": {"lat": 51.5582548, "lon": 6.7498636}, "tags": {"landuse": "industrial"}}, {"type": "way", "id": 24526139, "center": {"lat": 51.3797084, "lon": 7.7537549}, "tags": {"landuse": "industrial", "name": "Gewerbegebiet Eisenbahnschleife"}}, {"type": "way", "id": 24530700, "center": {"lat": 51.2791976, "lon": 6.7796075}, "tags": {"landuse": "industrial"}}, {"type": "way", "id": 24530708, "center": {"lat": 51.2824456, "lon": 6.7749109}, "tags": {"amenity": "fuel_depot", "fuel": "aviation_fuel", "landuse": "industrial", "name": "Flughafen Tanklager"}}, {"type": "way", "id": 24531291, "center": {"lat": 51.2583303, "lon": 6.7859669}, "tags": {"contact:website": "https://www.daimler.com/karriere/das-sind-wir/standorte/standort-detailseite-5078.html", "landuse": "industrial", "man_made": "works", "name": "Mercedes-Benz-Werk", "operator": "Daimler AG", "product": "cars", "source": "survey, yahoo"}}, {"type": "way", "id": 24532007, "center": {"lat": 51.2555617, "lon": 7.1716428}, "tags": {"landuse": "industrial", "name": "Axalta"}}, {"type": "way", "id": 24544508, "center": {"lat": 51.3980858, "lon": 7.8385575}, "tags": {"landuse": "industrial", "name": "Lhoist Europe", "website": "https://www.lhoist.com/"}}, {"type": "way", "id": 24552099, "center": {"lat": 51.2783598, "lon": 7.1875479}, "tags": {"addr:city": "Wuppertal", "addr:housenumber": "39", "addr:postcode": "42281", "addr:street": "Bromberger Stra\u00dfe", "landuse": "industrial", "name": "Wuppertaler Stadtwerke"}}, {"type": "way", "id": 24554949, "center": {"lat": 51.3552403, "lon": 7.5603284}, "tags": {"landuse": "industrial"}}, {"type": "way", "id": 24562314, "center": {"lat": 51.2585555, "lon": 6.8002732}, "tags": {"landuse": "industrial"}}, {"type": "way", "id": 24562317, "center": {"lat": 51.2623115, "lon": 6.7981572}, "tags": {"landuse": "industrial"}}, {"type": "way", "id": 24566471, "center": {"lat": 52.1327762, "lon": 8.6705509}, "tags": {"landuse": "industrial"}}, {"type": "way", "id": 24583739, "center": {"lat": 51.3422356, "lon": 6.8964219}, "tags": {"addr:housename": "Unternehmensgruppe Goldkuhle", "landuse": "industrial"}}, {"type": "way", "id": 24584000, "center": {"lat": 51.7796104, "lon": 8.5907145}, "tags": {"landuse": "industrial", "name": "Industriegebiet Delbr\u00fcck-Ost"}}, {"type": "way", "id": 24585971, "center": {"lat": 51.6208927, "lon": 8.8827025}, "tags": {"landuse": "industrial", "name": "Technologiezentrum Leib\u00fchl"}}, {"type": "way", "id": 24598639, "center": {"lat": 51.6383883, "lon": 6.7127302}, "tags": {"landuse": "industrial", "name": "Gewerbegebiet Bucholtwelmen Ost"}}, {"type": "way", "id": 24610014, "center": {"lat": 51.4530782, "lon": 7.3535926}, "tags": {"landuse": "industrial"}}, {"type": "way", "id": 24622332, "center": {"lat": 51.3786447, "lon": 6.9880742}, "tags": {"addr:city": "Essen", "addr:housenumber": "150", "addr:postcode": "45239", "addr:street": "Laupendahler Landstra\u00dfe", "amenity": "recycling", "email": "info@ebe-essen.de", "landuse": "industrial", "name": "Recyclinghof Werden", "opening_hours": "Mo-We,Fr 08:00-15:00; Th 08:00-18:00; Sa 08:00-14:00", "operator": "Entsorgungsbetriebe Essen GmbH", "recycling_type": "centre", "website": "https://www.ebe-essen.de/service-info/recyclinghof/"}}, {"type": "way", "id": 24622921, "center": {"lat": 51.4542521, "lon": 7.3542438}, "tags": {"landuse": "industrial", "name": "Gewerbegebiet Liegnitzer Stra\u00dfe"}}, {"type": "way", "id": 24623406, "center": {"lat": 51.4335894, "lon": 7.3267104}, "tags": {"addr:city": "Witten", "addr:country": "DE", "addr:housenumber": "4", "addr:postcode": "58452", "addr:street": "Auestra\u00dfe", "addr:suburb": "Mitte", "contact:email": "info@dew-stahl.com", "contact:fax": "+49 2302 294000", "contact:foursquare": "4e12e1ec52b1655efa524f13", "contact:phone": "+49 2302 290", "contact:website": "https://www.dew-stahl.com/", "landuse": "industrial", "man_made": "works", "name": "Deutsche Edelstahlwerke", "old_name": "Berger und Co.;Gussstahlwerk Witten;Gu\u00dfstahlwerk Witten;Edelstahl Witten;Thyssen Edelstahlwerke;Thyssen Stahl;Edelstahl Witten-Krefeld", "ref:gnd": "7705902-5", "ref:viaf": "238622134", "short_name": "DEW", "wikidata": "Q1202318", "wikimedia_commons": "Category:Deutsche Edelstahlwerke Gmbh", "wikipedia": "de:Deutsche Edelstahlwerke Specialty Steel"}}, {"type": "way", "id": 24639502, "center": {"lat": 52.3071942, "lon": 8.884245}, "tags": {"landuse": "industrial", "name": "Amadee", "website": "https://www.amadee.de/"}}, {"type": "way", "id": 24639971, "center": {"lat": 51.2446365, "lon": 7.1318607}, "tags": {"landuse": "industrial", "name": "Viehhof"}}, {"type": "way", "id": 24667240, "center": {"lat": 52.2534893, "lon": 7.3791568}, "tags": {"landuse": "industrial"}}, {"type": "way", "id": 24675577, "center": {"lat": 51.4210662, "lon": 7.5335472}, "tags": {"landuse": "industrial"}}, {"type": "way", "id": 24681235, "center": {"lat": 51.3813813, "lon": 7.5230733}, "tags": {"landuse": "industrial", "name": "August Schmidt Fahrzeugbau", "url": "http://www.fahrzeugbau-schmidt.de/"}}, {"type": "way", "id": 24683225, "center": {"lat": 52.0601636, "lon": 8.7438311}, "tags": {"landuse": "industrial"}}, {"type": "way", "id": 24695749, "center": {"lat": 51.6837494, "lon": 6.8689797}, "tags": {"landuse": "industrial", "name": "Industriegebiet Schermbeck"}}, {"type": "way", "id": 24696030, "center": {"lat": 51.2060587, "lon": 6.2185444}, "tags": {"landuse": "industrial", "name": "Station Niederkr\u00fcchten", "operator": "Westnetz", "power": "substation", "substation": "distribution", "voltage": "110000"}}, {"type": "way", "id": 24712174, "center": {"lat": 51.4275712, "lon": 6.8647639}, "tags": {"industrial": "depot", "landuse": "industrial", "name": "Ruhrbahn GmbH", "operator": "Ruhrbahn"}}, {"type": "way", "id": 24747465, "center": {"lat": 51.4827346, "lon": 8.4443166}, "tags": {"landuse": "industrial"}}, {"type": "way", "id": 24750582, "center": {"lat": 53.1010005, "lon": 8.5216846}, "tags": {"landuse": "industrial", "name": "Gewerbegebiet Bookholzberg"}}, {"type": "way", "id": 24751652, "center": {"lat": 51.6648192, "lon": 6.7404614}, "tags": {"landuse": "industrial"}}, {"type": "way", "id": 24756856, "center": {"lat": 52.0302791, "lon": 8.9077048}, "tags": {"addr:housenumber": "24", "addr:street": "Bruchweg", "landuse": "industrial", "name": "Stadtwerke Lemgo GmbH"}}, {"type": "way", "id": 24757888, "center": {"lat": 51.7768523, "lon": 8.3569279}, "tags": {"landuse": "industrial"}}, {"type": "way", "id": 24758006, "center": {"lat": 51.7731208, "lon": 8.3749738}, "tags": {"landuse": "industrial"}}, {"type": "way", "id": 24758007, "center": {"lat": 51.7738751, "lon": 8.377459}, "tags": {"landuse": "industrial"}}, {"type": "way", "id": 24761396, "center": {"lat": 53.0599545, "lon": 8.7887483}, "tags": {"depot": "tram;;bus", "industrial": "depot", "landuse": "industrial", "name": "Betriebshof Neustadt / Bremer Stra\u00dfenbahn AG"}}, {"type": "way", "id": 24775835, "center": {"lat": 52.0253552, "lon": 8.8778794}, "tags": {"landuse": "industrial", "name": "Zumtobel", "old_name": "Staff", "website": "http://www.zumtobel.de/"}}, {"type": "way", "id": 24775994, "center": {"lat": 51.7857078, "lon": 8.3199067}, "tags": {"landuse": "industrial", "name": "Alte Brauerei"}}, {"type": "way", "id": 24777400, "center": {"lat": 51.4844949, "lon": 6.8341184}, "tags": {"generator:method": "combustion", "generator:output:electricity": "350 MW", "generator:source": "waste", "generator:type": "boiler", "landuse": "industrial", "name": "GMVA Gemeinschafts-M\u00fcll-Verbrennungsanlage Niederrhein GmbH", "operator": "Remondis, STOAG, Wirtschaftsbetriebe Duisburg", "power": "generator"}}, {"type": "way", "id": 24787666, "center": {"lat": 51.3977316, "lon": 7.1692861}, "tags": {"landuse": "industrial", "name": "Gewerbegebiet Beul"}}, {"type": "way", "id": 24788582, "center": {"lat": 51.486261, "lon": 6.8456693}, "tags": {"landuse": "industrial", "name": "Industriegebiet West 2"}}, {"type": "way", "id": 24790252, "center": {"lat": 51.3894303, "lon": 7.4307071}, "tags": {"barrier": "fence", "landuse": "industrial"}}, {"type": "way", "id": 24797753, "center": {"lat": 51.2458953, "lon": 7.1107737}, "tags": {"landuse": "industrial", "name": "Bayer"}}, {"type": "way", "id": 24806160, "center": {"lat": 51.9047863, "lon": 8.4021872}, "tags": {"landuse": "industrial", "name": "Drahtwolf"}}, {"type": "way", "id": 24814860, "center": {"lat": 51.8368606, "lon": 8.4463074}, "tags": {"landuse": "industrial"}}, {"type": "way", "id": 24815262, "center": {"lat": 51.2430079, "lon": 6.3300357}, "tags": {"barrier": "fence", "frequency": "50", "landuse": "industrial", "name": "Station D\u00fclken", "operator": "Amprion", "operator:wikidata": "Q477318", "power": "substation", "substation": "transmission", "voltage": "380000;220000;110000", "wikidata": "Q52852877"}}, {"type": "way", "id": 24822210, "center": {"lat": 51.8374344, "lon": 8.4433719}, "tags": {"landuse": "industrial"}}, {"type": "way", "id": 24826135, "center": {"lat": 51.2483334, "lon": 7.1191616}, "tags": {"disused:power": "plant", "landuse": "industrial", "name": "Heizkraftwerk Wuppertal-Elberfeld", "old_name": "Heizkraftwerk Elberfeld", "wikidata": "Q1601500", "wikipedia": "de:Heizkraftwerk Wuppertal-Elberfeld"}}, {"type": "way", "id": 24849905, "center": {"lat": 51.2207397, "lon": 6.7325883}, "tags": {"addr:city": "D\u00fcsseldorf", "addr:country": "DE", "addr:housenumber": "75", "addr:postcode": "40221", "addr:street": "Auf der Lausward", "barrier": "fence", "contact:website": "http://www.swd-ag.de/unternehmen/erzeugungsanlagen/lausward.php", "image": "https://commons.wikimedia.org/wiki/File:D\u00fcsseldorf_-_Auf_der_Lausward_-_Kraftwerk_02_ies.jpg", "landuse": "industrial", "name": "Kraftwerk Lausward", "operator": "Stadtwerke D\u00fcsseldorf", "plant:method": "combustion", "plant:output:electricity": "825 MW", "plant:output:heat": "330 MW", "plant:source": "gas", "power": "plant", "ref:EU:ENTSOE_EIC": "11WD7NORF5G--KWG", "start_date": "1957", "wikidata": "Q1786148", "wikipedia": "de:Kraftwerk Lausward"}}, {"type": "way", "id": 24874499, "center": {"lat": 53.0731125, "lon": 8.7965837}, "tags": {"landuse": "industrial"}}, {"type": "way", "id": 24887757, "center": {"lat": 53.0924916, "lon": 8.5815945}, "tags": {"landuse": "industrial"}}, {"type": "way", "id": 24897297, "center": {"lat": 51.528213, "lon": 7.1695455}, "tags": {"landuse": "industrial"}}, {"type": "way", "id": 24938931, "center": {"lat": 51.5379584, "lon": 6.8765474}, "tags": {"landuse": "industrial"}}, {"type": "way", "id": 24939598, "center": {"lat": 51.5364225, "lon": 6.8774376}, "tags": {"landuse": "industrial"}}, {"type": "way", "id": 24944634, "center": {"lat": 51.5468555, "lon": 6.9560161}, "tags": {"landuse": "industrial"}}, {"type": "way", "id": 24964753, "center": {"lat": 53.0683517, "lon": 8.5974794}, "tags": {"landuse": "industrial"}}, {"type": "way", "id": 24989290, "center": {"lat": 51.7121723, "lon": 7.1142848}, "tags": {"landuse": "industrial", "name": "Baubetriebshof"}}, {"type": "way", "id": 24990736, "center": {"lat": 51.3933628, "lon": 7.355499}, "tags": {"landuse": "industrial", "name": "Gewerbegebiet Heringh\u00e4user Feld"}}, {"type": "way", "id": 24991247, "center": {"lat": 51.6279199, "lon": 6.7825831}, "tags": {"addr:city": "H\u00fcnxe", "addr:housenumber": "83", "addr:street": "Minnekenstege", "landuse": "industrial", "name": "RAG Schacht H\u00fcnxe (au\u00dfer Betrieb)"}}, {"type": "way", "id": 24991688, "center": {"lat": 51.6145883, "lon": 6.8900488}, "tags": {"landuse": "industrial"}}, {"type": "way", "id": 25004068, "center": {"lat": 53.0522312, "lon": 8.7972466}, "tags": {"landuse": "industrial"}}, {"type": "way", "id": 25009121, "center": {"lat": 51.409746, "lon": 6.7501691}, "tags": {"barrier": "fence", "landuse": "industrial", "man_made": "wastewater_plant", "name": "Kl\u00e4ranlage Hochfeld", "operator": "Wirtschaftsbetriebe Duisburg"}}, {"type": "way", "id": 25017903, "center": {"lat": 51.3510969, "lon": 6.9300158}, "tags": {"landuse": "industrial", "name": "Gewerbegebiet Heiligenhauser Stra\u00dfe"}}, {"type": "way", "id": 25019490, "center": {"lat": 51.4761103, "lon": 7.0891419}, "tags": {"landuse": "industrial"}}, {"type": "way", "id": 25023183, "center": {"lat": 51.9228224, "lon": 7.563706}, "tags": {"landuse": "industrial"}}, {"type": "way", "id": 25023219, "center": {"lat": 51.9279653, "lon": 7.5586075}, "tags": {"landuse": "industrial"}}, {"type": "way", "id": 25023421, "center": {"lat": 51.6217311, "lon": 6.8691784}, "tags": {"landuse": "industrial", "name": "H\u00fcnxer Munitionszerlegebetrieb"}}, {"type": "way", "id": 25029505, "center": {"lat": 51.928637, "lon": 7.560432}, "tags": {"created_by": "JOSM", "landuse": "industrial"}}, {"type": "way", "id": 25032143, "center": {"lat": 51.3604092, "lon": 6.9356345}, "tags": {"alt_name": "Laufwasserkraftwerk Kettwig", "landuse": "industrial", "name": "Wasserkraftwerk Kettwig", "operator": "RWE Innogy", "plant:method": "run-of-the-river", "plant:output:electricity": "5.3 MW", "plant:source": "hydro", "power": "plant", "wikidata": "Q1246189", "wikipedia": "de:Laufwasserkraftwerk Kettwig"}}, {"type": "way", "id": 25039786, "center": {"lat": 51.2297025, "lon": 6.832269}, "tags": {"landuse": "industrial"}}, {"type": "way", "id": 25050336, "center": {"lat": 51.3249395, "lon": 8.0344869}, "tags": {"landuse": "industrial"}}, {"type": "way", "id": 25050349, "center": {"lat": 51.3246695, "lon": 8.0388416}, "tags": {"landuse": "industrial"}}, {"type": "way", "id": 25050600, "center": {"lat": 51.3228814, "lon": 8.0394787}, "tags": {"landuse": "industrial"}}, {"type": "way", "id": 25055579, "center": {"lat": 51.3063219, "lon": 6.8053394}, "tags": {"landuse": "industrial", "man_made": "wastewater_plant", "name": "Kl\u00e4rwerk Ratingen"}}, {"type": "way", "id": 25066088, "center": {"lat": 51.5336662, "lon": 7.7244272}, "tags": {"landuse": "industrial"}}, {"type": "way", "id": 25081114, "center": {"lat": 51.2189736, "lon": 6.8185949}, "tags": {"landuse": "industrial"}}, {"type": "way", "id": 25091023, "center": {"lat": 51.5650438, "lon": 6.931938}, "tags": {"barrier": "fence", "landuse": "industrial", "name": "Station Ellinghorst", "note": "2 110kV-Trafos", "operator": "RWE", "operator:wikidata": "Q138133", "power": "substation", "substation": "transmission", "voltage": "110000"}}, {"type": "way", "id": 25140204, "center": {"lat": 51.6901122, "lon": 6.8581396}, "tags": {"landuse": "industrial"}}, {"type": "way", "id": 25166376, "center": {"lat": 51.4461764, "lon": 6.8766529}, "tags": {"landuse": "industrial"}}, {"type": "way", "id": 25172726, "center": {"lat": 52.169534, "lon": 8.6592773}, "tags": {"landuse": "industrial", "name": "Peter-Lacke GmbH", "website": "https://www.peter-lacke.de/"}}, {"type": "way", "id": 25178637, "center": {"lat": 51.8955622, "lon": 7.0015994}, "tags": {"landuse": "industrial"}}, {"type": "way", "id": 25178652, "center": {"lat": 51.8966601, "lon": 6.9904731}, "tags": {"landuse": "industrial"}}, {"type": "way", "id": 25198553, "center": {"lat": 51.9241027, "lon": 7.5701829}, "tags": {"landuse": "industrial"}}, {"type": "way", "id": 25208327, "center": {"lat": 51.9638796, "lon": 8.665371}, "tags": {"landuse": "industrial"}}, {"type": "way", "id": 25211640, "center": {"lat": 52.0208109, "lon": 8.750573}, "tags": {"landuse": "industrial", "name": "Informa"}}, {"type": "way", "id": 25212475, "center": {"lat": 52.0251837, "lon": 8.7784307}, "tags": {"fee": "yes", "image": "https://upload.wikimedia.org/wikipedia/commons/e/e1/Ziegelei_Lage_Ansicht.jpg", "landuse": "industrial", "name": "LWL-Industriemuseum Ziegeleimuseum in Lage", "phone": "+49 5232 9490-0", "tourism": "museum", "website": "https://www.lwl.org/LWL/Kultur/wim/portal/S/lage/ort/", "wheelchair": "yes", "wikimedia_commons": "Category:Ziegelei Lage"}}, {"type": "way", "id": 25254995, "center": {"lat": 51.3874304, "lon": 7.3837237}, "tags": {"landuse": "industrial", "man_made": "works", "name": "DEMAG Cranes & Components GmbH", "operator": "DEMAG Cranes & Components GmbH"}}, {"type": "way", "id": 25274336, "center": {"lat": 51.3593797, "lon": 7.3722038}, "tags": {"landuse": "industrial", "name": "Sch\u00f6llinger Feld"}}, {"type": "way", "id": 25275318, "center": {"lat": 51.6982381, "lon": 8.4042963}, "tags": {"landuse": "industrial"}}, {"type": "way", "id": 25292873, "center": {"lat": 51.270721, "lon": 7.1665653}, "tags": {"landuse": "industrial", "name": "Gewerbegebiet Clausen", "note": "produzierendes Gewerbe, daher landuse=industrial"}}, {"type": "way", "id": 25341022, "center": {"lat": 51.506006, "lon": 6.8757955}, "tags": {"created_by": "Potlatch 0.9c", "landuse": "industrial"}}, {"type": "way", "id": 25347882, "center": {"lat": 51.5848147, "lon": 7.6761038}, "tags": {"landuse": "industrial"}}, {"type": "way", "id": 25429733, "center": {"lat": 51.4733113, "lon": 7.7151412}, "tags": {"landuse": "industrial"}}, {"type": "way", "id": 25444605, "center": {"lat": 52.1928906, "lon": 8.5066216}, "tags": {"addr:city": "B\u00fcnde", "addr:housenumber": "377-379", "addr:postcode": "32257", "addr:street": "Osnabr\u00fccker Stra\u00dfe", "contact:phone": "+49 5223 690 90", "contact:website": "https://gma.de/", "industrial": "factory", "landuse": "industrial", "name": "GMA Metall GmbH"}}, {"type": "way", "id": 25444655, "center": {"lat": 52.1957284, "lon": 8.5172215}, "tags": {"landuse": "industrial"}}, {"type": "way", "id": 25444846, "center": {"lat": 52.2037147, "lon": 8.5760268}, "tags": {"landuse": "industrial", "name": "Miele GmbH"}}, {"type": "way", "id": 25445348, "center": {"lat": 52.1951473, "lon": 8.5890449}, "tags": {"landuse": "industrial", "name": "Arnold Andr\u00e9", "wikidata": "Q694832", "wikipedia": "de:Arnold Andr\u00e9"}}, {"type": "way", "id": 25453502, "center": {"lat": 51.3138603, "lon": 7.2110218}, "tags": {"landuse": "industrial", "source": "Bing"}}, {"type": "way", "id": 25475136, "center": {"lat": 51.4760271, "lon": 7.7118309}, "tags": {"landuse": "industrial"}}, {"type": "way", "id": 25495514, "center": {"lat": 51.2008799, "lon": 6.7784537}, "tags": {"landuse": "industrial", "name": "Betriebshof \u201eAm Steinberg\u201c", "operator": "Rheinbahn AG"}},