[{"type": "way", "id": 23402841, "center": {"lat": 50.2805313, "lon": 10.9574962}, "tags": {"access": "no", "barrier": "fence", "frequency": "50", "location": "outdoor", "name": "Coburg-Neuses", "name:abbreviation": "COBU", "power": "substation", "ref": "COBU", "substation": "transmission", "voltage": "110000"}}, {"type": "way", "id": 23700199, "center": {"lat": 49.4595745, "lon": 11.1476995}, "tags": {"access": "no", "addr:city": "N\u00fcrnberg", "addr:country": "DE", "addr:housenumber": "37", "addr:postcode": "90480", "addr:street": "Storchenweg", "barrier": "fence", "name": "Umspannwerk Rehhof", "name:abbreviation": "REH", "operator": "E.ON Netz", "operator:wikidata": "Q15806976", "operator:wikipedia": "de:E.ON Netz", "power": "substation", "substation": "transmission", "voltage": "110000"}}, {"type": "way", "id": 24464441, "center": {"lat": 49.5029722, "lon": 10.8145361}, "tags": {"access": "no", "barrier": "fence", "name": "Umspannwerk Langenzenn", "operator": "N-ERGIE", "power": "substation", "substation": "transmission", "voltage": "110000"}}, {"type": "way", "id": 24705761, "center": {"lat": 49.3784785, "lon": 10.8432546}, "tags": {"frequency": "50", "landuse": "industrial", "location": "outdoor", "name": "Umspannwerk Raitersaich", "operator": "TenneT TSO GmbH;E.ON Netz GmbH", "power": "substation", "ref": "RAI", "substation": "transmission", "voltage": "380000;220000;110000", "wikidata": "Q52637084"}}, {"type": "way", "id": 24706117, "center": {"lat": 49.3599855, "lon": 10.8408071}, "tags": {"barrier": "fence", "name": "Umspannwerk M\u00fcncherlbach", "name:abbreviation": "MEB", "operator": "TenneT TSO GmbH;E.ON Netz GmbH", "power": "substation", "substation": "transmission", "voltage": "110000"}}, {"type": "way", "id": 24715381, "center": {"lat": 49.989182, "lon": 10.1602463}, "tags": {"barrier": "fence", "frequency": "50", "name": "Umspannwerk Bergrheinfeld", "operator": "TenneT TSO GmbH", "operator:wikidata": "Q1662830", "power": "substation", "ref": "BRF", "substation": "transmission", "voltage": "380000;220000;110000"}}, {"type": "way", "id": 24727406, "center": {"lat": 49.4274709, "lon": 10.9429736}, "tags": {"barrier": "fence", "frequency": "50", "landuse": "industrial", "name": "Umspannwerk Zirndorf", "name:abbreviation": "ZID", "power": "substation", "substation": "transmission", "voltage": "110000"}}, {"type": "way", "id": 24757392, "center": {"lat": 50.1620758, "lon": 11.1932457}, "tags": {"frequency": "50", "name": "Umspannwerk Redwitz", "operator": "TenneT TSO GmbH", "operator:wikidata": "Q1662830", "power": "substation", "ref": "Red", "substation": "transmission", "voltage": "380000", "wikidata": "Q58194098"}}, {"type": "way", "id": 24757393, "center": {"lat": 49.9787943, "lon": 11.1067776}, "tags": {"frequency": "50", "location": "outdoor", "name": "Umspannwerk W\u00fcrgau", "operator": "TenneT TSO", "operator:wikidata": "Q1662830", "power": "substation", "ref": "Wg", "substation": "transmission", "voltage": "380000"}}, {"type": "way", "id": 24757833, "center": {"lat": 49.9280171, "lon": 10.836228}, "tags": {"barrier": "fence", "description": "380-kV-Umspannwerk", "name": "Umspannwerk Oberhaid", "operator": "TenneT TSO", "operator:wikidata": "Q1662830", "operator:wikipedia": "de:Tennet Holding", "power": "substation", "ref": "OD", "substation": "transmission", "voltage": "380000"}}, {"type": "way", "id": 24758329, "center": {"lat": 49.9800567, "lon": 10.6645026}, "tags": {"barrier": "fence", "location": "outdoor", "name": "Eltmann", "operator": "Bayernwerk", "operator:wikidata": "Q1273383", "operator:wikipedia": "de:Bayernwerk", "power": "substation", "ref": "ELT", "substation": "transmission", "voltage": "380000;110000"}}, {"type": "way", "id": 24762015, "center": {"lat": 49.6934684, "lon": 10.2553967}, "tags": {"barrier": "fence", "frequency": "50", "name": "Umspannwerk Iphofen", "power": "substation", "substation": "transmission", "voltage": "110000"}}, {"type": "way", "id": 24762218, "center": {"lat": 49.6020612, "lon": 10.6270628}, "tags": {"access": "no", "barrier": "fence", "frequency": "50", "name": "Umspannwerk Diespeck", "power": "substation", "substation": "transmission", "voltage": "110000"}}, {"type": "way", "id": 24765111, "center": {"lat": 49.7983501, "lon": 9.5940786}, "tags": {"frequency": "50", "name": "Umspannwerk Trennfeld", "operator": "TenneT TSO GmbH;E.ON Netz GmbH", "power": "substation", "ref": "TRE", "substation": "transmission", "voltage": "220000;110000", "wikidata": "Q52637364"}}, {"type": "way", "id": 25843016, "center": {"lat": 49.3730946, "lon": 10.1998238}, "tags": {"barrier": "fence", "name": "Umspannwerk Rothenburg", "power": "substation", "substation": "transmission", "voltage": "110000"}}, {"type": "way", "id": 26315235, "center": {"lat": 49.9172848, "lon": 10.903671}, "tags": {"location": "outdoor", "name": "Umspannwerk Bamberg-Nord", "name:abbreviation": "BAN", "operator": "Stadtwerke Bamberg;EON Netz", "power": "substation", "substation": "transmission", "voltage": "110000"}}, {"type": "way", "id": 27630726, "center": {"lat": 49.4873778, "lon": 11.4742686}, "tags": {"addr:city": "Happurg", "addr:country": "DE", "addr:housenumber": "26", "addr:postcode": "91230", "addr:street": "Hauptstra\u00dfe", "location": "outdoor", "name": "Umspannwerk Happurg", "name:abbreviation": "HAP", "operator": "TenneT TSO", "operator:wikidata": "Q1662830", "power": "substation", "substation": "transmission", "voltage": "110000"}}, {"type": "way", "id": 28155437, "center": {"lat": 49.599129, "lon": 11.5152865}, "tags": {"addr:city": "Hartenstein", "addr:country": "DE", "addr:housenumber": "2", "addr:postcode": "91235", "addr:street": "Zur Kl\u00e4ranlage", "frequency": "50", "name": "Umspannwerk Hartenstein", "name:abbreviation": "HART", "power": "substation", "substation": "transmission", "voltage": "110000"}}, {"type": "way", "id": 28321885, "center": {"lat": 49.4559979, "lon": 11.0884944}, "tags": {"building": "yes", "building:colour": "maroon", "frequency": "50", "location": "indoor", "name": "Umspannwerk W\u00f6hrder Tor", "name:abbreviation": "WOET", "operator": "N-ERGIE", "operator:wikidata": "Q1705813", "operator:wikipedia": "de:N-ERGIE", "power": "substation", "ref": "U29", "roof:colour": "gray", "roof:shape": "flat", "substation": "transmission", "voltage": "110000"}}, {"type": "way", "id": 28527492, "center": {"lat": 49.6551442, "lon": 10.4437678}, "tags": {"barrier": "fence", "frequency": "50", "name": "Umspannanlage Markt Bibart", "operator": "N-ERGIE", "power": "substation", "substation": "transmission", "voltage": "110000"}}, {"type": "way", "id": 28613717, "center": {"lat": 49.5838895, "lon": 10.9871006}, "tags": {"barrier": "fence", "fence_type": "barbed_wire", "name": "Umspannwerk Erlangen", "name:abbreviation": "ERLA;EG", "power": "substation", "substation": "transmission", "voltage": "110000"}}, {"type": "way", "id": 28613721, "center": {"lat": 49.5585674, "lon": 10.9728463}, "tags": {"barrier": "fence", "frequency": "50", "name": "Umspannwerk Kriegenbrunn", "operator": "Tennet TSO GmbH;Bayernwerk Netz GmbH;Main-Donau Netzgesellschaft mbH", "power": "substation", "ref": "KRI", "substation": "transmission", "voltage": "380000;110000;20000", "wikidata": "Q52635399"}}, {"type": "way", "id": 28720997, "center": {"lat": 49.5810708, "lon": 10.9522205}, "tags": {"barrier": "fence", "frequency": "50", "name": "Umspannwerk Kastenweiher", "name:abbreviation": "KAST", "operator": "E.ON Netz GmbH", "power": "substation", "substation": "transmission", "voltage": "110000"}}, {"type": "way", "id": 29309786, "center": {"lat": 50.9175581, "lon": 9.7460332}, "tags": {"access": "no", "addr:city": "Ludwigsau", "addr:country": "DE", "addr:postcode": "36251", "addr:street": "Gebr\u00fcder-Grimm-Stra\u00dfe", "addr:suburb": "Mecklar", "frequency": "50", "name": "Umspannwerk Mecklar 380kV", "operator": "TenneT TSO", "operator:wikidata": "Q1662830", "power": "substation", "substation": "transmission", "voltage": "380000"}}, {"type": "way", "id": 30037714, "center": {"lat": 50.152164, "lon": 11.0882835}, "tags": {"access": "no", "barrier": "fence", "frequency": "50", "name": "Umspannwerk Oberwallenstadt", "name:abbreviation": "OBWA", "operator": "Bayernwerk AG", "power": "substation", "substation": "transmission", "voltage": "110000"}}, {"type": "way", "id": 30083806, "center": {"lat": 49.4194119, "lon": 11.0082515}, "tags": {"barrier": "fence", "frequency": "50", "power": "substation", "substation": "transmission", "voltage": "110000"}}, {"type": "way", "id": 30610594, "center": {"lat": 49.5542322, "lon": 10.8792729}, "tags": {"access": "no", "barrier": "fence", "frequency": "50", "landuse": "industrial", "name": "Umspannwerk Burgstall", "name:abbreviation": "BURS", "power": "substation", "substation": "transmission", "voltage": "110000"}}, {"type": "way", "id": 31512238, "center": {"lat": 49.9008201, "lon": 11.8736893}, "tags": {"frequency": "50", "name": "Immenreuth", "name:abbreviation": "IMMR", "power": "substation", "substation": "transmission", "voltage": "110000"}}, {"type": "way", "id": 31653753, "center": {"lat": 49.5783891, "lon": 9.9445673}, "tags": {"barrier": "fence", "frequency": "50", "name": "Umspannwerk Stalldorf", "operator": "TransnetBW GmbH", "power": "substation", "substation": "transmission", "voltage": "380000;110000", "wikidata": "Q52637302"}}, {"type": "way", "id": 32031177, "center": {"lat": 49.8111526, "lon": 9.0080725}, "tags": {"frequency": "50", "name": "e-netz S\u00fcdhessen", "not:operator:wikidata": "Q15806976", "power": "substation", "substation": "transmission", "voltage": "110000"}}, {"type": "way", "id": 34105558, "center": {"lat": 50.9992218, "lon": 11.1197853}, "tags": {"access": "no", "addr:city": "Erfurt", "addr:country": "DE", "addr:housenumber": "50", "addr:postcode": "99098", "addr:street": "Erfurter Allee", "addr:suburb": "Vieselbach", "barrier": "fence", "frequency": "50", "name": "Umspannwerk Vieselbach", "operator": "Th\u00fcringer Energienetze TEN", "phone": "+49 1802 696961", "power": "substation", "substation": "transmission", "surveillance": "yes", "voltage": "110000"}}, {"type": "way", "id": 34544428, "center": {"lat": 50.5204293, "lon": 11.143021}, "tags": {"area": "yes", "barrier": "fence", "name": "Umspannwerk Neuhaus am Rennweg", "operator": "Th\u00fcringer Energienetze", "power": "substation", "ref": "NeR", "start_date": "2005-06", "substation": "transmission", "voltage": "110000"}}, {"type": "way", "id": 37492609, "center": {"lat": 49.4692598, "lon": 11.222992}, "tags": {"barrier": "fence", "name": "Umspannwerk R\u00f6thenbach", "name:abbreviation": "RBH", "operator": "N-ERGIE Netz", "operator:wikidata": "Q124370254", "power": "substation", "substation": "transmission", "voltage": "110000"}}, {"type": "way", "id": 37901297, "center": {"lat": 51.1106731, "lon": 10.6272471}, "tags": {"access": "no", "barrier": "fence", "location": "outdoor", "name": "Langensalza", "operator": "Th\u00fcringer_Energienetze", "power": "substation", "ref": "Lan", "substation": "transmission", "voltage": "110000"}}, {"type": "way", "id": 37920796, "center": {"lat": 49.5120968, "lon": 11.3021186}, "tags": {"access": "no", "barrier": "fence", "name": "Umspannwerk Lauf-Ost", "name:abbreviation": "LAU/O", "operator": "N-ERGIE", "operator:wikidata": "Q1705813", "power": "substation", "substation": "transmission", "voltage": "110000"}}, {"type": "way", "id": 39167745, "center": {"lat": 50.3187019, "lon": 11.9572455}, "tags": {"access": "no", "barrier": "fence", "name": "Schaltwerk Hof", "name:abbreviation": "HOF", "power": "substation", "substation": "transmission", "voltage": "110000"}}, {"type": "way", "id": 39470823, "center": {"lat": 50.3741541, "lon": 10.6385362}, "tags": {"access": "no", "barrier": "fence", "frequency": "50", "location": "outdoor", "name": "Simmershausen", "power": "substation", "substation": "transmission", "voltage": "110000;10000"}}, {"type": "way", "id": 40349602, "center": {"lat": 50.978046, "lon": 11.0499523}, "tags": {"access": "no", "barrier": "fence", "frequency": "50", "location": "indoor", "name": "Erfurt/Iderhoffstra\u00dfe", "operator": "SWE Erfurt Netz", "operator:wikidata": "Q124476895", "power": "substation", "substation": "transmission", "voltage": "110000"}}, {"type": "way", "id": 40532850, "center": {"lat": 49.4950974, "lon": 10.4052539}, "tags": {"access": "no", "barrier": "fence", "fixme": "name,operator", "frequency": "50", "power": "substation", "substation": "transmission", "voltage": "110000"}}, {"type": "way", "id": 40821008, "center": {"lat": 49.3067264, "lon": 10.4446983}, "tags": {"barrier": "fence", "frequency": "50", "name": "Umspannwerk Leutershausen", "power": "substation", "substation": "transmission", "voltage": "110000"}}, {"type": "way", "id": 42213146, "center": {"lat": 49.2477593, "lon": 10.6209753}, "tags": {"access": "no", "barrier": "fence", "name": "Umspannwerk Winterschneidbach", "name:abbreviation": "WINT", "operator": "N-ergie", "power": "substation", "ref": "WINT", "substation": "transmission", "voltage": "110000"}}, {"type": "way", "id": 42372159, "center": {"lat": 50.0602301, "lon": 8.9894807}, "tags": {"frequency": "50", "name": "Umspannwerk Dettingen", "operator": "Amprion", "operator:wikidata": "Q477318", "operator:wikipedia": "de:Amprion", "power": "substation", "substation": "transmission", "voltage": "380000;110000"}}, {"type": "way", "id": 42410916, "center": {"lat": 50.0825734, "lon": 8.9588986}, "tags": {"frequency": "50", "name": "Gro\u00dfkrotzenburg", "operator": "TenneT TSO", "operator:wikidata": "Q1662830", "power": "substation", "substation": "transmission", "voltage": "380000;220000", "wikidata": "Q53131216"}}, {"type": "way", "id": 42411962, "center": {"lat": 50.0858254, "lon": 8.9537419}, "tags": {"frequency": "50", "name": "Kraftwerkseinspeisung Staudinger", "operator": "TenneT TSO", "operator:wikidata": "Q1662830", "power": "substation", "substation": "transmission", "type": "multipolygon", "voltage": "220000;110000"}}, {"type": "way", "id": 43217067, "center": {"lat": 50.0574795, "lon": 8.9855419}, "tags": {"frequency": "50", "name": "Kahl", "operator": "RWE", "operator:wikidata": "Q138133", "power": "substation", "substation": "transmission", "voltage": "110000"}}, {"type": "way", "id": 47215085, "center": {"lat": 49.2482555, "lon": 11.105872}, "tags": {"barrier": "fence", "frequency": "50", "landuse": "industrial", "location": "outdoor", "name": "Umspannwerk Roth", "operator": "N-ERGIE", "operator:wikidata": "Q1705813", "power": "substation", "substation": "transmission", "voltage": "110000"}}, {"type": "way", "id": 47800489, "center": {"lat": 50.0622948, "lon": 10.9513518}, "tags": {"access": "no", "barrier": "fence", "frequency": "50", "location": "outdoor", "name": "Ebensfeld", "name:abbreviation": "EBFE", "operator": "E.ON Netz GmbH", "power": "substation", "ref": "EBFE", "substation": "transmission", "voltage": "110000"}}, {"type": "way", "id": 49809955, "center": {"lat": 49.3998315, "lon": 11.1192412}, "tags": {"barrier": "fence", "name": "Umspannwerk Zollhaus", "name:abbreviation": "ZHS", "operator": "N-ERGIE Netz", "operator:wikidata": "Q124370254", "power": "substation", "substation": "transmission", "voltage": "110000;20000"}}, {"type": "way", "id": 53820093, "center": {"lat": 49.2915054, "lon": 10.6266595}, "tags": {"access": "private", "barrier": "fence", "name": "Umspannwerk Kaltengreuth (Schalthaus Ansbach Ost)", "operator": "Stadtwerke Ansbach", "operator:wikidata": "Q2328414", "power": "substation", "substation": "transmission", "voltage": "110000"}}, {"type": "way", "id": 55069713, "center": {"lat": 49.9685495, "lon": 9.0898659}, "tags": {"addr:city": "Aschaffenburg", "addr:housenumber": "32", "addr:postcode": "63741", "addr:street": "Germanenstra\u00dfe", "frequency": "50", "name": "Umspannwerk Aschaffenburg", "note": "old address: Limesstra\u00dfe 31;220Kv durch 380kV Schaltanlage ersetzt", "operator": "TenneT TSO GmbH;Bayernwerk Netz GmbH", "power": "substation", "ref": "AS", "substation": "transmission", "voltage": "380000;110000", "wikidata": "Q52679891"}}, {"type": "way", "id": 60731288, "center": {"lat": 49.9846542, "lon": 9.1178041}, "tags": {"frequency": "50", "name": "Umspannwerk", "operator": "RWE", "operator:wikidata": "Q138133", "power": "substation", "substation": "transmission", "voltage": "110000"}}, {"type": "way", "id": 60924289, "center": {"lat": 49.9613925, "lon": 11.5962344}, "tags": {"barrier": "fence", "designation": "BAG", "name": "Umspannwerk Bayreuth Nord", "name:abbreviation": "BTN", "operator": "E.ON Netz GmbH", "power": "substation", "source": "survey", "substation": "transmission", "voltage": "110000"}}, {"type": "way", "id": 67550965, "center": {"lat": 49.3943604, "lon": 11.5992493}, "tags": {"access": "no", "barrier": "fence", "frequency": "50", "name": "Umspannwerk Lauterhofen", "name:abbreviation": "LAUT", "operator": "E.ON Netz GmbH", "power": "substation", "substation": "transmission", "voltage": "110000"}}, {"type": "way", "id": 69728137, "center": {"lat": 49.4710556, "lon": 11.0786214}, "tags": {"addr:city": "N\u00fcrnberg", "addr:country": "DE", "addr:housenumber": "20", "addr:postcode": "90408", "addr:street": "Horneckerweg", "barrier": "fence", "name": "Umspannwerk Horneckerweg", "name:abbreviation": "HOR", "power": "substation", "substation": "transmission", "voltage": "110000"}}, {"type": "way", "id": 92051810, "center": {"lat": 49.3016293, "lon": 10.7414332}, "tags": {"barrier": "fence", "landuse": "industrial", "name": "Umspannwerk Petersaurach", "power": "substation", "substation": "transmission", "voltage": "110000"}}, {"type": "way", "id": 92483554, "center": {"lat": 49.3556396, "lon": 10.7565441}, "tags": {"barrier": "fence", "name": "Umspannanlage Ketteldorf", "operator": "N-ERGIE Netz GmbH", "power": "substation", "substation": "transmission", "voltage": "110000"}}, {"type": "way", "id": 93305248, "center": {"lat": 50.1637707, "lon": 10.1164595}, "tags": {"frequency": "50", "location": "outdoor", "name": "Eltingshausen", "name:abbreviation": "EHS", "note": "ehemals Schaltanlage Eltingshausen; jetzt steht ein 110kV-Trafo auf dem Gel\u00e4nde", "operator": "E.ON Netz GmbH", "power": "substation", "substation": "transmission", "voltage": "110000"}}, {"type": "way", "id": 93341407, "center": {"lat": 50.1835333, "lon": 11.8108017}, "tags": {"frequency": "50", "name": "Umspannwerk Mechlenreuth", "note": "220-kV-System stillgelegt, Trafo und Freileitung geerdet, Schaltanlage gro\u00dfteils r\u00fcckgebaut", "operator": "TenneT TSO", "operator:wikidata": "Q1662830", "power": "substation", "ref": "Mh", "substation": "transmission", "voltage": "380000"}}, {"type": "way", "id": 93645073, "center": {"lat": 49.728282, "lon": 10.6151147}, "tags": {"barrier": "fence", "name": "Umspannwerk Niederndorf", "name:abbreviation": "NIDO", "power": "substation", "substation": "transmission", "voltage": "110000"}}, {"type": "way", "id": 102781323, "center": {"lat": 51.0197542, "lon": 10.6303988}, "tags": {"area": "yes", "location": "outdoor", "power": "substation", "substation": "transmission"}}, {"type": "way", "id": 104249284, "center": {"lat": 50.2672232, "lon": 11.355047}, "tags": {"barrier": "fence", "frequency": "50", "location": "outdoor", "name": "Friesen", "name:abbreviation": "FRIE", "power": "substation", "substation": "transmission", "voltage": "110000;20000"}}, {"type": "way", "id": 105802359, "center": {"lat": 49.7150989, "lon": 9.2320898}, "tags": {"name": "Umspannwerk Gro\u00dfheubach", "name:abbreviation": "GHB", "operator": "E.ON Netz GmbH", "power": "substation", "substation": "transmission", "voltage": "110000"}}, {"type": "way", "id": 108797675, "center": {"lat": 49.9812295, "lon": 10.187931}, "tags": {"barrier": "fence", "name": "Grafenrheinfeld", "power": "substation", "ref": "GR", "substation": "transmission", "voltage": "380000"}}, {"type": "way", "id": 114406893, "center": {"lat": 49.4598347, "lon": 8.9959751}, "tags": {"location": "outdoor", "name": "Umspannwerk Eberbach", "operator": "Netze BW", "operator:wikidata": "Q16854888", "operator:wikipedia": "de:Netze BW", "power": "substation", "source:geometry": "HiRes aerial imagery", "substation": "transmission", "voltage": "110000"}}, {"type": "way", "id": 120678988, "center": {"lat": 49.2395338, "lon": 9.1327131}, "tags": {"barrier": "fence", "frequency": "50", "landuse": "industrial", "name": "Station Wimpfen", "operator": "RWE", "operator:wikidata": "Q138133", "power": "substation", "substation": "transmission", "voltage": "110000"}}, {"type": "way", "id": 128277645, "center": {"lat": 50.534273, "lon": 11.6460233}, "tags": {"access": "no", "frequency": "50", "name": "Umspannwerk Remptendorf", "operator": "50Hertz Transmission", "operator:wikidata": "Q241331", "power": "substation", "ref": "Re", "substation": "transmission", "voltage": "380000", "wikidata": "Q27062166", "wikipedia": "de:Reichssammelschiene"}}, {"type": "way", "id": 132918280, "center": {"lat": 49.8329846, "lon": 10.9607565}, "tags": {"barrier": "fence", "name": "Umspannwerk Strullendorf", "name:abbreviation": "STRU", "operator": "Bayernwerk", "operator:wikidata": "Q1273383", "operator:wikipedia": "de:Bayernwerk", "power": "substation", "substation": "transmission", "voltage": "110000"}}, {"type": "way", "id": 133164641, "center": {"lat": 49.5263709, "lon": 10.1851055}, "tags": {"barrier": "fence", "name": "Umspannwerk Wallmersbach", "power": "substation", "substation": "transmission", "voltage": "110000"}}, {"type": "way", "id": 134148054, "center": {"lat": 50.1883127, "lon": 10.8300126}, "tags": {"barrier": "fence", "frequency": "50", "location": "outdoor", "name": "Umspannwerk Se\u00dflach", "name:abbreviation": "SELA", "operator": "E.ON Netz GmbH", "power": "substation", "ref": "SELA", "substation": "transmission", "voltage": "110000"}}, {"type": "way", "id": 137247100, "center": {"lat": 50.4393395, "lon": 11.763352}, "tags": {"access": "no", "barrier": "fence", "fixme": "name,operator", "frequency": "50", "power": "substation", "substation": "transmission", "voltage": "110000"}}, {"type": "way", "id": 137247102, "center": {"lat": 50.7021023, "lon": 11.920059}, "tags": {"addr:city": "Auma-Weidatal", "addr:country": "DE", "addr:postcode": "07955", "addr:street": "W\u00f6hlsdorfer Stra\u00dfe", "addr:suburb": "Auma", "frequency": "50", "location": "outdoor", "name": "Umspannwerk Auma", "operator": "Th\u00fcringer Energienetze", "power": "substation", "ref": "Au", "substation": "transmission", "voltage": "110000"}}, {"type": "way", "id": 137276391, "center": {"lat": 49.4732002, "lon": 11.1028168}, "tags": {"building": "yes", "location": "indoor", "name": "Umspannwerk Herrnh\u00fctte", "name:abbreviation": "HHT", "operator": "N-ERGIE Netz", "operator:wikidata": "Q124370254", "power": "substation", "substation": "transmission", "voltage": "110000"}}, {"type": "way", "id": 137475556, "center": {"lat": 50.5305519, "lon": 11.2306044}, "tags": {"barrier": "fence", "frequency": "50", "name": "Umspannwerk Taubenbach", "operator": "Th\u00fcringer Energienetze", "power": "substation", "ref": "Tau", "substation": "transmission", "voltage": "110000"}}, {"type": "way", "id": 143265281, "center": {"lat": 49.4489621, "lon": 11.0620654}, "tags": {"frequency": "50", "location": "indoor", "name": "Umspannwerk Am Pl\u00e4rrer", "operator": "N-ERGIE Netz", "operator:wikidata": "Q124370254", "operator:wikipedia": "de:N-ERGIE", "power": "substation", "substation": "transmission", "voltage": "110000;20000"}}, {"type": "way", "id": 143854536, "center": {"lat": 49.232679, "lon": 9.6947415}, "tags": {"access": "no", "barrier": "fence", "frequency": "50", "name": "Umspannwerk Kupferzell", "operator": "TransnetBW", "operator:wikidata": "Q1672772", "operator:wikipedia": "de:TransnetBW", "power": "substation", "substation": "transmission", "voltage": "380000;110000", "wikidata": "Q55188751"}}, {"type": "way", "id": 143882655, "center": {"lat": 50.9985188, "lon": 11.1233478}, "tags": {"access": "no", "addr:city": "Erfurt", "addr:country": "DE", "addr:housenumber": "50", "addr:postcode": "99098", "addr:street": "Erfurter Allee", "addr:suburb": "Vieselbach", "alt_name": "50 Hertz GmbH, Regionalzentrum S\u00fcd-West", "barrier": "fence", "frequency": "50", "name": "Umspannwerk Vieselbach", "operator": "50Hertz Transmission", "operator:wikidata": "Q241331", "phone": "+49 36203 70200", "power": "substation", "substation": "transmission", "surveillance": "yes", "voltage": "380000"}}, {"type": "way", "id": 143903369, "center": {"lat": 49.2946716, "lon": 9.0919634}, "tags": {"barrier": "fence", "frequency": "50", "name": "Umspannwerk H\u00fcffenhardt", "operator": "TransnetBW;Netze BW", "operator:wikidata": "Q1672772;Q16854888", "operator:wikipedia": "de:TransnetBW;de:Netze BW", "power": "substation", "substation": "transmission", "voltage": "380000;220000;110000", "wikidata": "Q53164420"}}, {"type": "way", "id": 143945490, "center": {"lat": 49.3596826, "lon": 10.836791}, "tags": {"barrier": "fence", "name": "Umspannanlage M\u00fcncherlbach-Solarpark", "power": "substation", "substation": "transmission", "voltage": "110000"}}, {"type": "way", "id": 145002769, "center": {"lat": 49.590248, "lon": 9.446934}, "tags": {"frequency": "50", "name": "Umspannwerk H\u00f6pfingen", "operator": "TransnetBW;Netze BW", "operator:wikidata": "Q1672772;Q16854888", "operator:wikipedia": "de:TransnetBW;de:Netze BW", "power": "substation", "substation": "transmission", "voltage": "380000;110000", "wikidata": "Q53163880"}}, {"type": "way", "id": 146878067, "center": {"lat": 49.3714464, "lon": 9.1512081}, "tags": {"barrier": "fence", "name": "Umspannwerk Mosbach", "operator": "Netze BW", "operator:wikidata": "Q16854888", "operator:wikipedia": "de:Netze BW", "power": "substation", "substation": "transmission", "voltage": "110000"}}, {"type": "way", "id": 148211527, "center": {"lat": 50.9301367, "lon": 11.4706656}, "tags": {"frequency": "50", "name": "Gro\u00dfschwabhausen", "operator": "50Hertz;Th\u00fcringer Energienetze", "power": "substation", "substation": "transmission", "voltage": "380000"}}, {"type": "way", "id": 148446247, "center": {"lat": 50.5288076, "lon": 9.7740004}, "tags": {"frequency": "50", "name": "Dipperz", "operator": "Tennet", "power": "substation", "substation": "transmission", "voltage": "380000;110000", "wikidata": "Q52846257"}}, {"type": "way", "id": 149256409, "center": {"lat": 50.5734236, "lon": 10.991345}, "tags": {"access": "no", "addr:city": "Gro\u00dfbreitenbach", "addr:country": "DE", "addr:postcode": "98701", "addr:street": "Am Umspannwerk", "addr:suburb": "Altenfeld", "frequency": "50", "location": "outdoor", "name": "Umspannwerk Altenfeld", "operator": "50Hertz Transmission", "operator:wikidata": "Q241331", "operator:wikipedia": "de:50Hertz Transmission", "power": "substation", "ref": "Atf", "substation": "transmission", "voltage": "380000"}}, {"type": "way", "id": 153916333, "center": {"lat": 49.3545747, "lon": 9.2165414}, "tags": {"addr:city": "Billigheim", "addr:country": "DE", "addr:housenumber": "10", "addr:postcode": "74842", "addr:street": "Dallauer Stra\u00dfe", "power": "substation", "substation": "transmission"}}, {"type": "way", "id": 154070452, "center": {"lat": 50.0522278, "lon": 9.5818417}, "tags": {"access": "no", "barrier": "fence", "frequency": "16.7", "name": "Schaltwerk Langenprozelten", "operator": "DB Energie GmbH", "power": "substation", "railway:ref": "INLP", "substation": "transmission", "voltage": "110000"}}, {"type": "way", "id": 154418450, "center": {"lat": 51.0013198, "lon": 10.3854883}, "tags": {"access": "no", "addr:city": "H\u00f6rselberg-Hainich", "addr:postcode": "99820", "addr:street": "\u00dcber dem Flinzh\u00f6ck", "addr:suburb": "Gro\u00dfenlupnitz", "frequency": "50", "name": "Umspannwerk Eisenach", "operator": "Th\u00fcringer Energienetze", "power": "substation", "ref": "Ei", "substation": "transmission", "voltage": "110000"}}, {"type": "way", "id": 154538013, "center": {"lat": 50.4804229, "lon": 11.2983296}, "tags": {"barrier": "fence", "frequency": "50", "location": "outdoor", "name": "Tettau", "name:abbreviation": "TETT", "operator": "E.ON Netz GmbH", "power": "substation", "ref": "TETT", "substation": "transmission", "voltage": "110000"}}, {"type": "way", "id": 155904140, "center": {"lat": 50.2096889, "lon": 11.7714443}, "tags": {"barrier": "fence", "frequency": "50", "name": "Umspannwerk M\u00fcnchberg 110kV", "operator": "Bayernwerk Netz", "operator:wikidata": "Q107477739", "operator:wikipedia": "de:Bayernwerk", "power": "substation", "ref": "MUEN", "substation": "transmission", "voltage": "110000"}}, {"type": "way", "id": 156673636, "center": {"lat": 51.0614449, "lon": 9.2594708}, "tags": {"access": "no", "name": "Borken 380kV", "operator": "TenneT TSO", "operator:wikidata": "Q1662830", "power": "substation", "substation": "transmission", "voltage": "380000", "wikidata": "Q52692791"}}, {"type": "way", "id": 159326655, "center": {"lat": 49.3634213, "lon": 9.0761227}, "tags": {"frequency": "50", "note": "Kraftwerk Obrigheim", "power": "substation", "substation": "transmission", "voltage": "220000;110000"}}, {"type": "way", "id": 159921569, "center": {"lat": 49.2373971, "lon": 10.4785675}, "tags": {"barrier": "fence", "name": "Schaltanlage Herrieden", "power": "substation", "substation": "transmission", "voltage": "110000"}}, {"type": "way", "id": 160533153, "center": {"lat": 49.5674138, "lon": 8.9537873}, "tags": {"frequency": "50", "name": "Beerfelden", "power": "substation", "source:name": "Geonames.org", "substation": "transmission", "voltage": "220000;110000", "wikidata": "Q52682360"}}, {"type": "way", "id": 161082119, "center": {"lat": 49.4493691, "lon": 11.0809758}, "tags": {"building": "yes", "name": "Umspannwerk Bauhof", "name:abbreviation": "BAUH", "operator": "N-ERGIE Netz", "operator:wikidata": "Q124370254", "operator:wikipedia": "de:N-ERGIE", "power": "substation", "source": "http://www.n-ergie.de/N-ERGIE/pressemitteilung_2010-07-22-trafo-bauhof-5673.html", "substation": "transmission", "voltage": "110000"}}, {"type": "way", "id": 164447535, "center": {"lat": 50.8437009, "lon": 10.9697093}, "tags": {"access": "no", "barrier": "fence", "location": "outdoor", "name": "Arnstadt", "operator": "Th\u00fcringer Energienetze", "power": "substation", "substation": "transmission", "voltage": "110000"}}, {"type": "way", "id": 173942747, "center": {"lat": 50.4307197, "lon": 10.750225}, "tags": {"barrier": "fence", "location": "outdoor", "name": "Hildburghausen", "operator": "Th\u00fcringer Energienetze", "power": "substation", "substation": "transmission", "voltage": "110000;20000"}}, {"type": "way", "id": 175192442, "center": {"lat": 50.9120863, "lon": 10.5615474}, "tags": {"barrier": "fence", "frequency": "50", "location": "outdoor", "power": "substation", "substation": "transmission", "voltage": "110000"}}, {"type": "way", "id": 194899595, "center": {"lat": 49.9696293, "lon": 9.0780366}, "tags": {"barrier": "fence", "power": "substation", "substation": "transmission", "voltage": "110000"}}, {"type": "way", "id": 276717456, "center": {"lat": 49.3857651, "lon": 11.0615493}, "tags": {"barrier": "fence", "name": "Wiener Stra\u00dfe", "operator": "N-ERGIE Netz", "operator:wikidata": "Q124370254", "power": "substation", "substation": "transmission", "voltage": "110000"}}, {"type": "way", "id": 366269599, "center": {"lat": 49.3805167, "lon": 8.99536}, "tags": {"addr:city": "Schwarzach", "addr:country": "DE", "addr:housenumber": "4", "addr:postcode": "74869", "addr:street": "Asbacher Weg", "addr:suburb": "Oberschwarzach", "building": "yes", "location": "indoor", "power": "substation", "substation": "transmission"}}, {"type": "way", "id": 395796416, "center": {"lat": 50.4945336, "lon": 11.8654876}, "tags": {"building": "yes", "power": "substation", "substation": "transmission"}}, {"type": "way", "id": 499165542, "center": {"lat": 49.982118, "lon": 10.1508608}, "tags": {"barrier": "fence", "frequency": "50", "location": "outdoor", "name": "Umspannwerk Bergrheinfeld/West", "operator": "Tennet", "power": "substation", "substation": "transmission", "voltage": "380000"}}, {"type": "way", "id": 589264578, "center": {"lat": 50.9693161, "lon": 10.4978512}, "tags": {"barrier": "fence", "name": "Ebenheim", "power": "substation", "substation": "transmission", "voltage": "110000"}}, {"type": "way", "id": 779323479, "center": {"lat": 49.2924437, "lon": 11.3680924}, "tags": {"barrier": "fence", "name": "Umspannwerk Heng", "operator": "Bayernwerk Netz", "operator:wikidata": "Q107477739", "power": "substation", "ref": "HENG", "substation": "transmission", "voltage": "110000"}}, {"type": "way", "id": 829960361, "center": {"lat": 50.5895245, "lon": 10.7157632}, "tags": {"barrier": "fence", "frequency": "50", "location": "outdoor", "name": "Umspannwerk Suhl Friedberg", "operator": "Th\u00fcringer Energienetze", "operator:short": "TEN", "operator:wikidata": "Q124371330", "power": "substation", "ref": "Sl", "substation": "transmission", "surface": "grass", "voltage": "110000"}}, {"type": "way", "id": 939522336, "center": {"lat": 49.302018, "lon": 9.3434722}, "tags": {"barrier": "fence", "power": "substation", "substation": "transmission", "voltage": "110000"}}, {"type": "way", "id": 947801636, "center": {"lat": 51.0003527, "lon": 11.1217251}, "tags": {"access": "no", "addr:city": "Erfurt", "addr:country": "DE", "addr:housenumber": "50", "addr:postcode": "99098", "addr:street": "Erfurter Allee", "addr:suburb": "Vieselbach", "alt_name": "50 Hertz GmbH, Regionalzentrum S\u00fcd-West", "barrier": "fence", "frequency": "50", "name": "Umspannwerk Vieselbach", "operator": "50Hertz Transmission", "operator:wikidata": "Q241331", "operator:wikipedia": "de:50Hertz Transmission", "phone": "+49 36203 70200", "power": "substation", "substation": "transmission", "surveillance": "yes", "voltage": "220000"}}, {"type": "way", "id": 948042829, "center": {"lat": 50.9306857, "lon": 11.4700654}, "tags": {"frequency": "50", "name": "Gro\u00dfschwabhausen", "operator": "50Hertz;Th\u00fcringer Energienetze", "power": "substation", "substation": "transmission", "voltage": "110000"}}, {"type": "way", "id": 948048726, "center": {"lat": 50.5739717, "lon": 10.9889175}, "tags": {"access": "no", "addr:city": "Gro\u00dfbreitenbach", "addr:country": "DE", "addr:postcode": "98701", "addr:street": "Am Umspannwerk", "addr:suburb": "Altenfeld", "frequency": "50", "location": "outdoor", "name": "Umspannwerk Altenfeld", "operator": "Th\u00fcringer Energienetze", "power": "substation", "ref": "Atf", "substation": "transmission", "voltage": "110000"}}, {"type": "way", "id": 948341123, "center": {"lat": 51.0021503, "lon": 10.3863507}, "tags": {"access": "no", "addr:city": "H\u00f6rselberg-Hainich", "addr:postcode": "99820", "addr:street": "\u00dcber dem Flinzh\u00f6ck", "addr:suburb": "Gro\u00dfenlupnitz", "frequency": "50", "name": "Umspannwerk Eisenach", "operator": "50Hertz Transmission", "operator:wikidata": "Q241331", "power": "substation", "ref": "Ei", "substation": "transmission", "voltage": "380000"}}, {"type": "way", "id": 1017412295, "center": {"lat": 49.4423889, "lon": 10.9546316}, "tags": {"operator": "Stadtwerke Zirndorf", "power": "substation", "substation": "transmission"}}, {"type": "way", "id": 1086825107, "center": {"lat": 50.5359314, "lon": 11.645364}, "tags": {"access": "no", "area": "yes", "frequency": "50", "name": "Umspannwerk Remptendorf", "operator": "50Hertz Transmission", "operator:wikidata": "Q241331", "power": "substation", "ref": "Re", "substation": "transmission", "voltage": "220000", "wikidata": "Q27062166", "wikipedia": "de:Reichssammelschiene"}}, {"type": "way", "id": 1086825108, "center": {"lat": 50.5350083, "lon": 11.6476709}, "tags": {"access": "no", "area": "yes", "frequency": "50", "name": "Umspannwerk Remptendorf", "operator": "Th\u00fcringer Energienetze", "power": "substation", "ref": "Re", "substation": "transmission", "voltage": "110000"}}, {"type": "way", "id": 1088964665, "center": {"lat": 50.1623529, "lon": 11.1949096}, "tags": {"frequency": "50", "name": "Umspannwerk Redwitz", "operator": "Bayernwerk", "operator:wikidata": "Q1273383", "power": "substation", "ref": "Red", "substation": "transmission", "voltage": "110000", "wikidata": "Q58194098"}}, {"type": "way", "id": 1089325572, "center": {"lat": 49.9801588, "lon": 11.1053457}, "tags": {"frequency": "50", "location": "outdoor", "name": "Umspannwerk W\u00fcrgau", "operator": "Bayernwerk Netz", "operator:wikidata": "Q107477739", "power": "substation", "ref": "Wg", "substation": "transmission", "voltage": "110000"}}, {"type": "way", "id": 1197481252, "center": {"lat": 49.416792, "lon": 10.2428528}, "tags": {"access": "no", "barrier": "fence", "frequency": "50", "name": "Umspannwerk Hartershofen", "operator": "N-ERGIE", "power": "substation", "substation": "transmission", "voltage": "110000"}}, {"type": "way", "id": 1223814949, "center": {"lat": 51.0922965, "lon": 10.7263994}, "tags": {"building": "service", "power": "substation", "substation": "transmission"}}, {"type": "way", "id": 1242455558, "center": {"lat": 49.7752814, "lon": 9.8700292}, "tags": {"building": "yes", "operator": "MFN", "power": "substation", "substation": "transmission"}}, {"type": "way", "id": 1267939888, "center": {"lat": 49.9114452, "lon": 9.6165446}, "tags": {"barrier": "fence", "fixme": "Details und Anbindung an die Freileitungen", "power": "substation", "substation": "transmission"}}, {"type": "way", "id": 1292129324, "center": {"lat": 50.0354957, "lon": 9.226234}, "tags": {"building": "transformer", "operator": "Elektrizit\u00e4tswerk Goldbach-H\u00f6sbach GmbH & Co. KG", "power": "substation", "substation": "transmission", "voltage": "20000;400"}}, {"type": "way", "id": 1308805917, "center": {"lat": 49.6017157, "lon": 8.9350497}, "tags": {"frequency": "50", "power": "substation", "substation": "transmission", "surface": "grass", "voltage": "110000"}}, {"type": "way", "id": 1328753687, "center": {"lat": 49.7822672, "lon": 9.9220971}, "tags": {"building": "yes", "operator": "Mainfranken-Netze GmbH", "power": "substation", "substation": "transmission"}}, {"type": "way", "id": 1376566577, "center": {"lat": 50.9047657, "lon": 10.0622453}, "tags": {"building": "service", "power": "substation", "substation": "transmission"}}, {"type": "way", "id": 1376867310, "center": {"lat": 50.9161768, "lon": 10.0421515}, "tags": {"building": "service", "operator": "Th\u00fcringer Energienetze", "operator:wikidata": "Q124371330", "power": "substation", "ref": "Dippach 04", "substation": "transmission"}}, {"type": "way", "id": 1465630139, "center": {"lat": 49.5496301, "lon": 9.4407997}, "tags": {"barrier": "fence", "fixme": "Wei\u00df nicht ganz, ob das so stimmt. Es fehlt z.B. die Spannung, mit der der Strom von den Windr\u00e4dern ankommt", "location": "outdoor", "name": "Umspannwerk Altheimer Grund", "operator": "Netze BW", "operator:wikidata": "Q16854888", "operator:wikipedia": "de:Netze BW", "power": "substation", "substation": "transmission"}}, {"type": "way", "id": 1476924286, "center": {"lat": 50.6382376, "lon": 9.3972751}, "tags": {"building": "yes", "operator": "Stadtwerke Lauterbach", "power": "substation", "substation": "transmission"}}, {"type": "relation", "id": 1651245, "center": {"lat": 50.0287912, "lon": 10.1966238}, "tags": {"location": "outdoor", "name": "Schweinfurt", "operator": "TenneT TSO GmbH;Bayernwerk Netz GmbH", "power": "substation", "substation": "transmission", "type": "multipolygon", "voltage": "110000"}}, {"type": "relation", "id": 17148024, "center": {"lat": 50.0858254, "lon": 8.9537419}, "tags": {"frequency": "50", "name": "Kraftwerkseinspeisung Staudinger", "operator": "TenneT TSO", "operator:wikidata": "Q1662830", "power": "substation", "substation": "transmission", "type": "multipolygon", "voltage": "220000;110000"}}, {"type": "relation", "id": 18398028, "center": {"lat": 49.4955851, "lon": 10.9749766}, "tags": {"barrier": "fence", "name": "Umspannwerk Vacher Stra\u00dfe", "name:abbreviation": "VA", "power": "substation", "substation": "transmission", "type": "multipolygon", "voltage": "110000"}}]