[{"type": "way", "id": 4917486, "center": {"lat": 50.0112099, "lon": 9.0590615}, "tags": {"landuse": "industrial", "name": "Kleinostheim-Mitte"}}, {"type": "way", "id": 4991025, "center": {"lat": 49.3564475, "lon": 11.0257762}, "tags": {"landuse": "industrial"}}, {"type": "way", "id": 5031873, "center": {"lat": 49.3597821, "lon": 11.0370167}, "tags": {"landuse": "industrial"}}, {"type": "way", "id": 5031896, "center": {"lat": 49.3324189, "lon": 11.0457071}, "tags": {"landuse": "industrial"}}, {"type": "way", "id": 5031924, "center": {"lat": 49.3306995, "lon": 11.0490962}, "tags": {"landuse": "industrial"}}, {"type": "way", "id": 8062841, "center": {"lat": 49.5447013, "lon": 11.3338339}, "tags": {"addr:city": "Neunkirchen a. Sand", "addr:country": "DE", "addr:housenumber": "2", "addr:postcode": "91233", "addr:street": "Wolfsh\u00f6he", "email": "info@wolfshoehe.de", "landuse": "industrial", "name": "Wolfsh\u00f6her Tonwerke", "phone": "+49 9153 9262-0", "website": "https://wolfsh\u00f6he.de/"}}, {"type": "way", "id": 10646591, "center": {"lat": 49.4889035, "lon": 11.102369}, "tags": {"TMC:cid_58:tabcd_1:Class": "Area", "TMC:cid_58:tabcd_1:LCLversion": "9.00", "TMC:cid_58:tabcd_1:LocationCode": "5527", "landuse": "industrial", "source": "yahoo"}}, {"type": "way", "id": 11140212, "center": {"lat": 49.270533, "lon": 11.4563063}, "tags": {"landuse": "industrial", "name": "Industriegebiet S\u00fcd"}}, {"type": "way", "id": 13949903, "center": {"lat": 49.2766081, "lon": 9.1576458}, "tags": {"landuse": "industrial"}}, {"type": "way", "id": 14838544, "center": {"lat": 50.2732439, "lon": 9.127224}, "tags": {"landuse": "industrial", "name": "Exide Technologies"}}, {"type": "way", "id": 16127086, "center": {"lat": 49.6495418, "lon": 9.8996285}, "tags": {"landuse": "industrial"}}, {"type": "way", "id": 16134546, "center": {"lat": 49.6530817, "lon": 9.9557907}, "tags": {"landuse": "industrial", "source": "Bing"}}, {"type": "way", "id": 18363127, "center": {"lat": 50.695931, "lon": 10.9403662}, "tags": {"landuse": "industrial", "name": "Am Vogelherd"}}, {"type": "way", "id": 19747126, "center": {"lat": 49.2611175, "lon": 11.4471854}, "tags": {"industrial": "automotive_parts", "landuse": "industrial", "name": "Aptiv Services Deutschland GmbH", "old_name": "Delphi Automotive", "source": "DOP_LVA_BY_01"}}, {"type": "way", "id": 20654554, "center": {"lat": 50.0555135, "lon": 9.4882123}, "tags": {"landuse": "industrial", "postal_code": "97833"}}, {"type": "way", "id": 21104284, "center": {"lat": 49.6383388, "lon": 9.8675552}, "tags": {"landuse": "industrial"}}, {"type": "way", "id": 21104285, "center": {"lat": 49.6370698, "lon": 9.879964}, "tags": {"landuse": "industrial"}}, {"type": "way", "id": 22130163, "center": {"lat": 49.7646672, "lon": 9.961284}, "tags": {"landuse": "industrial", "name": "Transportbeton Beuschlein"}}, {"type": "way", "id": 22144584, "center": {"lat": 49.7722217, "lon": 9.933255}, "tags": {"addr:city": "W\u00fcrzburg", "addr:housenumber": "21", "addr:postcode": "97082", "addr:street": "Mergentheimer Stra\u00dfe", "landuse": "industrial", "man_made": "water_works", "name": "Wasserwerk Mergentheimer Stra\u00dfe", "source": "Selbst recherchiert", "wikidata": "Q41313943"}}, {"type": "way", "id": 22717968, "center": {"lat": 50.4837596, "lon": 9.7258992}, "tags": {"landuse": "industrial", "name": "Industriepark Rh\u00f6n"}}, {"type": "way", "id": 22929289, "center": {"lat": 49.7899943, "lon": 9.525898}, "tags": {"landuse": "industrial", "name": "Industriegebiet Wiebelbach"}}, {"type": "way", "id": 23073499, "center": {"lat": 49.5127992, "lon": 11.111789}, "tags": {"fenced": "yes", "landuse": "industrial", "name": "Hahnenbalz"}}, {"type": "way", "id": 23074884, "center": {"lat": 49.2492842, "lon": 11.3922332}, "tags": {"landuse": "industrial"}}, {"type": "way", "id": 23075593, "center": {"lat": 49.2558235, "lon": 11.4872134}, "tags": {"landuse": "industrial", "name": "Klebl GmbH"}}, {"type": "way", "id": 23075979, "center": {"lat": 49.3128842, "lon": 11.4998536}, "tags": {"landuse": "industrial", "name": "An der Muschel", "source": "DOP_LVA_BY_01"}}, {"type": "way", "id": 23121935, "center": {"lat": 49.4157323, "lon": 11.4719565}, "tags": {"landuse": "industrial", "source": "Yahoo"}}, {"type": "way", "id": 23123401, "center": {"lat": 49.9494204, "lon": 9.1681999}, "tags": {"landuse": "industrial", "name": "Gewerbegebiet Ebersbacher Stra\u00dfe"}}, {"type": "way", "id": 23140204, "center": {"lat": 49.4629759, "lon": 11.1592749}, "tags": {"landuse": "industrial"}}, {"type": "way", "id": 23251163, "center": {"lat": 49.966679, "lon": 9.1533185}, "tags": {"landuse": "industrial"}}, {"type": "way", "id": 23255110, "center": {"lat": 49.9630651, "lon": 9.1450717}, "tags": {"landuse": "industrial", "name": "Joyson Safety Systems", "old_name": "Takata Petri AG"}}, {"type": "way", "id": 23255989, "center": {"lat": 49.5190123, "lon": 11.3329793}, "tags": {"landuse": "industrial", "name": "Br\u00e4unleinsberg"}}, {"type": "way", "id": 23261153, "center": {"lat": 49.9477054, "lon": 9.1000971}, "tags": {"landuse": "industrial", "name": "Industriegebiet Nilkheim"}}, {"type": "way", "id": 23262254, "center": {"lat": 49.967023, "lon": 9.1454802}, "tags": {"landuse": "industrial", "name": "St\u00e4dtischer Schlachthof"}}, {"type": "way", "id": 23280739, "center": {"lat": 49.5179447, "lon": 11.3132535}, "tags": {"landuse": "industrial", "name": "Tadano-Faun"}}, {"type": "way", "id": 23324348, "center": {"lat": 49.9662747, "lon": 9.1486602}, "tags": {"industrial": "depot", "landuse": "industrial", "name": "Stadtwerke Verkehrs GmbH"}}, {"type": "way", "id": 23380006, "center": {"lat": 50.7520981, "lon": 10.1577511}, "tags": {"landuse": "industrial"}}, {"type": "way", "id": 23415653, "center": {"lat": 49.4206762, "lon": 11.0085004}, "tags": {"landuse": "industrial", "name": "Kraftwerk Franken I", "operator": "E.ON Kraftwerke", "plant:method": "combustion", "plant:output:electricity": "823 MW", "plant:source": "gas;oil", "power": "plant", "ref:BNA": "BNA0744;BNA0745", "ref:EU:ENTSOE_EIC": "11WD2GEBE000177K", "source": "https://www.gem.wiki/Franken_1_power_station", "wikidata": "Q685443", "wikipedia": "de:Kraftwerk Franken I"}}, {"type": "way", "id": 23445802, "center": {"lat": 49.975941, "lon": 9.0710328}, "tags": {"disused:man_made": "works", "disused:product": "paper;pulp", "landuse": "industrial", "name": "Sappi Stockstadt GmbH", "note": "Produktion zum Ende 2023 eingestellt, Werk wird 04/24 g\u00e4nzlich geschlossen"}}, {"type": "way", "id": 23483276, "center": {"lat": 49.503825, "lon": 11.4942633}, "tags": {"TMC:cid_58:tabcd_1:Class": "Area", "TMC:cid_58:tabcd_1:LCLversion": "9.00", "TMC:cid_58:tabcd_1:LocationCode": "2168", "landuse": "industrial"}}, {"type": "way", "id": 23545855, "center": {"lat": 50.0218111, "lon": 9.0418455}, "tags": {"landuse": "industrial", "name": "Kleinostheim-West"}}, {"type": "way", "id": 23553816, "center": {"lat": 49.346087, "lon": 11.0612051}, "tags": {"landuse": "industrial"}}, {"type": "way", "id": 23558489, "center": {"lat": 49.6280002, "lon": 10.8397954}, "tags": {"landuse": "industrial", "layer": "-2"}}, {"type": "way", "id": 23575465, "center": {"lat": 49.7820068, "lon": 9.1718638}, "tags": {"landuse": "industrial"}}, {"type": "way", "id": 23673815, "center": {"lat": 49.640792, "lon": 10.8478749}, "tags": {"landuse": "industrial"}}, {"type": "way", "id": 23683129, "center": {"lat": 49.9212428, "lon": 10.8836435}, "tags": {"landuse": "industrial"}}, {"type": "way", "id": 23781978, "center": {"lat": 49.9571147, "lon": 10.8819682}, "tags": {"landuse": "industrial"}}, {"type": "way", "id": 23853675, "center": {"lat": 49.9893634, "lon": 9.1792164}, "tags": {"landuse": "industrial"}}, {"type": "way", "id": 23875249, "center": {"lat": 49.9933483, "lon": 9.1697257}, "tags": {"landuse": "industrial"}}, {"type": "way", "id": 23882708, "center": {"lat": 49.8637384, "lon": 10.0295739}, "tags": {"landuse": "industrial", "man_made": "wastewater_plant", "name": "Kl\u00e4ranlage"}}, {"type": "way", "id": 23901107, "center": {"lat": 49.6912613, "lon": 9.9451515}, "tags": {"landuse": "industrial", "name": "Gewerbegebiet Klingholz II"}}, {"type": "way", "id": 23947492, "center": {"lat": 50.4867569, "lon": 9.6794512}, "tags": {"landuse": "industrial", "name": "Im Eichenzeller Weg"}}, {"type": "way", "id": 24000483, "center": {"lat": 49.7936816, "lon": 10.0336212}, "tags": {"landuse": "industrial"}}, {"type": "way", "id": 24003191, "center": {"lat": 50.2713644, "lon": 10.9513354}, "tags": {"landuse": "industrial", "name": "KAPP NILES"}}, {"type": "way", "id": 24003192, "center": {"lat": 50.2697813, "lon": 10.953834}, "tags": {"landuse": "industrial", "name": "Gaudlitz"}}, {"type": "way", "id": 24061013, "center": {"lat": 49.4974054, "lon": 10.9898334}, "tags": {"addr:city": "F\u00fcrth", "addr:country": "DE", "addr:housenumber": "63", "addr:postcode": "90765", "addr:street": "Kronacher Stra\u00dfe", "industrial": "metal_processing", "landuse": "industrial", "man_made": "works", "name": "RWS", "product": "ammunition", "website": "https://www.rws-technology.com/", "wikidata": "Q117191287", "wikipedia": "de:RWS (Unternehmen)"}}, {"type": "way", "id": 24256062, "center": {"lat": 49.6250477, "lon": 10.8243165}, "tags": {"landuse": "industrial", "layer": "-2"}}, {"type": "way", "id": 24269975, "center": {"lat": 49.6234302, "lon": 10.8154545}, "tags": {"addr:city": "Weisendorf", "addr:housenumber": "16", "addr:postcode": "91085", "addr:street": "Sauerheimer Weg", "landuse": "industrial", "name": "DSW Elektronik GmbH"}}, {"type": "way", "id": 24282635, "center": {"lat": 49.7319128, "lon": 9.9654169}, "tags": {"landuse": "industrial", "name": "Gewerbegebiet Heuchelhof-Rottenbauer", "note": "Umri\u00df nicht ganz klar. Quellen nur https://www.wuerzburg.de/unternehmen/gewerbegebiete/index.html und W\u00fcrzburgWiki"}}, {"type": "way", "id": 24340326, "center": {"lat": 49.9868891, "lon": 9.1590355}, "tags": {"landuse": "industrial"}}, {"type": "way", "id": 24340368, "center": {"lat": 49.9908288, "lon": 9.1791383}, "tags": {"landuse": "industrial", "source": "bing"}}, {"type": "way", "id": 24498013, "center": {"lat": 50.720664, "lon": 9.0081239}, "tags": {"industrial": "factory", "landuse": "industrial", "layer": "-3", "name": "KAMAX GmbH & Co. KG"}}, {"type": "way", "id": 24570632, "center": {"lat": 49.9244286, "lon": 10.8668134}, "tags": {"landuse": "industrial"}}, {"type": "way", "id": 24606631, "center": {"lat": 49.755021, "lon": 10.0453077}, "tags": {"landuse": "industrial"}}, {"type": "way", "id": 24614748, "center": {"lat": 49.7621913, "lon": 9.3264166}, "tags": {"landuse": "industrial"}}, {"type": "way", "id": 24641392, "center": {"lat": 49.4481243, "lon": 11.2951009}, "tags": {"amenity": "recycling", "landuse": "industrial", "name": "Recyclinghof", "recycling_type": "centre"}}, {"type": "way", "id": 24641924, "center": {"lat": 49.457989, "lon": 11.2815378}, "tags": {"landuse": "industrial"}}, {"type": "way", "id": 24660133, "center": {"lat": 49.442077, "lon": 11.2850793}, "tags": {"description": "S\u00e4gewerk", "landuse": "industrial", "man_made": "works"}}, {"type": "way", "id": 24691668, "center": {"lat": 49.4553389, "lon": 11.1202637}, "tags": {"landuse": "industrial"}}, {"type": "way", "id": 24705761, "center": {"lat": 49.3784785, "lon": 10.8432546}, "tags": {"frequency": "50", "landuse": "industrial", "location": "outdoor", "name": "Umspannwerk Raitersaich", "operator": "TenneT TSO GmbH;E.ON Netz GmbH", "power": "substation", "ref": "RAI", "substation": "transmission", "voltage": "380000;220000;110000", "wikidata": "Q52637084"}}, {"type": "way", "id": 24710858, "center": {"lat": 50.8931612, "lon": 11.5942882}, "tags": {"landuse": "industrial"}}, {"type": "way", "id": 24711331, "center": {"lat": 49.9834716, "lon": 10.1861209}, "tags": {"access": "private", "barrier": "fence", "description": "\u00e4u\u00dferer Zaun", "disused:power": "plant", "end_date": "2015-06-27", "landuse": "industrial", "name": "Kernkraftwerk Grafenrheinfeld", "operator": "E.ON", "plant:output:electricity": "1345 MW", "ref": "KKG", "start_date": "1982-06-17", "wikidata": "Q656869", "wikipedia": "de:Kernkraftwerk Grafenrheinfeld"}}, {"type": "way", "id": 24716374, "center": {"lat": 49.6643315, "lon": 9.866081}, "tags": {"landuse": "industrial"}}, {"type": "way", "id": 24727406, "center": {"lat": 49.4274709, "lon": 10.9429736}, "tags": {"barrier": "fence", "frequency": "50", "landuse": "industrial", "name": "Umspannwerk Zirndorf", "name:abbreviation": "ZID", "power": "substation", "substation": "transmission", "voltage": "110000"}}, {"type": "way", "id": 24739362, "center": {"lat": 49.7673667, "lon": 9.9602641}, "tags": {"landuse": "industrial"}}, {"type": "way", "id": 24748852, "center": {"lat": 49.9974657, "lon": 9.5742654}, "tags": {"landuse": "industrial", "name": "Bosch Rexroth Werk 1 und 3", "source": "landsat"}}, {"type": "way", "id": 24755306, "center": {"lat": 49.9737394, "lon": 8.9531141}, "tags": {"addr:city": "Babenhausen", "addr:country": "DE", "addr:housenumber": "1", "addr:postcode": "64832", "addr:street": "VDO-Stra\u00dfe", "landuse": "industrial", "name": "AUMOVIO Germany GmbH", "phone": "+49 6073 12-0", "smoking": "no", "smoking:outside": "separated"}}, {"type": "way", "id": 24755478, "center": {"lat": 49.9390627, "lon": 11.5059689}, "tags": {"landuse": "industrial", "name": "Forst", "source": "geodaten.bayern.de"}}, {"type": "way", "id": 24762442, "center": {"lat": 50.2501069, "lon": 10.9670345}, "tags": {"landuse": "industrial", "name": "Brose - Werk I"}}, {"type": "way", "id": 24765434, "center": {"lat": 49.9303717, "lon": 11.4906296}, "tags": {"landuse": "industrial"}}, {"type": "way", "id": 24768579, "center": {"lat": 50.0975892, "lon": 8.9362959}, "tags": {"landuse": "industrial", "source": "landsat"}}, {"type": "way", "id": 24790030, "center": {"lat": 49.7485663, "lon": 10.7145885}, "tags": {"landuse": "industrial"}}, {"type": "way", "id": 24790702, "center": {"lat": 49.936707, "lon": 9.0343288}, "tags": {"fixme": "Grenze sollte \u00fcberpr\u00fcft werden, da in Weitererschlie\u00dfung begriffen (z. B. im Bereich Baumschulweg)", "landuse": "industrial", "name": "Gewerbegebiet Alte H\u00e4ge"}}, {"type": "way", "id": 24803137, "center": {"lat": 49.7451178, "lon": 10.6434908}, "tags": {"landuse": "industrial", "man_made": "wastewater_plant", "name": "Kl\u00e4ranlage Schl\u00fcsselfeld", "note": "Belebungsanlage mit gemeinsamer Schlammstabilisierung"}}, {"type": "way", "id": 24803171, "center": {"lat": 49.963285, "lon": 9.1364991}, "tags": {"landuse": "industrial", "name": "Hafen"}}, {"type": "way", "id": 24803306, "center": {"lat": 49.9839791, "lon": 9.0945756}, "tags": {"landuse": "industrial"}}, {"type": "way", "id": 24813551, "center": {"lat": 49.3697213, "lon": 10.9718376}, "tags": {"landuse": "industrial", "man_made": "wastewater_plant", "name": "Kl\u00e4ranlage Regelsbach"}}, {"type": "way", "id": 24837592, "center": {"lat": 49.9152756, "lon": 9.1250963}, "tags": {"landuse": "industrial"}}, {"type": "way", "id": 24837666, "center": {"lat": 49.9202791, "lon": 9.1959076}, "tags": {"landuse": "industrial", "man_made": "works", "name": "Sodenthaler Mineralbrunnen"}}, {"type": "way", "id": 24838296, "center": {"lat": 49.9321938, "lon": 9.071086}, "tags": {"landuse": "industrial"}}, {"type": "way", "id": 24841904, "center": {"lat": 49.6197395, "lon": 10.8349915}, "tags": {"landuse": "industrial", "name": "Biomasse Heizwerk Gerbersleithe"}}, {"type": "way", "id": 24842133, "center": {"lat": 49.6256031, "lon": 10.84068}, "tags": {"landuse": "industrial", "name": "Bauhof (alte Kl\u00e4ranlage)"}}, {"type": "way", "id": 24894720, "center": {"lat": 49.5060189, "lon": 11.0074208}, "tags": {"barrier": "fence", "landuse": "industrial"}}, {"type": "way", "id": 24894732, "center": {"lat": 49.5057324, "lon": 11.0107765}, "tags": {"landuse": "industrial"}}, {"type": "way", "id": 24895291, "center": {"lat": 49.5053334, "lon": 11.015121}, "tags": {"landuse": "industrial"}}, {"type": "way", "id": 24922495, "center": {"lat": 50.2256147, "lon": 10.98337}, "tags": {"landuse": "industrial"}}, {"type": "way", "id": 24927892, "center": {"lat": 50.9888296, "lon": 10.9362467}, "tags": {"landuse": "industrial", "name": "Gewerbepark Alach"}}, {"type": "way", "id": 24930613, "center": {"lat": 50.5320221, "lon": 9.6757881}, "tags": {"landuse": "industrial"}}, {"type": "way", "id": 24949912, "center": {"lat": 49.39782, "lon": 10.7973184}, "tags": {"landuse": "industrial"}}, {"type": "way", "id": 24986052, "center": {"lat": 49.2639427, "lon": 10.6221494}, "tags": {"barrier": "fence", "landuse": "industrial", "name": "Robert Bosch GmbH"}}, {"type": "way", "id": 25006036, "center": {"lat": 49.3702669, "lon": 11.1989185}, "tags": {"barrier": "fence", "landuse": "industrial", "man_made": "wastewater_plant", "name": "Kl\u00e4ranlage Feucht"}}, {"type": "way", "id": 25021333, "center": {"lat": 50.0678468, "lon": 8.9666659}, "tags": {"landuse": "industrial"}}, {"type": "way", "id": 25056723, "center": {"lat": 50.0740621, "lon": 8.9291622}, "tags": {"landuse": "industrial"}}, {"type": "way", "id": 25131416, "center": {"lat": 49.6682219, "lon": 10.7152119}, "tags": {"landuse": "industrial", "name": "H & L Baustoffwerke GmbH"}}, {"type": "way", "id": 25154336, "center": {"lat": 49.9696756, "lon": 10.2817868}, "tags": {"generator:method": "photovoltaic", "generator:output:electricity": "yes", "generator:source": "solar", "generator:type": "solar_photovoltaic_panel", "landuse": "industrial", "name": "M\u00f6\u00f6rhof", "power": "generator"}}, {"type": "way", "id": 25212438, "center": {"lat": 49.9841349, "lon": 9.2565667}, "tags": {"landuse": "industrial"}}, {"type": "way", "id": 25221714, "center": {"lat": 50.6729189, "lon": 10.981357}, "tags": {"landuse": "industrial", "name": "In den Folgen II"}}, {"type": "way", "id": 25221715, "center": {"lat": 50.6750141, "lon": 10.9726691}, "tags": {"landuse": "industrial", "name": "In den Folgen I"}}, {"type": "way", "id": 25221716, "center": {"lat": 50.6711564, "lon": 10.9850684}, "tags": {"landuse": "industrial", "name": "In den Folgen III"}}, {"type": "way", "id": 25256748, "center": {"lat": 49.5008356, "lon": 11.5546238}, "tags": {"addr:housenumber": "3", "addr:street": "Hunaser Stra\u00dfe", "landuse": "industrial", "man_made": "works", "name": "Sebald Zement", "website": "https://www.sebald-zement.de/"}}, {"type": "way", "id": 25319071, "center": {"lat": 50.1630919, "lon": 9.0834083}, "tags": {"landuse": "industrial"}}, {"type": "way", "id": 25365349, "center": {"lat": 49.3563604, "lon": 10.9053863}, "tags": {"landuse": "industrial", "man_made": "wastewater_plant", "name": "Kl\u00e4ranlage Schwallbachtal", "operator": "Markt Ro\u00dftal"}}, {"type": "way", "id": 25410333, "center": {"lat": 50.8964963, "lon": 10.764975}, "tags": {"landuse": "industrial", "name": "Gewerbegebiet G\u00fcnthersleben-Wechmar"}}, {"type": "way", "id": 25422510, "center": {"lat": 49.9598047, "lon": 9.0770272}, "tags": {"landuse": "industrial"}}, {"type": "way", "id": 25438275, "center": {"lat": 49.2669692, "lon": 11.0071055}, "tags": {"landuse": "industrial"}}, {"type": "way", "id": 25468995, "center": {"lat": 50.9531879, "lon": 11.2201784}, "tags": {"landuse": "industrial"}}, {"type": "way", "id": 25469118, "center": {"lat": 50.9611974, "lon": 11.259596}, "tags": {"landuse": "industrial", "source": "Bing"}}, {"type": "way", "id": 25469173, "center": {"lat": 50.9723197, "lon": 11.1955269}, "tags": {"landuse": "industrial"}}, {"type": "way", "id": 25489016, "center": {"lat": 50.8131399, "lon": 9.0053919}, "tags": {"landuse": "industrial"}}, {"type": "way", "id": 25495382, "center": {"lat": 50.0466999, "lon": 8.987794}, "tags": {"landuse": "industrial", "name": "Innovationspark Karlstein"}}, {"type": "way", "id": 25526397, "center": {"lat": 50.3159573, "lon": 9.2242826}, "tags": {"landuse": "industrial", "note": "nur grob gesch\u00e4tzt !!!"}}, {"type": "way", "id": 25552675, "center": {"lat": 51.0661798, "lon": 9.9278929}, "tags": {"landuse": "industrial"}}, {"type": "way", "id": 25571180, "center": {"lat": 50.6755242, "lon": 10.9589218}, "tags": {"landuse": "industrial", "name": "Oberweg"}}, {"type": "way", "id": 25585065, "center": {"lat": 49.4335869, "lon": 10.240818}, "tags": {"barrier": "fence", "landuse": "industrial", "name": "Etex"}}, {"type": "way", "id": 25613503, "center": {"lat": 50.053201, "lon": 8.9658481}, "tags": {"landuse": "industrial"}}, {"type": "way", "id": 25624852, "center": {"lat": 50.8240896, "lon": 9.0405374}, "tags": {"landuse": "industrial", "name": "Bauhof II"}}, {"type": "way", "id": 25635545, "center": {"lat": 49.7608994, "lon": 11.5511041}, "tags": {"landuse": "industrial", "name": "KSB", "website": "https://www.ksb.de/", "wikidata": "Q113472132"}}, {"type": "way", "id": 25639564, "center": {"lat": 49.713054, "lon": 11.0734637}, "tags": {"landuse": "industrial"}}, {"type": "way", "id": 25639587, "center": {"lat": 49.7061873, "lon": 11.056928}, "tags": {"landuse": "industrial", "name": "Gewerbegebiet An der L\u00e4nde"}}, {"type": "way", "id": 25639589, "center": {"lat": 49.7006288, "lon": 11.0566245}, "tags": {"landuse": "industrial"}}, {"type": "way", "id": 25693906, "center": {"lat": 49.606181, "lon": 11.3304436}, "tags": {"landuse": "industrial", "name": "Bauhof"}}, {"type": "way", "id": 25836441, "center": {"lat": 49.6041578, "lon": 9.719995}, "tags": {"landuse": "industrial", "name": "Industriepark ob der Tauber", "wikidata": "Q61982965"}}, {"type": "way", "id": 25953624, "center": {"lat": 50.8095032, "lon": 10.2957922}, "tags": {"landuse": "industrial", "name": "Am Eisberg"}}, {"type": "way", "id": 25997223, "center": {"lat": 50.0848872, "lon": 8.9639067}, "tags": {"landuse": "industrial", "name": "Gewerbegebiet West"}}, {"type": "way", "id": 26030585, "center": {"lat": 49.6087046, "lon": 11.2549647}, "tags": {"landuse": "industrial"}}, {"type": "way", "id": 26120528, "center": {"lat": 49.2921213, "lon": 10.6075751}, "tags": {"landuse": "industrial", "name": "Gewerbegebiet Eyb Ost"}}, {"type": "way", "id": 26171962, "center": {"lat": 49.3359205, "lon": 11.113673}, "tags": {"landuse": "industrial"}}, {"type": "way", "id": 26210518, "center": {"lat": 49.5231589, "lon": 11.3374087}, "tags": {"landuse": "industrial"}}, {"type": "way", "id": 26281764, "center": {"lat": 49.4967886, "lon": 11.3127555}, "tags": {"landuse": "industrial"}}, {"type": "way", "id": 26281869, "center": {"lat": 49.4492415, "lon": 11.4047998}, "tags": {"landuse": "industrial"}}, {"type": "way", "id": 26302994, "center": {"lat": 49.743773, "lon": 11.5103436}, "tags": {"landuse": "industrial", "name": "Gewerbegebiet Pegnitz-West"}}, {"type": "way", "id": 26313434, "center": {"lat": 50.0403034, "lon": 10.2122899}, "tags": {"addr:city": "Schweinfurt", "addr:country": "DE", "addr:housenumber": "30", "addr:postcode": "97421", "addr:street": "Georg-Sch\u00e4fer-Stra\u00dfe", "landuse": "industrial", "name": "Schaeffler Werk Schweinfurt (FAG)", "source": "Bing", "wikipedia": "de:Schaeffler-Gruppe"}}, {"type": "way", "id": 26313671, "center": {"lat": 50.5728092, "lon": 10.49328}, "tags": {"landuse": "industrial", "name": "Gewerbegebiet Rotes Tal"}}, {"type": "way", "id": 26313814, "center": {"lat": 50.6416595, "lon": 10.6947896}, "tags": {"landuse": "industrial", "name": "Gewerbe- und Industriegebiet Ost"}}, {"type": "way", "id": 26313885, "center": {"lat": 50.6536582, "lon": 10.6060802}, "tags": {"landuse": "industrial", "man_made": "works"}}, {"type": "way", "id": 26333248, "center": {"lat": 49.3791468, "lon": 10.2448865}, "tags": {"landuse": "industrial"}}, {"type": "way", "id": 26409325, "center": {"lat": 49.8324592, "lon": 9.9021977}, "tags": {"landuse": "industrial"}}, {"type": "way", "id": 26435273, "center": {"lat": 50.3239725, "lon": 9.1812141}, "tags": {"landuse": "industrial", "name": "R\u00f6der Zeltsysteme und Service AG"}}, {"type": "way", "id": 26435311, "center": {"lat": 50.3338211, "lon": 9.1975876}, "tags": {"landuse": "industrial", "name": "R\u00f6der Zeltsysteme und Service AG", "website": "https://www.roder.com/"}}, {"type": "way", "id": 26436016, "center": {"lat": 50.8009845, "lon": 10.2205635}, "tags": {"landuse": "industrial"}}, {"type": "way", "id": 26448969, "center": {"lat": 49.5002259, "lon": 10.7919712}, "tags": {"description": "Ziegelei", "landuse": "industrial", "name": "Gewerbegebiet Nord 7"}}, {"type": "way", "id": 26456590, "center": {"lat": 50.8228433, "lon": 8.937695}, "tags": {"landuse": "industrial", "man_made": "works", "name": "Marburger Tapetenfabrik"}}, {"type": "way", "id": 26463002, "center": {"lat": 49.4007514, "lon": 11.9743671}, "tags": {"landuse": "industrial", "name": "Schafhof II"}}, {"type": "way", "id": 26472414, "center": {"lat": 50.9190497, "lon": 11.570068}, "tags": {"landuse": "industrial", "name": "Gewerbepark Tatzendpromenade"}}, {"type": "way", "id": 26473198, "center": {"lat": 50.825628, "lon": 8.9338274}, "tags": {"landuse": "industrial"}}, {"type": "way", "id": 26473199, "center": {"lat": 50.8246179, "lon": 8.9284014}, "tags": {"landuse": "industrial"}}, {"type": "way", "id": 26524394, "center": {"lat": 49.3464827, "lon": 9.0438521}, "tags": {"landuse": "industrial", "name": "Technologiepark Neckar-Odenwald", "wikidata": "Q105271418"}}, {"type": "way", "id": 26563723, "center": {"lat": 49.4956582, "lon": 10.9103759}, "tags": {"description": "Spielwaren, toys", "landuse": "industrial", "name": "Fa. Bruder"}}, {"type": "way", "id": 26581508, "center": {"lat": 49.6960373, "lon": 11.0708764}, "tags": {"landuse": "industrial", "name": "Sand\u00e4cker"}}, {"type": "way", "id": 26615098, "center": {"lat": 49.4825234, "lon": 11.8803568}, "tags": {"landuse": "industrial", "name": "Industriegebiet Amberg-Nord", "source": "DOP_LVA_BY_01"}}, {"type": "way", "id": 26640012, "center": {"lat": 49.4808577, "lon": 11.1243968}, "tags": {"TMC:cid_58:tabcd_1:Class": "Area", "TMC:cid_58:tabcd_1:LCLversion": "9.00", "TMC:cid_58:tabcd_1:LocationCode": "4961", "landuse": "industrial"}}, {"type": "way", "id": 26643537, "center": {"lat": 50.719861, "lon": 10.41893}, "tags": {"landuse": "industrial", "postal_code": "98574"}}, {"type": "way", "id": 26643655, "center": {"lat": 50.7157267, "lon": 10.4562017}, "tags": {"barrier": "fence", "landuse": "industrial", "name": "Senderanlage Schmalkalden (Grasberg)", "operator": "Antennengemeinschaft Schmalkalden"}}, {"type": "way", "id": 26706842, "center": {"lat": 49.4726729, "lon": 11.3929969}, "tags": {"landuse": "industrial"}}, {"type": "way", "id": 26717853, "center": {"lat": 49.5455666, "lon": 9.7232514}, "tags": {"landuse": "industrial", "name": "Becksteiner Weg", "wikidata": "Q61990591"}}, {"type": "way", "id": 26783931, "center": {"lat": 49.2585429, "lon": 11.3126189}, "tags": {"landuse": "industrial"}}, {"type": "way", "id": 26830368, "center": {"lat": 50.558334, "lon": 10.3700024}, "tags": {"landuse": "industrial", "name": "Gewerbegebiet Meiningen-Drei\u00dfigacker", "note": "FIXME falls moeglich genauer gestalten", "source": "EsriWorldImagery"}}, {"type": "way", "id": 26830422, "center": {"lat": 50.6212185, "lon": 10.3842923}, "tags": {"landuse": "industrial", "note": "FIXME falls moeglich genauer gestalten", "source": "yahoo aerial"}}, {"type": "way", "id": 26832485, "center": {"lat": 50.0366327, "lon": 9.6516271}, "tags": {"landuse": "industrial", "name": "Betonwerk Neuendorf", "operator": "bwb Betonwerk Neuendorf GmbH & Co. KG"}}, {"type": "way", "id": 26833079, "center": {"lat": 50.0375392, "lon": 9.6439237}, "tags": {"addr:housenumber": "40", "addr:street": "Frankenstra\u00dfe", "landuse": "industrial", "name": "Seith F\u00f6rdertechnik GmbH"}}, {"type": "way", "id": 26921919, "center": {"lat": 50.5884509, "lon": 10.7107273}, "tags": {"landuse": "industrial"}}, {"type": "way", "id": 26921971, "center": {"lat": 50.5792614, "lon": 10.7030132}, "tags": {"landuse": "industrial"}}, {"type": "way", "id": 26925919, "center": {"lat": 50.2093479, "lon": 11.2981305}, "tags": {"landuse": "industrial"}}, {"type": "way", "id": 26932094, "center": {"lat": 49.6762148, "lon": 10.1523113}, "tags": {"landuse": "industrial", "name": "Gewerbegebiet \u00c4u\u00dfere Mainleite"}}, {"type": "way", "id": 26933730, "center": {"lat": 49.7200298, "lon": 9.0941787}, "tags": {"landuse": "industrial", "name": "Industriegebiet Vielbrunn"}}, {"type": "way", "id": 26959818, "center": {"lat": 49.860686, "lon": 9.8509096}, "tags": {"landuse": "industrial"}}, {"type": "way", "id": 26998822, "center": {"lat": 50.8957981, "lon": 11.5861642}, "tags": {"landuse": "industrial", "name": "Heizkraftwerk Jena-S\u00fcd", "operator": "TEAG Th\u00fcringer Energie", "plant:method": "combustion", "plant:output:electricity": "197 MW", "plant:output:hot_water": "225 MW", "plant:source": "gas;oil", "power": "plant", "start_date": "1972", "wikidata": "Q1601472", "wikipedia": "de:Heizkraftwerk Jena"}}, {"type": "way", "id": 27003022, "center": {"lat": 50.8874743, "lon": 11.5964184}, "tags": {"landuse": "industrial", "name": "Gewerbegebiet G\u00f6schwitz"}}, {"type": "way", "id": 27006476, "center": {"lat": 50.7316287, "lon": 10.8167335}, "tags": {"landuse": "industrial", "name": "Gewerbegebiet Nord"}}, {"type": "way", "id": 27006482, "center": {"lat": 50.7234568, "lon": 10.8309779}, "tags": {"landuse": "industrial", "name": "Gewerbegebiet S\u00fcd Geschwenda"}}, {"type": "way", "id": 27051003, "center": {"lat": 50.031784, "lon": 10.2086484}, "tags": {"addr:city": "Schweinfurt", "addr:country": "DE", "addr:housenumber": "62", "addr:postcode": "97424", "addr:street": "Ernst-Sachs-Stra\u00dfe", "fenced": "yes", "landuse": "industrial", "name": "ZF Friedrichshafen AG - Werk Nord", "operator": "ZF Friedrichshafen AG", "ref": "Werk Nord", "website": "https://www.zf.com/mobile/en/homepage/homepage.html", "wikipedia": "de:ZF Friedrichshafen"}}, {"type": "way", "id": 27051004, "center": {"lat": 50.0253612, "lon": 10.2263789}, "tags": {"industrial": "factory", "landuse": "industrial", "name": "ZF Friedrichshafen AG - Werk S\u00fcd", "operator": "ZF Friedrichshafen AG", "ref": "Werk S\u00fcd"}}, {"type": "way", "id": 27068670, "center": {"lat": 50.2761316, "lon": 8.9694445}, "tags": {"landuse": "industrial"}}, {"type": "way", "id": 27069701, "center": {"lat": 50.2601679, "lon": 8.9774339}, "tags": {"landuse": "industrial"}}, {"type": "way", "id": 27114657, "center": {"lat": 50.7325834, "lon": 10.46028}, "tags": {"addr:city": "Schmalkalden", "addr:country": "DE", "addr:housenumber": "49", "addr:postcode": "98574", "addr:street": "Wilhelm-K\u00fclz-Stra\u00dfe", "contact:website": "https://www.lehrmess.de", "landuse": "industrial", "man_made": "works", "name": "Lehren- und Messger\u00e4tewerk Schmalkalden", "operator": "Lehren- und Messger\u00e4tewerk Schmalkalden GmbH"}}, {"type": "way", "id": 27134307, "center": {"lat": 49.7608351, "lon": 10.2404485}, "tags": {"landuse": "industrial", "name": "Fehrer"}}, {"type": "way", "id": 27188626, "center": {"lat": 50.6042166, "lon": 10.4896098}, "tags": {"landuse": "industrial"}}, {"type": "way", "id": 27190865, "center": {"lat": 49.5519099, "lon": 10.2472646}, "tags": {"landuse": "industrial", "name": "Adidas Versand"}}, {"type": "way", "id": 27191242, "center": {"lat": 49.539716, "lon": 10.2434204}, "tags": {"landuse": "industrial", "name": "Gewerbegebiet S\u00fcd"}}, {"type": "way", "id": 27192918, "center": {"lat": 49.5538155, "lon": 10.2408057}, "tags": {"landuse": "industrial", "name": "Gewerbegebiet Nord", "source": "Bing"}}, {"type": "way", "id": 27198460, "center": {"lat": 50.1523006, "lon": 11.0809098}, "tags": {"landuse": "industrial", "name": "K+W Polsterm\u00f6bel"}}, {"type": "way", "id": 27215243, "center": {"lat": 49.644111, "lon": 10.2645031}, "tags": {"landuse": "industrial", "name": "Knauf"}}, {"type": "way", "id": 27232923, "center": {"lat": 49.5099954, "lon": 11.2934365}, "tags": {"landuse": "industrial", "name": "ABL Sursum"}}, {"type": "way", "id": 27245813, "center": {"lat": 50.9817234, "lon": 10.302044}, "tags": {"description": "(ehem.) MITEC Automotive AG Werk 2", "industrial": "factory", "landuse": "industrial"}}, {"type": "way", "id": 27257342, "center": {"lat": 50.5477236, "lon": 9.6940441}, "tags": {"description": "Ehemaliges Goodyear Dunlop Tires Germany Gel\u00e4nde", "disused:man_made": "works", "industrial": "factory", "landuse": "industrial"}}, {"type": "way", "id": 27289675, "center": {"lat": 50.6282748, "lon": 9.4593789}, "tags": {"amenity": "recycling", "landuse": "industrial", "name": "Schredderplatz", "recycling:green_waste": "yes", "recycling_type": "centre"}}, {"type": "way", "id": 27310916, "center": {"lat": 50.6061466, "lon": 10.486831}, "tags": {"landuse": "industrial"}}, {"type": "way", "id": 27310935, "center": {"lat": 50.6053443, "lon": 10.4878462}, "tags": {"created_by": "Potlatch 0.10b", "landuse": "industrial"}}, {"type": "way", "id": 27313204, "center": {"lat": 49.4372602, "lon": 11.2658945}, "tags": {"disused": "yes", "disused:man_made": "wastewater_plant", "landuse": "industrial", "note": "2009 stillgelegt", "old_name": "Kl\u00e4ranlage Brunn"}}, {"type": "way", "id": 27368363, "center": {"lat": 49.6295075, "lon": 11.252739}, "tags": {"check_date": "2025-04-20", "craft": "brewery", "landuse": "industrial", "name": "Klosterbrauerei Wei\u00dfenohe", "phone": "+49 9192 591", "website": "https://klosterbrauerei-weissenohe.de"}}, {"type": "way", "id": 27384830, "center": {"lat": 49.5683564, "lon": 11.3354275}, "tags": {"landuse": "industrial"}}, {"type": "way", "id": 27385062, "center": {"lat": 50.0356223, "lon": 10.5305092}, "tags": {"landuse": "industrial"}}, {"type": "way", "id": 27413203, "center": {"lat": 50.6442871, "lon": 10.9988115}, "tags": {"landuse": "industrial"}}, {"type": "way", "id": 27439494, "center": {"lat": 49.5457061, "lon": 9.7272926}, "tags": {"landuse": "industrial"}}, {"type": "way", "id": 27450016, "center": {"lat": 50.1058297, "lon": 10.9856928}, "tags": {"landuse": "industrial"}}, {"type": "way", "id": 27450018, "center": {"lat": 50.1051719, "lon": 10.990238}, "tags": {"industrial": "factory", "landuse": "industrial"}}, {"type": "way", "id": 27450311, "center": {"lat": 49.3262332, "lon": 11.028809}, "tags": {"landuse": "industrial", "name": "\"RIBE\" Richard Bergner"}}, {"type": "way", "id": 27488913, "center": {"lat": 50.8804729, "lon": 11.5658728}, "tags": {"landuse": "industrial", "name": "Senderanlage Jena (O\u00dfmaritz-Cospoth)"}}, {"type": "way", "id": 27523999, "center": {"lat": 49.7235497, "lon": 10.1641352}, "tags": {"landuse": "industrial"}}, {"type": "way", "id": 27554000, "center": {"lat": 49.4968792, "lon": 11.8328719}, "tags": {"landuse": "industrial", "name": "Gewerbegebiet Laubberg-S\u00fcd - Am Fischweg"}}, {"type": "way", "id": 27563555, "center": {"lat": 50.5184755, "lon": 10.4303517}, "tags": {"landuse": "industrial", "source": "yahoo aerial"}}, {"type": "way", "id": 27642408, "center": {"lat": 49.7447195, "lon": 11.179687}, "tags": {"landuse": "industrial"}}, {"type": "way", "id": 27664242, "center": {"lat": 49.7069734, "lon": 10.8243666}, "tags": {"access": "no", "barrier": "fence", "frequency": "50", "landuse": "industrial", "location": "outdoor", "name": "Umspannwerk H\u00f6chstadt an der Aisch", "name:abbreviation": "HOES", "operator": "E.ON Netz GmbH", "power": "substation", "substation": "distribution", "voltage": "110000"}}, {"type": "way", "id": 27682038, "center": {"lat": 50.2457422, "lon": 8.9962708}, "tags": {"landuse": "industrial", "name": "AMV - Messger\u00e4te GmbH", "website": "https://www.amv-germany.de/"}}, {"type": "way", "id": 27692117, "center": {"lat": 49.666606, "lon": 10.0825501}, "tags": {"contact:website": "https://www.suedzucker.de/de", "description": "R\u00fcbenzuckerfabrik", "industrial": "sugar_refinery", "landuse": "industrial", "name": "S\u00fcdzucker AG Werk Ochsenfurt", "operator": "S\u00fcdzucker AG", "product": "sugar", "source_ref": "https://www.suedzucker.de/de/unternehmen/standorte"}}, {"type": "way", "id": 27716690, "center": {"lat": 49.7212453, "lon": 8.9907706}, "tags": {"addr:city": "Bad K\u00f6nig", "addr:country": "DE", "addr:housenumber": "17", "addr:postcode": "64732", "addr:street": "Jakob-Maul-Stra\u00dfe", "addr:suburb": "Zell im Odenwald", "landuse": "industrial", "man_made": "works", "name": "Maul", "operator": "Jakob Maul GmbH", "phone": "+49 6063 5020", "type": "site", "website": "https://www.maul.de/office/de/home"}}, {"type": "way", "id": 27726409, "center": {"lat": 49.6667461, "lon": 10.1143025}, "tags": {"landuse": "industrial"}}, {"type": "way", "id": 27842036, "center": {"lat": 49.8585425, "lon": 10.8636864}, "tags": {"landuse": "industrial"}}, {"type": "way", "id": 27867889, "center": {"lat": 49.4770506, "lon": 9.8353755}, "tags": {"landuse": "industrial"}}, {"type": "way", "id": 27870966, "center": {"lat": 49.8563245, "lon": 10.8637526}, "tags": {"landuse": "industrial"}}, {"type": "way", "id": 27872725, "center": {"lat": 49.4766592, "lon": 10.8670634}, "tags": {"landuse": "industrial", "name": "Gewerbepark Am Farrnbach"}}, {"type": "way", "id": 27933416, "center": {"lat": 49.4655041, "lon": 11.1226032}, "tags": {"landuse": "industrial"}}, {"type": "way", "id": 27941661, "center": {"lat": 50.1671958, "lon": 10.9426449}, "tags": {"landuse": "industrial"}}, {"type": "way", "id": 27942620, "center": {"lat": 49.8001954, "lon": 10.2410571}, "tags": {"landuse": "industrial", "name": "Schwarzach Ost"}}, {"type": "way", "id": 27947334, "center": {"lat": 50.098795, "lon": 10.7969157}, "tags": {"landuse": "industrial", "name": "Valeo-Logistikzentrum"}}, {"type": "way", "id": 27947365, "center": {"lat": 50.1015999, "lon": 10.7933706}, "tags": {"landuse": "industrial", "name": "Valeo"}}, {"type": "way", "id": 27948597, "center": {"lat": 50.1259808, "lon": 10.8826411}, "tags": {"landuse": "industrial"}}, {"type": "way", "id": 27953975, "center": {"lat": 50.1948731, "lon": 10.9662594}, "tags": {"landuse": "industrial"}}, {"type": "way", "id": 27953987, "center": {"lat": 50.1931305, "lon": 10.9610411}, "tags": {"landuse": "industrial"}}, {"type": "way", "id": 28020598, "center": {"lat": 50.8401575, "lon": 11.594412}, "tags": {"landuse": "industrial", "note": "ehemaliges Lager NVA/Bundeswehr"}}, {"type": "way", "id": 28023032, "center": {"lat": 49.4831144, "lon": 9.900013}, "tags": {"landuse": "industrial", "name": "Aug. Laukhuff GmbH & Co. KG"}}, {"type": "way", "id": 28046704, "center": {"lat": 49.2331481, "lon": 10.9534656}, "tags": {"landuse": "industrial"}}, {"type": "way", "id": 28067347, "center": {"lat": 49.9890079, "lon": 10.8875371}, "tags": {"addr:city": "Rattelsdorf", "addr:housenumber": "181", "addr:postcode": "96179", "addr:street": "Bamberger Weg", "landuse": "industrial", "name": "Kaspar R\u00f6ckelein KG Baustoffwerk Ebing", "website": "https://www.roeckelein.de/html/unternehmen/standorte.html"}}, {"type": "way", "id": 28068125, "center": {"lat": 50.006817, "lon": 10.8883849}, "tags": {"landuse": "industrial"}}, {"type": "way", "id": 28080410, "center": {"lat": 49.270274, "lon": 11.0747948}, "tags": {"landuse": "industrial", "man_made": "wastewater_plant", "name": "Kl\u00e4ranlage Gemeinde B\u00fcchenbach"}}, {"type": "way", "id": 28090332, "center": {"lat": 49.7634353, "lon": 11.4070837}, "tags": {"landuse": "industrial"}}, {"type": "way", "id": 28104268, "center": {"lat": 49.5049047, "lon": 10.8726713}, "tags": {"landuse": "industrial", "name": "Gewerbegebiet \"Am Reitweg\""}}, {"type": "way", "id": 28107789, "center": {"lat": 49.4730739, "lon": 11.0799686}, "tags": {"TMC:cid_58:tabcd_1:Class": "Area", "TMC:cid_58:tabcd_1:LCLversion": "9.00", "TMC:cid_58:tabcd_1:LocationCode": "5447", "landuse": "industrial"}}, {"type": "way", "id": 28133586, "center": {"lat": 50.1707728, "lon": 11.2100357}, "tags": {"landuse": "industrial"}}, {"type": "way", "id": 28150267, "center": {"lat": 49.5457872, "lon": 11.0170831}, "tags": {"landuse": "industrial", "source": "yahoo"}}, {"type": "way", "id": 28180063, "center": {"lat": 49.5549439, "lon": 11.1550553}, "tags": {"landuse": "industrial"}}, {"type": "way", "id": 28192692, "center": {"lat": 50.2694356, "lon": 10.9797699}, "tags": {"landuse": "industrial", "name": "Waldrich Coburg", "wikidata": "Q2541818", "wikimedia_commons": "Category:Waldrich_Coburg"}}, {"type": "way", "id": 28224791, "center": {"lat": 49.475751, "lon": 10.8574307}, "tags": {"landuse": "industrial", "name": "Schwaderm\u00fchle West"}}, {"type": "way", "id": 28261218, "center": {"lat": 49.5364419, "lon": 10.7976639}, "tags": {"landuse": "industrial"}}, {"type": "way", "id": 28263384, "center": {"lat": 50.846028, "lon": 9.0929836}, "tags": {"landuse": "industrial"}}, {"type": "way", "id": 28267599, "center": {"lat": 50.8417619, "lon": 9.1089824}, "tags": {"landuse": "industrial"}}, {"type": "way", "id": 28269837, "center": {"lat": 50.6306834, "lon": 9.5018091}, "tags": {"landuse": "industrial", "name": "Emod Motoren GmbH", "note": "improve me"}}, {"type": "way", "id": 28343654, "center": {"lat": 49.6065207, "lon": 8.9848087}, "tags": {"landuse": "industrial", "man_made": "works"}}, {"type": "way", "id": 28346150, "center": {"lat": 50.2049422, "lon": 10.2361917}, "tags": {"landuse": "industrial", "name": "Gewerbegebiet Poppenlauer"}}, {"type": "way", "id": 28352752, "center": {"lat": 49.5403232, "lon": 11.0233677}, "tags": {"addr:city": "Erlangen", "addr:country": "DE", "addr:housenumber": "1", "addr:postcode": "91058", "addr:street": "An der Autobahn", "amenity": "road_maintenance", "email": "AM-Erlangen@autobahn.de", "landuse": "industrial", "name": "Autobahnmeisterei Erlangen", "operator": "Autobahn GmbH", "phone": "+49 911 32254 0"}}, {"type": "way", "id": 28359511, "center": {"lat": 49.8626667, "lon": 9.8518868}, "tags": {"landuse": "industrial"}}, {"type": "way", "id": 28359991, "center": {"lat": 49.3072085, "lon": 11.0731892}, "tags": {"landuse": "industrial", "man_made": "wastewater_plant"}}, {"type": "way", "id": 28371883, "center": {"lat": 49.7769548, "lon": 11.1795068}, "tags": {"landuse": "industrial", "name": "Stadtwerke Ebermannstadt"}}, {"type": "way", "id": 28397917, "center": {"lat": 50.9955723, "lon": 11.3369309}, "tags": {"landuse": "industrial"}}, {"type": "way", "id": 28421344, "center": {"lat": 50.1030535, "lon": 11.8896507}, "tags": {"landuse": "industrial", "name": "Raithel & Co. GmbH"}}, {"type": "way", "id": 28431600, "center": {"lat": 49.7609837, "lon": 10.6147786}, "tags": {"landuse": "industrial", "name": "Veit-Dennert"}}, {"type": "way", "id": 28439202, "center": {"lat": 50.1042352, "lon": 11.8844701}, "tags": {"landuse": "industrial"}}, {"type": "way", "id": 28439588, "center": {"lat": 50.0999307, "lon": 11.8911267}, "tags": {"landuse": "industrial"}}, {"type": "way", "id": 28496293, "center": {"lat": 50.2241649, "lon": 11.0451398}, "tags": {"landuse": "industrial"}}, {"type": "way", "id": 28496297, "center": {"lat": 50.2240057, "lon": 11.068287}, "tags": {"landuse": "industrial"}}, {"type": "way", "id": 28496298, "center": {"lat": 50.2293444, "lon": 11.0606912}, "tags": {"landuse": "industrial", "name": "Schumacher Wellpappe"}}, {"type": "way", "id": 28496300, "center": {"lat": 50.2261657, "lon": 11.0601858}, "tags": {"landuse": "industrial"}}, {"type": "way", "id": 28496732, "center": {"lat": 50.1967286, "lon": 10.9487812}, "tags": {"landuse": "industrial"}}, {"type": "way", "id": 28496734, "center": {"lat": 50.1949163, "lon": 10.9588861}, "tags": {"landuse": "industrial"}}, {"type": "way", "id": 28496954, "center": {"lat": 49.5007527, "lon": 11.3773312}, "tags": {"landuse": "industrial"}}, {"type": "way", "id": 28497088, "center": {"lat": 50.2245116, "lon": 10.9698085}, "tags": {"landuse": "industrial"}}, {"type": "way", "id": 28497614, "center": {"lat": 49.6405398, "lon": 9.9935754}, "tags": {"landuse": "industrial", "name": "Gewerbegebiet Acholshausen"}}, {"type": "way", "id": 28513337, "center": {"lat": 50.1278983, "lon": 11.0264523}, "tags": {"industrial": "factory", "landuse": "industrial", "name": "Maintal Polsterbetten", "website": "https://shop.maintal-betten.de/"}}, {"type": "way", "id": 28513703, "center": {"lat": 49.4980374, "lon": 11.4298159}, "tags": {"landuse": "industrial"}}, {"type": "way", "id": 28513711, "center": {"lat": 50.1294626, "lon": 11.0083671}, "tags": {"landuse": "industrial"}}, {"type": "way", "id": 28514179, "center": {"lat": 49.5269211, "lon": 11.3179551}, "tags": {"landuse": "industrial", "source": "Yahoo"}}, {"type": "way", "id": 28514182, "center": {"lat": 49.5204383, "lon": 11.3137657}, "tags": {"landuse": "industrial", "source": "Yahoo"}}, {"type": "way", "id": 28514189, "center": {"lat": 49.5217523, "lon": 11.3263894}, "tags": {"landuse": "industrial", "source": "Yahoo"}}, {"type": "way", "id": 28524961, "center": {"lat": 50.1677121, "lon": 10.2011138}, "tags": {"landuse": "industrial"}}, {"type": "way", "id": 28538222, "center": {"lat": 49.7677615, "lon": 10.5626291}, "tags": {"landuse": "industrial"}}, {"type": "way", "id": 28598689, "center": {"lat": 50.6215608, "lon": 9.4571649}, "tags": {"landuse": "industrial"}}, {"type": "way", "id": 28598690, "center": {"lat": 50.6230374, "lon": 9.4497596}, "tags": {"landuse": "industrial"}}, {"type": "way", "id": 28609675, "center": {"lat": 50.1139662, "lon": 10.7771558}, "tags": {"landuse": "industrial", "name": "Uniwell"}}, {"type": "way", "id": 28665115, "center": {"lat": 51.0025293, "lon": 11.0277293}, "tags": {"barrier": "fence", "landuse": "industrial", "name": "Malzwerk"}}, {"type": "way", "id": 28685110, "center": {"lat": 49.7987464, "lon": 9.1615375}, "tags": {"landuse": "industrial", "name": "Werft"}}, {"type": "way", "id": 28695697, "center": {"lat": 50.3024309, "lon": 10.9149042}, "tags": {"addr:city": "Meeder", "addr:country": "DE", "addr:housenumber": "7", "addr:postcode": "96484", "addr:street": "Sulzdorfer Stra\u00dfe", "contact:email": "info@milchwerke-oberfranken.com", "contact:fax": "+49 9566 929-200", "contact:phone": "+49 9566 929-0", "contact:website": "http://www.milchwerke-oberfranken.com/", "landuse": "industrial", "name": "Milchwerke Oberfranken West", "operator": "Milchwerke Oberfranken West eG"}}, {"type": "way", "id": 28700937, "center": {"lat": 50.1337109, "lon": 11.0423961}, "tags": {"landuse": "industrial"}}, {"type": "way", "id": 28700938, "center": {"lat": 50.1358489, "lon": 11.0412329}, "tags": {"landuse": "industrial"}}, {"type": "way", "id": 28716359, "center": {"lat": 50.2172968, "lon": 11.134778}, "tags": {"landuse": "industrial"}}, {"type": "way", "id": 28716360, "center": {"lat": 50.2218102, "lon": 11.1245705}, "tags": {"landuse": "industrial"}}, {"type": "way", "id": 28716514, "center": {"lat": 50.169339, "lon": 11.1093065}, "tags": {"landuse": "industrial"}}, {"type": "way", "id": 28716687, "center": {"lat": 50.1563323, "lon": 11.1184754}, "tags": {"landuse": "industrial"}}, {"type": "way", "id": 28721622, "center": {"lat": 50.1614871, "lon": 11.0642452}, "tags": {"landuse": "industrial"}}, {"type": "way", "id": 28746184, "center": {"lat": 50.3803235, "lon": 11.5092241}, "tags": {"landuse": "industrial", "name": "Adlerhaus GmbH"}}, {"type": "way", "id": 28746862, "center": {"lat": 49.2936499, "lon": 10.5912616}, "tags": {"addr:city": "Ansbach", "addr:country": "DE", "addr:housenumber": "40", "addr:postcode": "91522", "addr:street": "Naglerstra\u00dfe", "industrial": "brickyard", "landuse": "industrial", "man_made": "works", "name": "Wienerberger Ziegelindustrie GmbH Werk Ansbach"}}, {"type": "way", "id": 28746863, "center": {"lat": 49.2995961, "lon": 10.5903726}, "tags": {"landuse": "industrial", "man_made": "works", "name": "Jack Link's", "product": "snacks", "website": "https://www.jacklinks.eu"}}, {"type": "way", "id": 28754215, "center": {"lat": 49.374522, "lon": 10.1692086}, "tags": {"landuse": "industrial"}}, {"type": "way", "id": 28779535, "center": {"lat": 50.3588261, "lon": 11.5226718}, "tags": {"landuse": "industrial"}}, {"type": "way", "id": 28789362, "center": {"lat": 50.0725006, "lon": 10.9632593}, "tags": {"landuse": "industrial"}}, {"type": "way", "id": 28789413, "center": {"lat": 50.0189958, "lon": 10.9281459}, "tags": {"landuse": "industrial"}}, {"type": "way", "id": 28862819, "center": {"lat": 49.691211, "lon": 9.9307508}, "tags": {"landuse": "industrial", "name": "Gewerbegebiet"}}, {"type": "way", "id": 28866345, "center": {"lat": 49.3975011, "lon": 11.0407016}, "tags": {"landuse": "industrial"}}, {"type": "way", "id": 28872565, "center": {"lat": 50.2083424, "lon": 10.2410597}, "tags": {"landuse": "industrial", "name": "S\u00e4gewerk"}}, {"type": "way", "id": 28872928, "center": {"lat": 49.60598, "lon": 11.1361631}, "tags": {"landuse": "industrial", "name": "Gewerbegebiet Ost"}}, {"type": "way", "id": 28879348, "center": {"lat": 49.6983342, "lon": 9.8538077}, "tags": {"landuse": "industrial"}}, {"type": "way", "id": 28879349, "center": {"lat": 49.6932476, "lon": 9.8510206}, "tags": {"landuse": "industrial"}}, {"type": "way", "id": 28879350, "center": {"lat": 49.7054233, "lon": 9.8428841}, "tags": {"landuse": "industrial"}}, {"type": "way", "id": 28904213, "center": {"lat": 49.8508356, "lon": 10.0270119}, "tags": {"landuse": "industrial", "name": "Industriepark K\u00fcrnach-Nord"}}, {"type": "way", "id": 28912805, "center": {"lat": 50.1836378, "lon": 10.9577365}, "tags": {"industrial": "amo-debus_asphaltmischwerk_gro\u00dfheirath", "landuse": "industrial", "name": "Amo-Debus Asphaltmischwerk Gro\u00dfheirath"}}, {"type": "way", "id": 28925913, "center": {"lat": 49.3964649, "lon": 11.0562071}, "tags": {"TMC:cid_58:tabcd_1:Class": "Area", "TMC:cid_58:tabcd_1:LCLversion": "9.00", "TMC:cid_58:tabcd_1:LocationCode": "35238", "landuse": "industrial", "name": "G\u00fcterverkehrszentrum Hafen", "note": "Offizieller Name des Sondergebietes laut Bebauungsplan", "short_name": "GVZ"}}, {"type": "way", "id": 28927068, "center": {"lat": 49.8098646, "lon": 9.8868123}, "tags": {"landuse": "industrial", "name": "Gewerbegebiet Neuer Hafen", "note": "Umri\u00df orientiert sich eher an realer Nutzung. Offizieller Umri\u00df siehe https://www.wuerzburg.de/unternehmen/gewerbegebiete/index.html"}}, {"type": "way", "id": 28937633, "center": {"lat": 49.7802095, "lon": 10.0669756}, "tags": {"landuse": "industrial", "name": "Mainfrankenpark", "wikipedia": "de:Mainfrankenpark"}}, {"type": "way", "id": 28937825, "center": {"lat": 49.93686, "lon": 11.5803998}, "tags": {"landuse": "industrial"}}, {"type": "way", "id": 28956780, "center": {"lat": 49.2319046, "lon": 11.6675286}, "tags": {"landuse": "industrial", "source": "DOP_LVA_BY_01"}}, {"type": "way", "id": 28956782, "center": {"lat": 49.2231192, "lon": 11.6729341}, "tags": {"landuse": "industrial", "name": "Velburg S\u00fcd", "source": "DOP_LVA_BY_01"}}, {"type": "way", "id": 28961904, "center": {"lat": 49.2363753, "lon": 10.9573364}, "tags": {"landuse": "industrial"}}, {"type": "way", "id": 28986957, "center": {"lat": 49.4248841, "lon": 11.870063}, "tags": {"barrier": "fence", "landuse": "industrial", "name": "Umspannwerk Amberg", "name:abbreviation": "AM", "operator": "E.ON Netz GmbH", "power": "substation", "voltage": "110000"}}, {"type": "way", "id": 29019842, "center": {"lat": 49.4871128, "lon": 11.7739666}, "tags": {"industrial": "factory", "landuse": "industrial", "name": "Maxh\u00fctte", "old_name": "Maximiliansh\u00fctte", "wikipedia": "de:Maxh\u00fctte (Sulzbach-Rosenberg)"}}, {"type": "way", "id": 29019848, "center": {"lat": 49.4955044, "lon": 11.783059}, "tags": {"landuse": "industrial", "name": "Industriegebiet Eisenh\u00e4mmernstra\u00dfe"}}, {"type": "way", "id": 29023897, "center": {"lat": 49.7652143, "lon": 11.5523011}, "tags": {"landuse": "industrial", "name": "Kleiner Johannes"}}, {"type": "way", "id": 29032142, "center": {"lat": 49.574893, "lon": 11.6899918}, "tags": {"landuse": "industrial", "source": "DOP_LVA_BY_01"}}, {"type": "way", "id": 29032143, "center": {"lat": 49.57335, "lon": 11.6944589}, "tags": {"craft": "carpenter", "landuse": "industrial", "name": "Zimmerei Kohl", "source": "DOP_LVA_BY_01"}}, {"type": "way", "id": 29056101, "center": {"lat": 49.8800645, "lon": 11.8982825}, "tags": {"industrial": "grinding_mill", "landuse": "industrial", "name": "Schusterm\u00fchle"}}, {"type": "way", "id": 29065468, "center": {"lat": 50.3666266, "lon": 11.5064652}, "tags": {"landuse": "industrial", "name": "Spedition Leupold Logistiklager"}}, {"type": "way", "id": 29072510, "center": {"lat": 50.3805699, "lon": 11.5060261}, "tags": {"landuse": "industrial", "name": "Roth Gmbh Montagebau"}}, {"type": "way", "id": 29110557, "center": {"lat": 49.6882214, "lon": 9.9503537}, "tags": {"landuse": "industrial", "name": "Gewerbegebiet I_Park Klingholz", "website": "http://www.i-park.de/home/i-park-klingholz.html"}}, {"type": "way", "id": 29119989, "center": {"lat": 49.6929638, "lon": 10.836085}, "tags": {"landuse": "industrial", "name": "IMO"}}, {"type": "way", "id": 29138901, "center": {"lat": 49.9468979, "lon": 11.9436052}, "tags": {"landuse": "industrial", "name": "Industriegebiet", "source": "DOP_LVA_BY_01"}}, {"type": "way", "id": 29138906, "center": {"lat": 49.9560702, "lon": 11.9346621}, "tags": {"landuse": "industrial"}}, {"type": "way", "id": 29154642, "center": {"lat": 49.5315665, "lon": 11.7886242}, "tags": {"landuse": "industrial"}}, {"type": "way", "id": 29160895, "center": {"lat": 50.6794952, "lon": 9.4675202}, "tags": {"contact:email": "info@lindner-willofs.de", "contact:fax": "+49 6642 960420", "contact:phone": "+49 6642 960420", "contact:website": "https://www.lindner-willofs.de/", "image": "https://www.lindner-willofs.de/wp-content/uploads/Lindner-HKS-3.jpg", "landuse": "industrial", "name": "PWO Robert Lindner GmbH (Hauptsitz)"}}, {"type": "way", "id": 29175605, "center": {"lat": 49.8988253, "lon": 11.9390405}, "tags": {"landuse": "industrial", "name": "Asphalt Werk Markgraf"}}, {"type": "way", "id": 29181173, "center": {"lat": 49.7673857, "lon": 11.5450198}, "tags": {"barrier": "fence", "frequency": "50", "landuse": "industrial", "location": "outdoor", "name": "Umspannwerk Pegnitz", "operator": "E.ON Netz GmbH", "power": "substation", "substation": "distribution", "voltage": "110000"}}, {"type": "way", "id": 29202421, "center": {"lat": 49.9688901, "lon": 11.0254272}, "tags": {"landuse": "industrial"}}, {"type": "way", "id": 29202422, "center": {"lat": 49.9803053, "lon": 11.0477987}, "tags": {"landuse": "industrial"}}, {"type": "way", "id": 29205802, "center": {"lat": 49.9754971, "lon": 11.0268881}, "tags": {"landuse": "industrial", "name": "Milchhof Albert"}}, {"type": "way", "id": 29210849, "center": {"lat": 49.8093911, "lon": 9.888008}, "tags": {"landuse": "industrial"}}, {"type": "way", "id": 29310036, "center": {"lat": 50.9226888, "lon": 9.7790351}, "tags": {"landuse": "industrial", "name": "Gewerbepark Ludwigsau"}}, {"type": "way", "id": 29321228, "center": {"lat": 50.5934826, "lon": 9.5227114}, "tags": {"landuse": "industrial", "name": "Kalkwerke Meister", "note": "improve me"}}, {"type": "way", "id": 29328280, "center": {"lat": 49.6063246, "lon": 9.7543155}, "tags": {"landuse": "industrial"}}, {"type": "way", "id": 29395746, "center": {"lat": 49.8459058, "lon": 9.9670809}, "tags": {"landuse": "industrial", "name": "Kettelerstra\u00dfe"}}, {"type": "way", "id": 29430869, "center": {"lat": 50.0692214, "lon": 9.684724}, "tags": {"landuse": "industrial"}}, {"type": "way", "id": 29501518, "center": {"lat": 49.9976705, "lon": 9.5697623}, "tags": {"craft": "sawmill", "industrial": "sawmill", "landuse": "industrial", "name": "Mehling & Wiesmann GmbH", "phone": "+49 9352 87930"}}, {"type": "way", "id": 29571856, "center": {"lat": 49.5760234, "lon": 9.3534323}, "tags": {"landuse": "industrial"}}, {"type": "way", "id": 29595894, "center": {"lat": 49.2842392, "lon": 11.4616166}, "tags": {"addr:city": "Neumarkt in der Oberpfalz", "addr:country": "DE", "addr:housenumber": "1", "addr:postcode": "92318", "addr:street": "Amberger Stra\u00dfe", "brewery": "Neumarkter Lammsbr\u00e4u", "craft": "brewery", "email": "info@lammsbraeu.de", "landuse": "industrial", "name": "Lammsbr\u00e4u", "phone": "+49 9181 404-0", "product": "beer", "website": "https://www.lammsbraeu.de/", "wikidata": "Q1980896", "wikimedia_commons": "Category:Neumarkter Lammsbr\u00e4u", "wikipedia": "de:Neumarkter Lammsbr\u00e4u"}}, {"type": "way", "id": 29730830, "center": {"lat": 49.5694129, "lon": 11.1407757}, "tags": {"landuse": "industrial", "man_made": "wastewater_plant", "name": "Kl\u00e4rwerk Kalchreuth", "operator": "Gemeinde Kalchreuth"}}, {"type": "way", "id": 29838711, "center": {"lat": 50.1386859, "lon": 11.183917}, "tags": {"landuse": "industrial", "source": "Yahoo"}}, {"type": "way", "id": 29976450, "center": {"lat": 50.6649473, "lon": 11.3600547}, "tags": {"barrier": "fence", "fence_type": "wire", "landuse": "industrial", "man_made": "wastewater_plant", "name": "Kl\u00e4ranlage"}}, {"type": "way", "id": 29976923, "center": {"lat": 49.9143914, "lon": 11.6087191}, "tags": {"landuse": "industrial", "name": "Gewerbegebiet Wolfsbach"}}, {"type": "way", "id": 29998097, "center": {"lat": 49.9878296, "lon": 11.0487356}, "tags": {"landuse": "industrial"}}, {"type": "way", "id": 29998162, "center": {"lat": 49.963817, "lon": 11.0218866}, "tags": {"landuse": "industrial"}}, {"type": "way", "id": 29998341, "center": {"lat": 49.6765862, "lon": 10.0328365}, "tags": {"landuse": "industrial", "name": "Danone"}}, {"type": "way", "id": 30007531, "center": {"lat": 49.9579207, "lon": 11.6096834}, "tags": {"TMC:cid_58:tabcd_1:Class": "Area", "TMC:cid_58:tabcd_1:LCLversion": "9.00", "TMC:cid_58:tabcd_1:LocationCode": "31251", "landuse": "industrial", "name": "TenneT TSO GmbH"}}, {"type": "way", "id": 30007616, "center": {"lat": 49.9681815, "lon": 11.6078214}, "tags": {"landuse": "industrial", "name": "Gewerbegebiet Bindlacher Stra\u00dfe"}}, {"type": "way", "id": 30007617, "center": {"lat": 49.9621964, "lon": 11.5984423}, "tags": {"TMC:cid_58:tabcd_1:Class": "Area", "TMC:cid_58:tabcd_1:LCLversion": "9.00", "TMC:cid_58:tabcd_1:LocationCode": "5461", "landuse": "industrial", "name": "Gewerbegebiet St. Georgen-West"}}, {"type": "way", "id": 30007786, "center": {"lat": 49.9467931, "lon": 11.5661945}, "tags": {"landuse": "industrial"}}, {"type": "way", "id": 30022578, "center": {"lat": 50.0585916, "lon": 9.6767885}, "tags": {"landuse": "industrial"}}, {"type": "way", "id": 30026793, "center": {"lat": 50.8199863, "lon": 9.0080105}, "tags": {"landuse": "industrial", "name": "Fritz Winter Eisengie\u00dferei GmbH & Co. KG"}}, {"type": "way", "id": 30027053, "center": {"lat": 50.8214818, "lon": 9.0101033}, "tags": {"addr:city": "Stadtallendorf", "addr:country": "DE", "addr:housenumber": "20", "addr:postcode": "35260", "addr:street": "Schulstra\u00dfe", "industrial": "factory", "landuse": "industrial", "name": "Federal-Mogul DEVA GmbH", "website": "https://www.deva.de"}}, {"type": "way", "id": 30027505, "center": {"lat": 50.8158564, "lon": 9.0001817}, "tags": {"landuse": "industrial", "name": "Fritz Mittelst\u00e4dt GmbH & Co. KG"}}, {"type": "way", "id": 30027693, "center": {"lat": 50.8154144, "lon": 8.9964253}, "tags": {"landuse": "industrial"}}, {"type": "way", "id": 30050598, "center": {"lat": 49.7136064, "lon": 9.9385952}, "tags": {"landuse": "industrial", "name": "Busch Agrarhandel"}}, {"type": "way", "id": 30064786, "center": {"lat": 49.912605, "lon": 11.5693742}, "tags": {"landuse": "industrial", "name": "Gewerbegebiet \"An der B\u00e4renleite\""}}, {"type": "way", "id": 30068564, "center": {"lat": 49.92332, "lon": 10.1786686}, "tags": {"landuse": "industrial", "name": "Holzwerke Gleitsmann"}}, {"type": "way", "id": 30085869, "center": {"lat": 49.5021528, "lon": 11.4363826}, "tags": {"landuse": "industrial", "name": "Endres-Holz"}}, {"type": "way", "id": 30090327, "center": {"lat": 49.7948047, "lon": 9.8443232}, "tags": {"landuse": "industrial", "name": "Gewerbegebiet Kies\u00e4cker", "website": "https://wuerzburgwiki.de/wiki/Gewerbegebiet_Kies%C3%A4cker_(Waldb%C3%BCttelbrunn)"}}, {"type": "way", "id": 30110272, "center": {"lat": 49.9579152, "lon": 11.5818547}, "tags": {"addr:city": "Bayreuth", "addr:country": "DE", "addr:housenumber": "5", "addr:postcode": "95445", "addr:street": "Gravenreutherstra\u00dfe", "contact:email": "info@walkuere.de", "contact:fax": "+49 921 78930 880", "contact:phone": "+49 921 78930 0", "contact:website": "http://www.walkuere.de", "industrial": "factory", "landuse": "industrial", "man_made": "works", "name": "Walk\u00fcre", "operator": "Porzellanfabrik Walk\u00fcre GmbH & Co. KG"}}, {"type": "way", "id": 30168057, "center": {"lat": 50.9642028, "lon": 11.059344}, "tags": {"access": "private", "landuse": "industrial"}}, {"type": "way", "id": 30170900, "center": {"lat": 49.7520035, "lon": 11.0510686}, "tags": {"landuse": "industrial", "name": "In der B\u00fcg"}}, {"type": "way", "id": 30173007, "center": {"lat": 49.5768951, "lon": 10.9196618}, "tags": {"landuse": "industrial", "name": "Spedition Wormser"}}, {"type": "way", "id": 30267259, "center": {"lat": 50.0860473, "lon": 9.0847903}, "tags": {"landuse": "industrial"}}, {"type": "way", "id": 30271246, "center": {"lat": 50.0958288, "lon": 9.0343568}, "tags": {"landuse": "industrial", "note:de": "Kein Abbau, Wert-/Baustoffverarbeitung"}}, {"type": "way", "id": 30296983, "center": {"lat": 50.8125012, "lon": 8.9845403}, "tags": {"landuse": "industrial", "name": "Hoppe AG"}}, {"type": "way", "id": 30296986, "center": {"lat": 50.8110368, "lon": 8.9858107}, "tags": {"landuse": "industrial"}}, {"type": "way", "id": 30381341, "center": {"lat": 49.4351489, "lon": 11.0738852}, "tags": {"landuse": "industrial", "name": "Technopark N\u00fcrnberg"}}, {"type": "way", "id": 30428119, "center": {"lat": 49.8913721, "lon": 11.3310017}, "tags": {"landuse": "industrial", "source": "yahoo"}}, {"type": "way", "id": 30428134, "center": {"lat": 49.887113, "lon": 11.3327015}, "tags": {"landuse": "industrial"}}, {"type": "way", "id": 30496609, "center": {"lat": 50.0979931, "lon": 8.9559226}, "tags": {"landuse": "industrial", "name": "ex. ABB"}}, {"type": "way", "id": 30503106, "center": {"lat": 49.8210838, "lon": 10.397398}, "tags": {"landuse": "industrial", "name": "Gwerbegebiet Altensch\u00f6nbach"}}, {"type": "way", "id": 30581966, "center": {"lat": 49.4370533, "lon": 11.0565143}, "tags": {"landuse": "industrial", "name": "M\u00fcllverbrennungsanlage"}}, {"type": "way", "id": 30583623, "center": {"lat": 49.5797343, "lon": 11.0995948}, "tags": {"barrier": "fence", "description": "ehem. SAS Erlangen/Uttenreuth (Special Ammunition Site, Sonderwaffenlager, Kernwaffenlager)", "fence_type": "barbed_wire", "landuse": "industrial", "source": "extrapolation"}}, {"type": "way", "id": 30594079, "center": {"lat": 49.8491104, "lon": 9.9579001}, "tags": {"addr:city": "Rimpar", "addr:country": "DE", "addr:housenumber": "105", "addr:postcode": "97222", "addr:street": "Niederhoferstra\u00dfe", "alt_name": "Gebr. Reinfurt", "barrier": "fence", "contact:phone": "+49 9365 819 0", "contact:website": "https://www.grw.de", "fence_type": "chain_link", "height": "2", "landuse": "industrial", "name": "GRW"}}, {"type": "way", "id": 30610020, "center": {"lat": 50.1237004, "lon": 8.928678}, "tags": {"landuse": "industrial", "name": "Heraeus"}}, {"type": "way", "id": 30610594, "center": {"lat": 49.5542322, "lon": 10.8792729}, "tags": {"access": "no", "barrier": "fence", "frequency": "50", "landuse": "industrial", "name": "Umspannwerk Burgstall", "name:abbreviation": "BURS", "power": "substation", "substation": "transmission", "voltage": "110000"}}, {"type": "way", "id": 30611045, "center": {"lat": 49.786204, "lon": 11.1627032}, "tags": {"building": "yes", "landuse": "industrial", "plant:method": "combustion", "plant:output:heat": "yes", "plant:source": "biomass", "power": "plant"}}, {"type": "way", "id": 30661733, "center": {"lat": 50.9810387, "lon": 10.2859362}, "tags": {"addr:city": "Eisenach", "addr:postcode": "99817", "addr:street": "Adam-Opel-Stra\u00dfe", "industrial": "factory", "landuse": "industrial", "name": "Industriegebiet Eisenach-West"}}, {"type": "way", "id": 30671665, "center": {"lat": 49.7257108, "lon": 10.9315749}, "tags": {"landuse": "industrial"}}, {"type": "way", "id": 30672157, "center": {"lat": 49.686038, "lon": 10.8593228}, "tags": {"landuse": "industrial"}}, {"type": "way", "id": 30672637, "center": {"lat": 49.6527832, "lon": 10.9167533}, "tags": {"landuse": "industrial"}}, {"type": "way", "id": 30714713, "center": {"lat": 50.1825592, "lon": 10.8368663}, "tags": {"landuse": "industrial"}}, {"type": "way", "id": 30720109, "center": {"lat": 49.6036085, "lon": 11.509118}, "tags": {"designation": "Eckart GmbH", "industrial": "factory", "landuse": "industrial", "name": "Eckart GmbH"}}, {"type": "way", "id": 30731559, "center": {"lat": 50.6108968, "lon": 9.4855554}, "tags": {"landuse": "industrial"}}, {"type": "way", "id": 30731585, "center": {"lat": 50.6045692, "lon": 9.4703983}, "tags": {"landuse": "industrial"}}, {"type": "way", "id": 30801828, "center": {"lat": 50.122154, "lon": 8.9437641}, "tags": {"addr:city": "Hanau", "addr:country": "DE", "addr:housenumber": "2", "addr:postcode": "63450", "addr:street": "Dunlopstra\u00dfe", "landuse": "industrial", "name": "Goodyear Germany", "operator": "Goodyear Germany GmbH", "website": "https://www.goodyear.eu"}}, {"type": "way", "id": 30805244, "center": {"lat": 49.9284851, "lon": 11.2936287}, "tags": {"landuse": "industrial", "man_made": "wastewater_plant", "name": "Kl\u00e4ranlage Hollfeld"}}, {"type": "way", "id": 30817055, "center": {"lat": 49.7004773, "lon": 11.6309488}, "tags": {"landuse": "industrial", "name": "Leonie", "source": "DOP_LVA_BY_01"}}, {"type": "way", "id": 30819708, "center": {"lat": 49.946779, "lon": 11.1735273}, "tags": {"landuse": "industrial", "source": "Yahoo"}}, {"type": "way", "id": 30830127, "center": {"lat": 50.2785846, "lon": 10.9928322}, "tags": {"addr:city": "Coburg", "addr:country": "DE", "addr:housenumber": "1-2", "addr:postcode": "96450", "addr:street": "M\u00fchlenweg", "industrial": "factory", "landuse": "industrial", "man_made": "works", "name": "Coburger Kartonagenfabrik", "product": "packaging", "website": "https://www.coka.de/"}}, {"type": "way", "id": 30932398, "center": {"lat": 49.3770768, "lon": 10.2167778}, "tags": {"addr:city": "Neusitz", "addr:postcode": "91616", "amenity": "road_maintenance", "email": "AM-Neusitz@autobahn.de", "government": "transportation", "landuse": "industrial", "name": "Autobahnmeisterei Neusitz", "operator": "Autobahn GmbH", "phone": "+49 9861 8757-0"}}, {"type": "way", "id": 30962302, "center": {"lat": 49.4611259, "lon": 9.9675688}, "tags": {"landuse": "industrial", "man_made": "works", "name": "Friedrich Wolfarth GmbH & Co. KG", "website": "https://www.wolfa.de/"}}, {"type": "way", "id": 30970717, "center": {"lat": 49.5263674, "lon": 11.6353635}, "tags": {"landuse": "industrial", "source": "DOP_LVA_BY_01"}}, {"type": "way", "id": 31018839, "center": {"lat": 50.0214997, "lon": 11.387099}, "tags": {"landuse": "industrial"}}, {"type": "way", "id": 31019287, "center": {"lat": 50.0175485, "lon": 11.4042123}, "tags": {"landuse": "industrial", "name": "Gewerbegebiet Thurnau-Ost IIA", "source": "Yahoo"}}, {"type": "way", "id": 31053542, "center": {"lat": 50.1930961, "lon": 8.9252498}, "tags": {"landuse": "industrial", "name": "Karl Eidmann GmbH & Co. KG", "phone": "+49 6181 97000", "website": "https://eidmann.de/"}}, {"type": "way", "id": 31057658, "center": {"lat": 50.6508436, "lon": 9.5287364}, "tags": {"landuse": "industrial"}}, {"type": "way", "id": 31129754, "center": {"lat": 49.8020685, "lon": 10.947708}, "tags": {"landuse": "industrial", "name": "Franz Veith GmbH, Papierverarbeitungswerk", "source": "survey"}}, {"type": "way", "id": 31143759, "center": {"lat": 49.4806963, "lon": 10.9626732}, "tags": {"barrier": "fence", "landuse": "industrial", "layer": "-1", "name": "Siemens", "operator": "Siemens AG", "source": "local_knowledge"}}, {"type": "way", "id": 31172295, "center": {"lat": 50.0190823, "lon": 8.9945167}, "tags": {"landuse": "industrial"}}, {"type": "way", "id": 31248246, "center": {"lat": 49.4802418, "lon": 10.9648744}, "tags": {"addr:city": "F\u00fcrth", "addr:country": "DE", "addr:housenumber": "5", "addr:postcode": "90766", "addr:street": "Breslauer Stra\u00dfe", "barrier": "fence", "landuse": "industrial", "name": "Siemens FTH BR", "operator": "Siemens AG", "source": "local_knowledge"}}, {"type": "way", "id": 31276610, "center": {"lat": 49.912626, "lon": 11.4720598}, "tags": {"landuse": "industrial", "name": "Kennametal Produktions GmbH & Co. KG Werk Mistelgau"}}, {"type": "way", "id": 31279179, "center": {"lat": 50.9839394, "lon": 9.897508}, "tags": {"addr:city": "Nentershausen", "addr:housenumber": "1", "addr:postcode": "36179", "addr:street": "Otto-Sch\u00e4fer-Stra\u00dfe", "landuse": "industrial", "name": "ae group Nentershausen"}}, {"type": "way", "id": 31281784, "center": {"lat": 49.4228214, "lon": 11.0794021}, "tags": {"landuse": "industrial"}}, {"type": "way", "id": 31283791, "center": {"lat": 49.9776813, "lon": 10.9329558}, "tags": {"landuse": "industrial", "name": "Tiefbau Pfister GmbH", "source": "Yahoo"}}, {"type": "way", "id": 31287587, "center": {"lat": 49.9779718, "lon": 9.2795473}, "tags": {"amenity": "parking", "landuse": "industrial", "name": "Parkplatz Waldaschaffautomotive GmbH", "parking": "surface", "parking:condition:area": "private"}}, {"type": "way", "id": 31296219, "center": {"lat": 49.908202, "lon": 11.4654878}, "tags": {"landuse": "industrial"}}, {"type": "way", "id": 31311384, "center": {"lat": 49.9760531, "lon": 9.2856016}, "tags": {"amenity": "parking", "landuse": "industrial", "name": "Parkplatz Waldaschaffautomotive", "parking": "surface", "parking:condition:area": "private"}}, {"type": "way", "id": 31345839, "center": {"lat": 49.3479681, "lon": 11.5469627}, "tags": {"landuse": "industrial"}}, {"type": "way", "id": 31404502, "center": {"lat": 49.9773449, "lon": 9.2839459}, "tags": {"landuse": "industrial", "name": "Waldaschaff Automotive GmbH"}}, {"type": "way", "id": 31543756, "center": {"lat": 50.994529, "lon": 11.1309707}, "tags": {"landuse": "industrial"}}, {"type": "way", "id": 31561363, "center": {"lat": 49.3693455, "lon": 10.1863306}, "tags": {"addr:city": "Rothenburg ob der Tauber", "addr:housenumber": "1", "addr:postcode": "91541", "addr:street": "Bodelschwinghstra\u00dfe", "barrier": "fence", "landuse": "industrial", "man_made": "works", "name": "AEG-Electrolux"}}, {"type": "way", "id": 31672146, "center": {"lat": 49.6850053, "lon": 11.6267358}, "tags": {"landuse": "industrial", "name": "Lohe", "source": "DOP_LVA_BY_01"}}, {"type": "way", "id": 31702936, "center": {"lat": 49.2156639, "lon": 11.4494472}, "tags": {"landuse": "industrial", "name": "Max B\u00f6gl", "operator": "Max B\u00f6gl"}}, {"type": "way", "id": 31737986, "center": {"lat": 50.1303314, "lon": 8.9305146}, "tags": {"landuse": "industrial", "name": "Vacuumschmelze", "website": "https://www.vacuumschmelze.de/"}}, {"type": "way", "id": 31784059, "center": {"lat": 50.8929467, "lon": 9.7759582}, "tags": {"addr:city": "Ludwigsau", "addr:postcode": "36251", "addr:street": "Hersfelder Stra\u00dfe", "barrier": "fence", "fence_type": "chain_link", "industrial": "waste_handling", "landuse": "industrial", "name": "Entsorgungszentrum Hersfeld-Rotenburg", "operator": "Abfallwirtschafts-Zweckverband Landkreis Hersfeld-Rotenburg (AZV)", "phone": "+49 6621 79954015", "website": "https://www.azv-hef-rof.de/entsorgungszentrum"}}, {"type": "way", "id": 31853876, "center": {"lat": 50.1551731, "lon": 11.2035685}, "tags": {"landuse": "industrial", "name": "FTO Fertigteilwerk", "source": "Yahoo"}}, {"type": "way", "id": 31854762, "center": {"lat": 50.1397492, "lon": 11.2409197}, "tags": {"landuse": "industrial", "source": "Yahoo"}}, {"type": "way", "id": 31864500, "center": {"lat": 50.9728087, "lon": 9.7820326}, "tags": {"landuse": "industrial", "man_made": "wastewater_plant"}}, {"type": "way", "id": 31884241, "center": {"lat": 50.0324148, "lon": 10.2164172}, "tags": {"fixme": "Der Erdgeschoss auf der s\u00fcd\u00f6stlichen Seite ist gleichzeitig das erste Untergeschoss auf der nordwestlichen Seite. (Bereich unterhalb der Schienen ist anscheinend begehbar) -> Unsicher, wie das gemappt werden soll.", "landuse": "industrial", "name": "SKF GmbH", "ref": "Werk 2"}}, {"type": "way", "id": 31954799, "center": {"lat": 49.8994739, "lon": 11.3704254}, "tags": {"addr:city": "Mistelgau", "addr:postcode": "95490", "landuse": "industrial", "man_made": "wastewater_plant", "name": "Kl\u00e4ranlage Truppach"}}, {"type": "way", "id": 31959201, "center": {"lat": 49.8168577, "lon": 9.0282529}, "tags": {"landuse": "industrial", "name": "Breuberg Property"}}, {"type": "way", "id": 31981480, "center": {"lat": 50.8313793, "lon": 9.9656198}, "tags": {"description": "Betriebsgel\u00e4nde Abraumhalde K+S", "landuse": "industrial", "operator": "K+S"}}, {"type": "way", "id": 31983840, "center": {"lat": 49.9451634, "lon": 9.8555429}, "tags": {"landuse": "industrial", "name": "Herbert Birnbaum Brotformenfabrik und B\u00e4ckereitechnik"}}, {"type": "way", "id": 32028121, "center": {"lat": 50.0225267, "lon": 11.5003163}, "tags": {"landuse": "industrial"}}, {"type": "way", "id": 32040665, "center": {"lat": 49.8284002, "lon": 9.0163249}, "tags": {"landuse": "industrial", "note": "Kl\u00e4ranlage"}}, {"type": "way", "id": 32059949, "center": {"lat": 50.757073, "lon": 10.476186}, "tags": {"landuse": "industrial"}}, {"type": "way", "id": 32059990, "center": {"lat": 50.75936, "lon": 10.4742093}, "tags": {"landuse": "industrial"}}, {"type": "way", "id": 32081138, "center": {"lat": 50.8448369, "lon": 9.9728823}, "tags": {"landuse": "industrial", "was:name": "Rheinische Kunststoffwerke"}}, {"type": "way", "id": 32106958, "center": {"lat": 50.2769249, "lon": 8.9360171}, "tags": {"access": "no", "addr:city": "Altenstadt", "addr:country": "DE", "addr:postcode": "63674", "barrier": "fence", "landuse": "industrial", "man_made": "wastewater_plant", "name": "Kl\u00e4ranlage Altenstadt", "wheelchair": "yes"}}, {"type": "way", "id": 32148565, "center": {"lat": 49.8683999, "lon": 11.9491453}, "tags": {"landuse": "industrial"}}, {"type": "way", "id": 32202720, "center": {"lat": 49.8760587, "lon": 10.7828523}, "tags": {"landuse": "industrial"}}, {"type": "way", "id": 32231338, "center": {"lat": 49.6198696, "lon": 11.546862}, "tags": {"landuse": "industrial", "name": "Fa. Schlenk"}}, {"type": "way", "id": 32306198, "center": {"lat": 49.7175945, "lon": 9.9471791}, "tags": {"barrier": "fence", "landuse": "industrial"}}, {"type": "way", "id": 32314265, "center": {"lat": 49.4521884, "lon": 11.1169252}, "tags": {"landuse": "industrial", "source": "yahoo"}}, {"type": "way", "id": 32318235, "center": {"lat": 49.4517783, "lon": 11.1125898}, "tags": {"landuse": "industrial"}}, {"type": "way", "id": 32341004, "center": {"lat": 49.2969151, "lon": 11.1313702}, "tags": {"landuse": "industrial"}}, {"type": "way", "id": 32345100, "center": {"lat": 49.9084847, "lon": 9.812477}, "tags": {"landuse": "industrial"}}, {"type": "way", "id": 32370513, "center": {"lat": 49.4437904, "lon": 11.1006089}, "tags": {"landuse": "industrial"}}, {"type": "way", "id": 32458294, "center": {"lat": 49.2937239, "lon": 11.0834342}, "tags": {"landuse": "industrial"}}, {"type": "way", "id": 32458971, "center": {"lat": 49.3340658, "lon": 11.0812386}, "tags": {"landuse": "industrial", "man_made": "wastewater_plant", "name": "Kl\u00e4ranlage Neuses"}}, {"type": "way", "id": 32465537, "center": {"lat": 49.2527822, "lon": 11.1819759}, "tags": {"industrial": "sawmill", "landuse": "industrial", "name": "S\u00e4gewerk"}}, {"type": "way", "id": 32466949, "center": {"lat": 49.2726042, "lon": 11.0874763}, "tags": {"landuse": "industrial"}}, {"type": "way", "id": 32529231, "center": {"lat": 50.986645, "lon": 11.0014573}, "tags": {"landuse": "industrial", "name": "Gewerbepark ergewa"}}, {"type": "way", "id": 32602747, "center": {"lat": 50.0516645, "lon": 9.1154454}, "tags": {"landuse": "industrial", "name": "Keupp-Heimann Natursteine"}}, {"type": "way", "id": 32635412, "center": {"lat": 49.8396819, "lon": 10.9727276}, "tags": {"landuse": "industrial"}}, {"type": "way", "id": 32708612, "center": {"lat": 50.6788845, "lon": 10.7892989}, "tags": {"landuse": "industrial", "name": "Glasforum Gehlberg"}}, {"type": "way", "id": 32723219, "center": {"lat": 50.0387827, "lon": 10.4953299}, "tags": {"barrier": "fence", "landuse": "industrial"}}, {"type": "way", "id": 32811527, "center": {"lat": 49.3942564, "lon": 10.3069185}, "tags": {"landuse": "industrial", "man_made": "wastewater_plant", "name": "Kl\u00e4ranlage Windelsbach"}}, {"type": "way", "id": 32817037, "center": {"lat": 49.5556932, "lon": 9.7089226}, "tags": {"landuse": "industrial", "name": "i-PARK Tauberfranken", "website": "http://www.i-park.de/home/i-park-tauberfranken", "wikidata": "Q66314357"}}, {"type": "way", "id": 32826033, "center": {"lat": 49.4663604, "lon": 10.0230051}, "tags": {"landuse": "industrial", "name": "Gewerbegebiet \u00c4ckerbrunnen", "wikidata": "Q61977618"}}, {"type": "way", "id": 33078846, "center": {"lat": 49.7031006, "lon": 10.2461877}, "tags": {"landuse": "industrial", "man_made": "wastewater_plant"}}, {"type": "way", "id": 33081427, "center": {"lat": 50.2947759, "lon": 11.9336806}, "tags": {"landuse": "industrial", "name": "Le-go Bekleidungswerke"}}, {"type": "way", "id": 33081570, "center": {"lat": 50.3307652, "lon": 11.9010437}, "tags": {"landuse": "industrial"}}, {"type": "way", "id": 33097993, "center": {"lat": 49.2859834, "lon": 11.4702455}, "tags": {"landuse": "industrial"}}, {"type": "way", "id": 33133093, "center": {"lat": 50.7910494, "lon": 10.2866847}, "tags": {"landuse": "industrial", "name": "Am Bahnhof"}}, {"type": "way", "id": 33141799, "center": {"lat": 50.7846693, "lon": 10.1973124}, "tags": {"landuse": "industrial", "name": "Ober der Br\u00fcck"}}, {"type": "way", "id": 33142499, "center": {"lat": 51.1500329, "lon": 10.4773914}, "tags": {"landuse": "industrial", "name": "Talsperrenmeisterei", "source": "Bing"}}, {"type": "way", "id": 33173159, "center": {"lat": 49.7113188, "lon": 11.0588188}, "tags": {"fenced": "yes", "frequency": "50", "landuse": "industrial", "location": "outdoor", "name": "Umspannwerk Forchheim", "name:abbreviation": "FORC", "power": "substation", "substation": "distribution", "voltage": "110000"}}, {"type": "way", "id": 33286666, "center": {"lat": 49.7277095, "lon": 10.1663767}, "tags": {"landuse": "industrial", "name": "Knauf Kran"}}, {"type": "way", "id": 33516120, "center": {"lat": 50.8897812, "lon": 10.9724008}, "tags": {"barrier": "fence", "landuse": "industrial", "man_made": "wastewater_plant", "name": "Kl\u00e4rwerk Ichtershausen"}}, {"type": "way", "id": 33523347, "center": {"lat": 50.9812493, "lon": 10.3197746}, "tags": {"landuse": "industrial", "source": "local knowledge"}}, {"type": "way", "id": 33538114, "center": {"lat": 50.8713577, "lon": 10.9711697}, "tags": {"landuse": "industrial", "name": "IBW - Ichterh\u00e4user Betonwerk GmbH"}}, {"type": "way", "id": 33538728, "center": {"lat": 50.8549212, "lon": 10.9618941}, "tags": {"landuse": "industrial", "name": "Arnstadt-Rudisleben"}}, {"type": "way", "id": 33539024, "center": {"lat": 50.8547728, "lon": 10.9521496}, "tags": {"landuse": "industrial", "name": "Arnstadt-Nord"}}, {"type": "way", "id": 33539279, "center": {"lat": 50.862821, "lon": 10.9515903}, "tags": {"landuse": "industrial", "name": "Industriegebiet Erfurter Kreuz"}}, {"type": "way", "id": 33550639, "center": {"lat": 49.2639771, "lon": 10.5939788}, "tags": {"landuse": "industrial", "name": "Gewerbegebiet Brodswinden Hardtstra\u00dfe"}}, {"type": "way", "id": 33578332, "center": {"lat": 50.5176251, "lon": 9.3209237}, "tags": {"landuse": "industrial"}}, {"type": "way", "id": 33630724, "center": {"lat": 49.9811721, "lon": 9.2768125}, "tags": {"landuse": "industrial", "name": "Hockenhof"}}, {"type": "way", "id": 33678088, "center": {"lat": 49.6057723, "lon": 10.9971644}, "tags": {"landuse": "industrial", "man_made": "works", "name": "Schlachthof Erlangen", "note": "Unifleisch ist nur eine von mehreren hier ans\u00e4ssigen Gmbhs"}}, {"type": "way", "id": 33688006, "center": {"lat": 50.2140969, "lon": 11.9306026}, "tags": {"landuse": "industrial"}}, {"type": "way", "id": 33692803, "center": {"lat": 50.2245969, "lon": 11.957387}, "tags": {"landuse": "industrial", "name": "Sandler AG"}}, {"type": "way", "id": 33713562, "center": {"lat": 50.2105775, "lon": 11.9629179}, "tags": {"contact:email": "info@ewm-martinlamitz.de", "landuse": "industrial", "name": "Eisenwerk Martinlamitz GmbH", "website": "www1.ewm-martinlamitz.de"}}, {"type": "way", "id": 33721158, "center": {"lat": 50.5902195, "lon": 11.0273162}, "tags": {"barrier": "fence", "fence_type": "metal", "landuse": "industrial", "man_made": "wastewater_plant"}}, {"type": "way", "id": 33817617, "center": {"lat": 49.7051602, "lon": 10.8347084}, "tags": {"addr:city": "H\u00f6chstadt an der Aisch", "addr:country": "DE", "addr:housenumber": "13", "addr:postcode": "91315", "addr:street": "Am Aischpark", "contact:email": "info@peiler-klein.de", "contact:fax": "+49 9193 5079-29", "contact:phone": "+49 9193 5079-0", "contact:website": "https://www.peiler-klein.com/", "landuse": "industrial", "man_made": "works", "name": "Peiler & Klein Kunststofftechnik"}}, {"type": "way", "id": 33819205, "center": {"lat": 50.5822212, "lon": 10.9948875}, "tags": {"landuse": "industrial"}}, {"type": "way", "id": 33820717, "center": {"lat": 51.1302106, "lon": 9.5525052}, "tags": {"landuse": "industrial"}}, {"type": "way", "id": 33888396, "center": {"lat": 50.365344, "lon": 8.9622683}, "tags": {"landuse": "industrial"}}, {"type": "way", "id": 33888932, "center": {"lat": 50.3532852, "lon": 8.9778772}, "tags": {"landuse": "industrial"}}, {"type": "way", "id": 33910303, "center": {"lat": 50.597765, "lon": 11.1709682}, "tags": {"landuse": "industrial", "name": "Sauerstoff"}}, {"type": "way", "id": 34015224, "center": {"lat": 49.5957688, "lon": 11.0820909}, "tags": {"landuse": "industrial"}}, {"type": "way", "id": 34039189, "center": {"lat": 50.282006, "lon": 11.0164727}, "tags": {"barrier": "fence", "landuse": "industrial", "man_made": "wastewater_plant"}}, {"type": "way", "id": 34073721, "center": {"lat": 50.4351949, "lon": 11.8272526}, "tags": {"industrial": "sawmill", "landuse": "industrial", "name": "Rettenmeier Holzindustrie Hirschberg GmbH"}}, {"type": "way", "id": 34112198, "center": {"lat": 50.1507824, "lon": 11.1818473}, "tags": {"contact:email": "info@signet-moebel.de", "contact:fax": "+49 9574 6547011", "contact:phone": "+49 9574 654700", "contact:website": "https://www.signet-moebel.de/", "landuse": "industrial", "name": "Signet Wohnm\u00f6bel GmbH & Co. KG", "operator": "Gerald Klimke"}}, {"type": "way", "id": 34171833, "center": {"lat": 50.2805865, "lon": 11.0402829}, "tags": {"landuse": "industrial"}}, {"type": "way", "id": 34235059, "center": {"lat": 49.9590921, "lon": 9.6627393}, "tags": {"addr:city": "Steinfeld", "addr:country": "DE", "addr:housenumber": "8", "addr:postcode": "97854", "addr:street": "Raiffeisenstra\u00dfe", "addr:suburb": "Hausen", "fax": "+49 9359 9720 40", "landuse": "industrial", "name": "Schmelzmetall AG", "phone": "+49 9359 9720 0", "website": "https://www.schmelzmetall.com/"}}, {"type": "way", "id": 34253716, "center": {"lat": 50.100851, "lon": 11.4349687}, "tags": {"landuse": "industrial"}}, {"type": "way", "id": 34286304, "center": {"lat": 49.5634471, "lon": 10.9737354}, "tags": {"landuse": "industrial", "name": "Industriepark Frauenaurach"}}, {"type": "way", "id": 34390757, "center": {"lat": 49.7918772, "lon": 9.9128889}, "tags": {"landuse": "industrial", "man_made": "works", "name": "W\u00fcrzburger Hofbr\u00e4u", "source": "extrapolation", "wikidata": "Q870325", "wikipedia": "de:W\u00fcrzburger Hofbr\u00e4u"}}, {"type": "way", "id": 34555919, "center": {"lat": 50.4897133, "lon": 9.3029968}, "tags": {"landuse": "industrial", "name": "Industriegebiet Oberwald"}}, {"type": "way", "id": 34652533, "center": {"lat": 49.5042533, "lon": 11.2737133}, "tags": {"landuse": "industrial", "man_made": "wastewater_plant", "name": "Kl\u00e4ranlage Lauf"}}, {"type": "way", "id": 34653049, "center": {"lat": 50.2252673, "lon": 11.0059642}, "tags": {"landuse": "industrial"}}, {"type": "way", "id": 34673105, "center": {"lat": 49.5027812, "lon": 11.2728413}, "tags": {"landuse": "industrial", "man_made": "wastewater_plant", "name": "Kl\u00e4ranlage Lauf"}}, {"type": "way", "id": 34695110, "center": {"lat": 49.2647321, "lon": 10.6185333}, "tags": {"barrier": "fence", "landuse": "industrial"}}, {"type": "way", "id": 34882306, "center": {"lat": 50.2099611, "lon": 11.9574026}, "tags": {"landuse": "industrial", "name": "S\u00e4gewerk"}}, {"type": "way", "id": 34928786, "center": {"lat": 50.6655387, "lon": 9.3539166}, "tags": {"landuse": "industrial", "name": "Holzwerk Pfeifer"}}, {"type": "way", "id": 34952119, "center": {"lat": 50.2117142, "lon": 11.9537495}, "tags": {"landuse": "industrial"}}, {"type": "way", "id": 34990651, "center": {"lat": 50.2167448, "lon": 11.9522914}, "tags": {"landuse": "industrial", "name": "eheml. Kronester"}}, {"type": "way", "id": 35038520, "center": {"lat": 50.5080199, "lon": 8.9299654}, "tags": {"fixme": "resurvey", "landuse": "industrial", "name": "Schneidm\u00fcller GmbH"}}, {"type": "way", "id": 35209088, "center": {"lat": 51.1097953, "lon": 9.5527688}, "tags": {"landuse": "industrial"}}, {"type": "way", "id": 35209089, "center": {"lat": 51.1063655, "lon": 9.5549933}, "tags": {"landuse": "industrial", "man_made": "works", "name": "B. Braun Melsungen AG", "operator": "B. Braun Melsungen AG", "product": "medical_supply"}}, {"type": "way", "id": 35335791, "center": {"lat": 50.6193689, "lon": 9.0263321}, "tags": {"landuse": "industrial"}}, {"type": "way", "id": 35338199, "center": {"lat": 49.427767, "lon": 10.9404683}, "tags": {"barrier": "fence", "landuse": "industrial", "plant:method": "photovoltaic", "plant:output:electricity": "yes", "plant:source": "solar", "power": "plant", "source": "gps"}}, {"type": "way", "id": 35415445, "center": {"lat": 49.9114725, "lon": 10.8542714}, "tags": {"addr:city": "Bamberg", "addr:country": "DE", "addr:housenumber": "6", "addr:postcode": "96052", "addr:street": "Rheinstra\u00dfe", "building": "yes", "landuse": "industrial", "name": "M\u00fcllheizkraftwerk Bamberg", "plant:method": "combustion", "plant:output:electricity": "yes", "plant:output:heat": "yes", "plant:source": "waste", "power": "plant"}}, {"type": "way", "id": 35432288, "center": {"lat": 50.2126227, "lon": 11.9480207}, "tags": {"landuse": "industrial"}}, {"type": "way", "id": 35478224, "center": {"lat": 49.3617755, "lon": 11.1737209}, "tags": {"landuse": "industrial", "name": "Heinrich M\u00fcller Pr\u00e4zisionsdrehteile", "source": "survey; Yahoo"}}, {"type": "way", "id": 35547682, "center": {"lat": 49.4538932, "lon": 11.0407024}, "tags": {"landuse": "industrial", "source": "Yahoo"}}, {"type": "way", "id": 35646726, "center": {"lat": 50.1544849, "lon": 11.176457}, "tags": {"landuse": "industrial"}}, {"type": "way", "id": 35673514, "center": {"lat": 50.4904451, "lon": 10.1211255}, "tags": {"contact:phone": "+49 9779 8101-0", "landuse": "industrial", "microbrewery": "yes", "name": "Rother Br\u00e4u", "website": "http://www.rotherbraeu.de"}}, {"type": "way", "id": 35677381, "center": {"lat": 49.2934341, "lon": 10.6122207}, "tags": {"barrier": "fence", "landuse": "industrial", "name": "Diehl Metering GmbH"}}, {"type": "way", "id": 35683172, "center": {"lat": 51.0223728, "lon": 11.5383453}, "tags": {"fixme": "nur ein geringer Teil der Fl\u00e4che wird genutzt; der Rest ist \"scrub\". Wir kartieren den Istzustand, nicht einen fiktiven Planunungszustand, der nicht mehr real ist.", "landuse": "industrial", "name": "An der Utenbacher Stra\u00dfe"}}, {"type": "way", "id": 35763969, "center": {"lat": 50.4693988, "lon": 10.1926429}, "tags": {"landuse": "industrial", "man_made": "wastewater_plant", "name": "Kl\u00e4ranlage Nordheim v. d. Rh\u00f6n"}}, {"type": "way", "id": 35777432, "center": {"lat": 49.2916703, "lon": 10.6114167}, "tags": {"barrier": "fence", "landuse": "industrial"}}, {"type": "way", "id": 35800388, "center": {"lat": 50.0456776, "lon": 8.9950522}, "tags": {"landuse": "industrial", "name": "Gewerbegebiet Hirten\u00e4cker"}}, {"type": "way", "id": 35839597, "center": {"lat": 50.2597777, "lon": 10.9271707}, "tags": {"landuse": "industrial"}}, {"type": "way", "id": 35873544, "center": {"lat": 49.6974341, "lon": 9.789036}, "tags": {"landuse": "industrial", "name": "Gewerbegebiet Gerchsheim", "source": "extrapolation;aerial imagery;Bing", "wikidata": "Q61915961"}}, {"type": "way", "id": 35941217, "center": {"lat": 49.9379198, "lon": 10.9273745}, "tags": {"landuse": "industrial"}}, {"type": "way", "id": 35941676, "center": {"lat": 49.9115523, "lon": 10.833801}, "tags": {"landuse": "industrial"}}, {"type": "way", "id": 35961419, "center": {"lat": 49.4065797, "lon": 9.9166476}, "tags": {"landuse": "industrial", "name": "Umspannwerk Niederstetten", "operator": "EnBW", "power": "substation", "voltage": "110000", "wikidata": "Q66823399"}}, {"type": "way", "id": 36227701, "center": {"lat": 49.8293683, "lon": 10.93813}, "tags": {"landuse": "industrial", "name": "Industriegebiet Pettstadt"}}, {"type": "way", "id": 36227705, "center": {"lat": 49.830622, "lon": 10.946346}, "tags": {"landuse": "industrial", "name": "Firma Metzner"}}, {"type": "way", "id": 36250747, "center": {"lat": 49.8928193, "lon": 10.0675885}, "tags": {"landuse": "industrial"}}, {"type": "way", "id": 36383852, "center": {"lat": 49.8134535, "lon": 11.0002486}, "tags": {"landuse": "industrial"}}, {"type": "way", "id": 36734237, "center": {"lat": 49.6342001, "lon": 9.6598457}, "tags": {"landuse": "industrial", "man_made": "wastewater_plant"}}, {"type": "way", "id": 36734238, "center": {"lat": 49.6329787, "lon": 9.6605327}, "tags": {"landuse": "industrial"}}, {"type": "way", "id": 36797462, "center": {"lat": 49.9127214, "lon": 10.240705}, "tags": {"landuse": "industrial", "name": "BELECTRIC"}}, {"type": "way", "id": 36973771, "center": {"lat": 50.7670155, "lon": 11.0679171}, "tags": {"landuse": "industrial"}}, {"type": "way", "id": 36989590, "center": {"lat": 49.3831797, "lon": 10.911947}, "tags": {"landuse": "industrial"}}, {"type": "way", "id": 37000313, "center": {"lat": 50.3099254, "lon": 9.4294953}, "tags": {"barrier": "fence", "landuse": "industrial", "man_made": "wastewater_plant", "name": "Kl\u00e4ranlage Steinau"}}, {"type": "way", "id": 37024622, "center": {"lat": 50.2506049, "lon": 9.2949081}, "tags": {"landuse": "industrial"}}, {"type": "way", "id": 37030995, "center": {"lat": 50.3186292, "lon": 9.4602925}, "tags": {"landuse": "industrial"}}, {"type": "way", "id": 37042236, "center": {"lat": 50.5666016, "lon": 9.6808981}, "tags": {"landuse": "industrial", "name": "Papierfabrik Adolf Jass", "note": "fixme"}}, {"type": "way", "id": 37111854, "center": {"lat": 49.2468669, "lon": 9.2473599}, "tags": {"landuse": "industrial", "name": "Gewerbegebiet Oedheim"}}, {"type": "way", "id": 37130882, "center": {"lat": 50.5618851, "lon": 9.678548}, "tags": {"landuse": "industrial", "name": "ehem. Eika Gel\u00e4nde"}}, {"type": "way", "id": 37194604, "center": {"lat": 50.5563087, "lon": 9.6649668}, "tags": {"landuse": "industrial", "name": "St\u00e4dtischer Bauhof"}}, {"type": "way", "id": 37302829, "center": {"lat": 49.8986867, "lon": 9.6653524}, "tags": {"landuse": "industrial", "name": "Muttertal"}}, {"type": "way", "id": 37419906, "center": {"lat": 49.4801625, "lon": 11.1284408}, "tags": {"addr:city": "N\u00fcrnberg", "addr:country": "DE", "addr:housenumber": "19", "addr:postcode": "90411", "addr:street": "Sieboldstra\u00dfe", "barrier": "fence", "industrial": "automotive_industry", "landuse": "industrial", "name": "Schaeffler AG"}}, {"type": "way", "id": 37437597, "center": {"lat": 50.0743885, "lon": 11.4685768}, "tags": {"landuse": "industrial"}}, {"type": "way", "id": 37446088, "center": {"lat": 50.2754474, "lon": 11.0889528}, "tags": {"landuse": "industrial", "name": "Industrie- und Gewerbepark Blumenrod"}}, {"type": "way", "id": 37563413, "center": {"lat": 50.0256012, "lon": 10.5493535}, "tags": {"addr:city": "Ha\u00dffurt", "addr:country": "DE", "addr:housenumber": "1", "addr:postcode": "97437", "addr:street": "Rexrothstra\u00dfe", "addr:suburb": "Augsfeld", "landuse": "industrial", "man_made": "works", "name": "Bosch Rexroth AG", "phone": "+49 9521 683 0", "product": "machinery", "website": "https://www.boschrexroth.com", "website:map": "https://www.bosch.de/unternehmen/bosch-in-deutschland/augsfeld/", "website:map:osm": "no"}}, {"type": "way", "id": 37592302, "center": {"lat": 50.1245714, "lon": 8.9740102}, "tags": {"designation": "Technologie-Park Hanau", "landuse": "industrial", "name": "Technologie-Park Hanau", "old_name": "Hanauer Atomdorf"}}, {"type": "way", "id": 37592710, "center": {"lat": 49.4116655, "lon": 10.4329773}, "tags": {"landuse": "industrial", "man_made": "wastewater_plant"}}, {"type": "way", "id": 37679625, "center": {"lat": 50.0566758, "lon": 9.0209454}, "tags": {"landuse": "industrial"}}, {"type": "way", "id": 37801365, "center": {"lat": 49.3811551, "lon": 10.7969007}, "tags": {"landuse": "industrial", "man_made": "wastewater_plant", "name": "Kl\u00e4rwerk"}}, {"type": "way", "id": 37850393, "center": {"lat": 50.0503899, "lon": 9.0419426}, "tags": {"landuse": "industrial", "name": "Industriegebiet Alzenau-S\u00fcd"}}, {"type": "way", "id": 37913925, "center": {"lat": 50.3424217, "lon": 11.9627635}, "tags": {"landuse": "industrial"}}, {"type": "way", "id": 37927580, "center": {"lat": 49.2718706, "lon": 11.0420255}, "tags": {"landuse": "industrial", "name": "Gewerbegebiet an der Willi-Memmert-Stra\u00dfe", "source": "Yahoo"}}, {"type": "way", "id": 37978466, "center": {"lat": 49.7174752, "lon": 9.2329038}, "tags": {"landuse": "industrial"}}, {"type": "way", "id": 37988888, "center": {"lat": 49.2407552, "lon": 9.3081135}, "tags": {"landuse": "industrial"}}, {"type": "way", "id": 38012193, "center": {"lat": 49.4989076, "lon": 11.2678388}, "tags": {"landuse": "industrial", "source": "yahoo"}}, {"type": "way", "id": 38012194, "center": {"lat": 49.4969432, "lon": 11.2640963}, "tags": {"landuse": "industrial", "source": "yahoo"}}, {"type": "way", "id": 38012195, "center": {"lat": 49.4981883, "lon": 11.2619777}, "tags": {"landuse": "industrial", "source": "yahoo"}}, {"type": "way", "id": 38012196, "center": {"lat": 49.4981624, "lon": 11.2669947}, "tags": {"landuse": "industrial"}}, {"type": "way", "id": 38043085, "center": {"lat": 49.3342315, "lon": 10.9634482}, "tags": {"landuse": "industrial", "man_made": "wastewater_plant", "source": "Yahoo"}}, {"type": "way", "id": 38047927, "center": {"lat": 49.6054129, "lon": 9.7356694}, "tags": {"landuse": "industrial", "name": "Refresco Deutschland GmbH"}}, {"type": "way", "id": 38060053, "center": {"lat": 49.2547189, "lon": 9.2978403}, "tags": {"landuse": "industrial"}}, {"type": "way", "id": 38115105, "center": {"lat": 50.2399263, "lon": 10.9698386}, "tags": {"landuse": "industrial", "man_made": "wastewater_plant", "name": "Kl\u00e4ranlage Coburg", "operator": "Coburger Entsorgungs- und Baubetrieb"}}, {"type": "way", "id": 38167516, "center": {"lat": 49.4896154, "lon": 11.2480672}, "tags": {"landuse": "industrial"}}, {"type": "way", "id": 38167517, "center": {"lat": 49.4912804, "lon": 11.2505507}, "tags": {"landuse": "industrial", "source": "yahoo"}}, {"type": "way", "id": 38215175, "center": {"lat": 51.1639898, "lon": 9.1190068}, "tags": {"landuse": "industrial", "name": "Holzlagerplatz"}}, {"type": "way", "id": 38259176, "center": {"lat": 49.4833225, "lon": 11.2001862}, "tags": {"landuse": "industrial"}}, {"type": "way", "id": 38332291, "center": {"lat": 49.299005, "lon": 9.3087649}, "tags": {"landuse": "industrial", "name": "Tekton GmbH"}}, {"type": "way", "id": 38332618, "center": {"lat": 49.2468952, "lon": 10.8158582}, "tags": {"landuse": "industrial"}}, {"type": "way", "id": 38343532, "center": {"lat": 50.2747133, "lon": 10.9905006}, "tags": {"landuse": "industrial"}}, {"type": "way", "id": 38484216, "center": {"lat": 51.1604335, "lon": 10.3224024}, "tags": {"landuse": "industrial"}}, {"type": "way", "id": 38531940, "center": {"lat": 51.0243102, "lon": 11.0901224}, "tags": {"area": "yes", "landuse": "industrial", "surface": "gravel"}}, {"type": "way", "id": 38531943, "center": {"lat": 51.0246021, "lon": 11.0799821}, "tags": {"landuse": "industrial", "surface": "paved"}}, {"type": "way", "id": 38538314, "center": {"lat": 51.023556, "lon": 11.0821715}, "tags": {"landuse": "industrial", "surface": "paved"}}, {"type": "way", "id": 38538315, "center": {"lat": 51.0220742, "lon": 11.0828082}, "tags": {"landuse": "industrial", "surface": "paved"}}, {"type": "way", "id": 38538317, "center": {"lat": 51.0258467, "lon": 11.0886018}, "tags": {"landuse": "industrial", "surface": "gravel"}}, {"type": "way", "id": 38538318, "center": {"lat": 51.0275764, "lon": 11.0928718}, "tags": {"area": "yes", "landuse": "industrial", "surface": "gravel"}}, {"type": "way", "id": 38538323, "center": {"lat": 51.0263662, "lon": 11.0945557}, "tags": {"area": "yes", "landuse": "industrial", "surface": "gravel"}}, {"type": "way", "id": 38539477, "center": {"lat": 51.029898, "lon": 11.097781}, "tags": {"area": "yes", "landuse": "industrial", "surface": "gravel"}}, {"type": "way", "id": 38539892, "center": {"lat": 49.6033625, "lon": 10.4315984}, "tags": {"landuse": "industrial"}}, {"type": "way", "id": 38587209, "center": {"lat": 51.0239261, "lon": 11.07644}, "tags": {"landuse": "industrial", "surface": "paved"}}, {"type": "way", "id": 38587212, "center": {"lat": 51.0206093, "lon": 11.0833186}, "tags": {"landuse": "industrial"}}, {"type": "way", "id": 38587214, "center": {"lat": 51.02032, "lon": 11.079654}, "tags": {"landuse": "industrial", "surface": "paved"}}, {"type": "way", "id": 38587216, "center": {"lat": 51.0197459, "lon": 11.074883}, "tags": {"landuse": "industrial", "service": "powergenerator", "surface": "paved"}}, {"type": "way", "id": 38805789, "center": {"lat": 49.7077761, "lon": 9.5092075}, "tags": {"landuse": "industrial", "man_made": "wastewater_plant", "name": "Kl\u00e4ranlage D\u00f6rlesberg"}}, {"type": "way", "id": 38873078, "center": {"lat": 50.9328615, "lon": 11.4712404}, "tags": {"landuse": "industrial"}}, {"type": "way", "id": 38880868, "center": {"lat": 50.3755314, "lon": 11.5095856}, "tags": {"landuse": "industrial", "name": "Wunder+Koestner Automatisierungstechnik GmbH"}}, {"type": "way", "id": 39203115, "center": {"lat": 49.4326705, "lon": 10.9342403}, "tags": {"landuse": "industrial"}}, {"type": "way", "id": 39248440, "center": {"lat": 49.2807018, "lon": 9.4726916}, "tags": {"landuse": "industrial", "name": "Kirschwasen"}}, {"type": "way", "id": 39351327, "center": {"lat": 49.6510796, "lon": 10.4718422}, "tags": {"landuse": "industrial", "man_made": "wastewater_plant", "name": "Kl\u00e4ranlage Scheinfeld"}}, {"type": "way", "id": 39496535, "center": {"lat": 49.7945193, "lon": 9.7170079}, "tags": {"landuse": "industrial"}}, {"type": "way", "id": 39581974, "center": {"lat": 49.9521999, "lon": 8.9591687}, "tags": {"landuse": "industrial"}}, {"type": "way", "id": 39581979, "center": {"lat": 49.9492478, "lon": 8.9567512}, "tags": {"addr:city": "Babenhausen", "addr:country": "DE", "addr:housenumber": "27", "addr:postcode": "64832", "addr:street": "Edmund-Lang-Stra\u00dfe", "landuse": "industrial", "old_name": "ELB-Schliff GmbH"}}, {"type": "way", "id": 39596732, "center": {"lat": 49.632424, "lon": 11.8897254},