[{"type": "node", "id": 5353214936, "lat": 50.0573622, "lon": 8.8116735, "tags": {"addr:city": "Heusenstamm", "addr:housenumber": "5", "addr:postcode": "63150", "addr:street": "Niederr\u00f6der Weg", "building": "service", "name": "Trafostation", "note:addr:street": "auf Schildchen steht \"Niederr\u00f6der Weg\". Siehe Anmerkung an Stra\u00dfe.", "operator": "Energieversorgung Offenbach", "operator:wikidata": "Q1341471", "power": "substation", "substation": "transmission", "voltage": "20kv/400v"}}, {"type": "node", "id": 10943752261, "lat": 50.0841552, "lon": 8.8220671, "tags": {"addr:city": "Offenbach am Main", "addr:country": "DE", "addr:housenumber": "6a", "addr:postcode": "63073", "addr:street": "Schutzbaumstra\u00dfe", "name": "Trafostation", "operator": "Energieversorgung Offenbach", "operator:wikidata": "Q1341471", "power": "substation", "substation": "transmission", "voltage": "20kv/400v"}}, {"type": "way", "id": 4826893, "center": {"lat": 50.1591423, "lon": 8.7352184}, "tags": {"name": "Umspannwerk Frankfurt Nord", "operator": "TenneT TSO GmbH;Avacon Netz", "power": "substation", "ref": "FRAN", "substation": "transmission", "voltage": "220000;110000", "wikidata": "Q53052554"}}, {"type": "way", "id": 22690852, "center": {"lat": 50.9841555, "lon": 6.8514864}, "tags": {"frequency": "50", "landuse": "industrial", "name": "Umspannwerk Bocklem\u00fcnd", "power": "substation", "source": "survey", "substation": "transmission", "voltage": "220000;110000", "wikidata": "Q52692434"}}, {"type": "way", "id": 22761839, "center": {"lat": 51.0699009, "lon": 6.9659141}, "tags": {"addr:housenumber": "11", "addr:street": "Hauweg", "barrier": "fence", "name": "Station Opladen", "operator": "RWE", "operator:wikidata": "Q138133", "operator:wikipedia": "de:RWE", "power": "substation", "short_name": "Opladen", "source": "Umspannwerk", "substation": "transmission", "voltage": "380000;220000;110000", "wikidata": "Q52636627"}}, {"type": "way", "id": 22765517, "center": {"lat": 50.8635039, "lon": 6.8425842}, "tags": {"barrier": "fence", "name": "Station Knapsack", "operator": "Amprion", "operator:wikidata": "Q477318", "power": "substation", "source": "yahoo", "substation": "transmission", "voltage": "380000;110000", "wikidata": "Q53272141"}}, {"type": "way", "id": 22766160, "center": {"lat": 50.7956748, "lon": 6.9726655}, "tags": {"barrier": "fence", "name": "Station Sechtem", "operator": "Amprion", "operator:wikidata": "Q477318", "power": "substation", "short_name": "Sechtem", "source": "GPS, local knowlege", "substation": "transmission", "voltage": "380000;220000;110000", "wikidata": "Q58218950"}}, {"type": "way", "id": 22767509, "center": {"lat": 50.7977934, "lon": 7.193868}, "tags": {"name": "Station Siegburg", "operator": "RWE", "operator:wikidata": "Q138133", "power": "substation", "short_name": "Siegburg", "source": "yahoo", "source:name": "Schild am Tor", "substation": "transmission", "voltage": "110000", "wikidata": "Q58221640"}}, {"type": "way", "id": 22768128, "center": {"lat": 50.7515793, "lon": 7.0304609}, "tags": {"barrier": "fence", "name": "Station Alfter", "operator": "Westnetz", "operator:wikidata": "Q2807462", "power": "substation", "short_name": "Alfter", "source": "yahoo, survey", "substation": "transmission", "voltage": "110000"}}, {"type": "way", "id": 22768865, "center": {"lat": 50.7525316, "lon": 7.0652465}, "tags": {"barrier": "fence", "name": "Bonn-Nord (Westnetz GmbH)", "operator": "Westnetz", "operator:wikidata": "Q2807462", "power": "substation", "short_name": "Bonn-Nord", "source": "yahoo;survey", "substation": "transmission", "voltage": "110000"}}, {"type": "way", "id": 22772508, "center": {"lat": 50.820588, "lon": 7.0315276}, "tags": {"name": "Station Ranzel", "operator": "Westnetz", "operator:wikidata": "Q2807462", "operator:wikipedia": "de:Westnetz", "power": "substation", "short_name": "Ranzel", "source": "yahoo", "substation": "transmission", "voltage": "110000"}}, {"type": "way", "id": 22796434, "center": {"lat": 50.8264773, "lon": 7.0964097}, "tags": {"name": "Station Stockem", "operator": "Westnetz", "operator:wikidata": "Q2807462", "power": "substation", "short_name": "Stockem", "source": "yahoo", "substation": "transmission", "voltage": "110000"}}, {"type": "way", "id": 23084554, "center": {"lat": 50.966176, "lon": 6.8040538}, "tags": {"landuse": "industrial", "name": "Umspannanlage Brauweiler", "operator": "RWE", "operator:wikidata": "Q138133", "operator:wikipedia": "de:RWE", "power": "substation", "short_name": "Brauweiler", "source": "survey", "substation": "transmission", "voltage": "380000;220000;110000", "wikidata": "Q2478692"}}, {"type": "way", "id": 23192640, "center": {"lat": 51.1625262, "lon": 6.8286197}, "tags": {"frequency": "50", "name": "Station Reisholz", "power": "substation", "substation": "transmission", "voltage": "110000", "wikidata": "Q58194895"}}, {"type": "way", "id": 23284340, "center": {"lat": 49.9745089, "lon": 8.7721937}, "tags": {"addr:city": "R\u00f6dermark", "addr:housenumber": "260", "addr:postcode": "63322", "addr:street": "Konrad-Adenauer-Stra\u00dfe", "barrier": "fence", "name": "Umspannwerk Urberach", "operator": "Amprion", "operator:wikidata": "Q477318", "power": "substation", "substation": "transmission", "voltage": "380000;220000;110000", "wikidata": "Q50358843"}}, {"type": "way", "id": 23600452, "center": {"lat": 49.8468872, "lon": 8.1107107}, "tags": {"barrier": "fence", "frequency": "50", "location": "outdoor", "name": "Umspannwerk W\u00f6rrstadt", "power": "substation", "substation": "transmission", "voltage": "110000"}}, {"type": "way", "id": 23641079, "center": {"lat": 50.0781035, "lon": 8.5370357}, "tags": {"frequency": "50", "name": "Farbwerke H\u00f6chst S\u00fcd (FWH-S)", "operator": "Amprion", "operator:wikidata": "Q477318", "operator:wikipedia": "de:Amprion", "power": "substation", "substation": "transmission", "voltage": "220000;110000"}}, {"type": "way", "id": 23706799, "center": {"lat": 49.9707964, "lon": 8.5907644}, "tags": {"area": "yes", "landuse": "industrial", "name": "Umspannanlage M\u00f6rfelden", "operator": "e-netz S\u00fcdhessen", "operator:wikidata": "Q17353510", "power": "substation", "substation": "transmission", "voltage": "110000"}}, {"type": "way", "id": 23881272, "center": {"lat": 50.1309105, "lon": 8.8730924}, "tags": {"barrier": "fence", "frequency": "50", "name": "D\u00f6rnigheim 220 kV", "operator": "TenneT TSO GmbH", "operator:wikidata": "Q1662830", "power": "substation", "substation": "transmission", "voltage": "220000;110000"}}, {"type": "way", "id": 24042358, "center": {"lat": 50.2037287, "lon": 8.81054}, "tags": {"fixme": "Geb\u00e4ude und Leitungen in der n\u00f6rdlichen Erweiterung erg\u00e4nzen", "frequency": "50", "name": "Umspannwerk Karben", "note": "300 MVAR Blindleistungskompensationsanlage im Bau", "operator": "TenneT TSO", "operator:wikidata": "Q1662830", "power": "substation", "ref": "KARB", "substation": "transmission", "voltage": "380000", "wikidata": "Q52635351"}}, {"type": "way", "id": 24267175, "center": {"lat": 51.0490833, "lon": 6.5700195}, "tags": {"name": "Umspannanlage Frimmersdorf I", "operator": "RWE", "operator:wikidata": "Q138133", "operator:wikipedia": "de:RWE", "power": "substation", "substation": "transmission", "voltage": "110000", "wikidata": "Q53054088"}}, {"type": "way", "id": 24267200, "center": {"lat": 51.04732, "lon": 6.5683278}, "tags": {"name": "Station Frimmersdorf", "power": "substation", "source": "bing", "substation": "transmission", "voltage": "110000"}}, {"type": "way", "id": 24268944, "center": {"lat": 50.8022538, "lon": 6.1670661}, "tags": {"barrier": "fence", "frequency": "50", "landuse": "industrial", "name": "Umspannanlage Verlautenheide", "note": "Geonames.org: Aachen-Ost", "operator": "Amprion", "operator:wikidata": "Q477318", "power": "substation", "substation": "transmission", "voltage": "380000;110000", "wikidata": "Q62030539", "wikimedia_commons": "Category:Umspannwerk Verlautenheide"}}, {"type": "way", "id": 24437487, "center": {"lat": 50.0471651, "lon": 8.2578618}, "tags": {"frequency": "50", "power": "substation", "substation": "transmission", "voltage": "110000"}}, {"type": "way", "id": 24507338, "center": {"lat": 50.7976467, "lon": 6.1114835}, "tags": {"barrier": "fence", "frequency": "50", "operator": "Stawag", "power": "substation", "substation": "transmission", "voltage": "110000"}}, {"type": "way", "id": 24685992, "center": {"lat": 49.982337, "lon": 8.3892131}, "tags": {"barrier": "fence", "landuse": "industrial", "name": "Umspannstation Bischofsheim", "operator": "RWE;Kraftwerke Mainz-Wiesbaden", "power": "substation", "substation": "transmission", "voltage": "380000;110000"}}, {"type": "way", "id": 24686681, "center": {"lat": 49.9927325, "lon": 8.3807433}, "tags": {"barrier": "fence", "frequency": "50", "power": "substation", "substation": "transmission", "voltage": "110000"}}, {"type": "way", "id": 24696121, "center": {"lat": 51.1536129, "lon": 6.282501}, "tags": {"barrier": "fence", "name": "Wegberg", "operator": "Westnetz", "operator:wikidata": "Q2807462", "power": "substation", "substation": "transmission", "voltage": "110000"}}, {"type": "way", "id": 24839976, "center": {"lat": 51.0087441, "lon": 6.7025812}, "tags": {"addr:city": "Bergheim", "addr:street": "Am Werkstor", "addr:suburb": "Rheidt", "frequency": "50", "name": "Umspannwerk Rommerskirchen", "operator": "Amprion", "operator:wikidata": "Q477318", "operator:wikipedia": "de:Amprion", "power": "substation", "short_name": "Rommerskirchen", "substation": "transmission", "voltage": "380000;220000"}}, {"type": "way", "id": 24842795, "center": {"lat": 50.0023978, "lon": 8.7999636}, "tags": {"barrier": "fence", "location": "outdoor", "name": "Umspannwerk Dietzenbach", "operator": "EVO", "power": "substation", "substation": "transmission", "voltage": "110000"}}, {"type": "way", "id": 25210044, "center": {"lat": 50.8832699, "lon": 6.9333285}, "tags": {"frequency": "50", "name": "Umspannwerk H\u00f6ningen", "operator": "RheinEnergie", "operator:wikidata": "Q2147629", "operator:wikipedia": "de:Rheinenergie", "power": "substation", "source": "survey", "substation": "transmission", "voltage": "110000"}}, {"type": "way", "id": 25426571, "center": {"lat": 50.8288285, "lon": 6.300847}, "tags": {"alt_name": "Umspannwerk Weisweiler", "barrier": "fence", "frequency": "50", "landuse": "industrial", "name": "Umspannanlage Zukunft", "note": "nicht KW Weisweiler", "operator": "Amprion", "power": "substation", "short_name": "UA Zukunft", "substation": "transmission", "voltage": "380000;110000", "wikidata": "Q56209115"}}, {"type": "way", "id": 25617156, "center": {"lat": 50.056937, "lon": 8.2113626}, "tags": {"barrier": "fence", "frequency": "50", "power": "substation", "substation": "transmission", "voltage": "110000"}}, {"type": "way", "id": 25992879, "center": {"lat": 50.9127283, "lon": 6.2162944}, "tags": {"barrier": "fence", "frequency": "50", "landuse": "industrial", "name": "Siersdorf", "operator": "Amprion", "power": "substation", "source:name": "Geonames.org", "substation": "transmission", "voltage": "380000;110000", "wikidata": "Q58735022"}}, {"type": "way", "id": 26500346, "center": {"lat": 49.7460513, "lon": 6.6933701}, "tags": {"barrier": "fence", "frequency": "50", "name": "Station Tarforst", "power": "substation", "substation": "transmission", "voltage": "110000"}}, {"type": "way", "id": 26593929, "center": {"lat": 50.8717744, "lon": 6.4577913}, "tags": {"barrier": "fence", "frequency": "50", "name": "Station Oberzier", "operator": "Amprion", "operator:wikidata": "Q477318", "operator:wikipedia": "de:Amprion", "power": "substation", "substation": "transmission", "voltage": "380000", "wikidata": "Q29167446"}}, {"type": "way", "id": 26593937, "center": {"lat": 50.8132843, "lon": 6.4401835}, "tags": {"barrier": "fence", "frequency": "50", "power": "substation", "substation": "transmission", "voltage": "110000"}}, {"type": "way", "id": 26647878, "center": {"lat": 50.6882006, "lon": 7.0079076}, "tags": {"addr:city": "Alfter", "addr:country": "DE", "addr:postcode": "53347", "addr:street": "L\u00fcsbacher Weg", "addr:suburb": "Witterschlick", "barrier": "fence", "landuse": "industrial", "location": "outdoor", "name": "Station Witterschlick", "nohousenumber": "yes", "operator": "Westnetz", "operator:wikidata": "Q2807462", "operator:wikipedia": "de:Westnetz", "power": "substation", "short_name": "Witterschlick", "substation": "transmission", "voltage": "110000"}}, {"type": "way", "id": 26648203, "center": {"lat": 50.6314145, "lon": 7.0455385}, "tags": {"name": "Station Merl", "operator": "RWE", "operator:wikidata": "Q138133", "power": "substation", "short_name": "Merl", "substation": "transmission", "voltage": "110000"}}, {"type": "way", "id": 26777313, "center": {"lat": 50.6428153, "lon": 7.1368631}, "tags": {"barrier": "fence", "frequency": "50", "name": "Station Lie\u00dfem", "operator": "Amprion", "operator:wikidata": "Q477318", "power": "substation", "short_name": "Lie\u00dfem", "substation": "transmission", "voltage": "380000;110000", "wikidata": "Q52635590"}}, {"type": "way", "id": 26927264, "center": {"lat": 50.9524564, "lon": 6.5959814}, "tags": {"barrier": "fence", "frequency": "50", "name": "Station Paffendorf", "operator": "Amprion", "operator:wikidata": "Q477318", "power": "substation", "source": "bing", "substation": "transmission", "voltage": "380000;110000", "wikidata": "Q58122141"}}, {"type": "way", "id": 27776007, "center": {"lat": 49.2357069, "lon": 6.8398183}, "tags": {"barrier": "fence", "name": "Umspannanlage Geislautern", "power": "substation", "substation": "transmission", "voltage": "110000"}}, {"type": "way", "id": 27871140, "center": {"lat": 50.9990673, "lon": 7.023599}, "tags": {"access": "no", "barrier": "fence", "fixme": "Abgang Bayer X36 nicht erkenntlich", "frequency": "50", "name": "Station D\u00fcnnwald", "power": "substation", "short_name": "D\u00fcnnwald", "substation": "transmission", "voltage": "220000", "wikidata": "Q52853185"}}, {"type": "way", "id": 27919734, "center": {"lat": 51.0909439, "lon": 6.7097252}, "tags": {"fenced": "yes", "name": "Station Gohrpunkt", "operator": "Amprion", "operator:wikidata": "Q477318", "operator:wikipedia": "de:Amprion", "power": "substation", "substation": "transmission", "voltage": "220000;110000", "wikidata": "Q53061443"}}, {"type": "way", "id": 28369264, "center": {"lat": 49.8477769, "lon": 8.636164}, "tags": {"access": "no", "barrier": "fence", "name": "Umspannanlage S\u00fcd", "operator": "HSE HEAG S\u00fcdhessische Energie AG", "power": "substation", "substation": "transmission", "voltage": "110000", "wikidata": "Q65721236"}}, {"type": "way", "id": 28684009, "center": {"lat": 49.9112409, "lon": 8.8491178}, "tags": {"frequency": "50", "power": "substation", "substation": "transmission", "voltage": "110000"}}, {"type": "way", "id": 28713671, "center": {"lat": 50.7363988, "lon": 7.1462645}, "tags": {"barrier": "fence", "frequency": "50", "name": "Station Beuel", "operator": "Westnetz", "operator:wikidata": "Q2807462", "power": "substation", "short_name": "Beuel", "substation": "transmission", "voltage": "110000"}}, {"type": "way", "id": 29176354, "center": {"lat": 51.0848601, "lon": 6.7787801}, "tags": {"fenced": "yes", "name": "Umspannwerk Delhoven", "power": "substation", "substation": "transmission", "voltage": "110000"}}, {"type": "way", "id": 29374518, "center": {"lat": 50.9043464, "lon": 7.0455643}, "tags": {"barrier": "fence", "frequency": "50", "name": "Umspannwerk Gremberghoven", "operator": "RheinEnergie", "operator:wikidata": "Q2147629", "operator:wikipedia": "de:Rheinenergie", "power": "substation", "short_name": "Gremberghoven", "source": "yahoo", "substation": "transmission", "voltage": "110000"}}, {"type": "way", "id": 29374542, "center": {"lat": 50.9055599, "lon": 7.0473413}, "tags": {"barrier": "fence", "frequency": "50", "name": "Station Gremberghoven", "operator": "RWE", "operator:wikidata": "Q138133", "operator:wikipedia": "de:RWE", "power": "substation", "short_name": "Gremberghoven", "source": "yahoo", "substation": "transmission", "voltage": "220000;110000"}}, {"type": "way", "id": 29731224, "center": {"lat": 50.8061934, "lon": 7.1726933}, "tags": {"barrier": "fence", "frequency": "50", "name": "Station Mannstaedt", "operator": "Westnetz", "operator:wikidata": "Q2807462", "power": "substation", "short_name": "Mannstaedt", "substation": "transmission", "voltage": "110000"}}, {"type": "way", "id": 30135791, "center": {"lat": 49.9668091, "lon": 8.2200258}, "tags": {"barrier": "fence", "frequency": "50", "name": "Umspannwerk Mainz-Bretzenheim", "operator": "Kraftwerke Mainz-Wiesbaden AG", "power": "substation", "substation": "transmission", "voltage": "110000"}}, {"type": "way", "id": 31135714, "center": {"lat": 49.321782, "lon": 7.1169752}, "tags": {"barrier": "fence", "frequency": "50", "name": "Umspannanlage Heinitz", "operator": "VSE", "operator:wikidata": "Q15852339", "phone": "+49 681 6072003", "power": "substation", "substation": "transmission", "voltage": "110000;35000"}}, {"type": "way", "id": 31762305, "center": {"lat": 51.1471157, "lon": 6.7725072}, "tags": {"frequency": "50", "name": "Station Norf", "power": "substation", "substation": "transmission", "voltage": "220000;110000", "wikidata": "Q58100211"}}, {"type": "way", "id": 32148946, "center": {"lat": 50.8337789, "lon": 6.9633219}, "tags": {"frequency": "50", "name": "Station Bollenacker", "operator": "RWE", "operator:wikidata": "Q138133", "power": "substation", "short_name": "Bollenacker", "source": "yahoo", "substation": "transmission", "voltage": "220000;110000", "wikidata": "Q52692615"}}, {"type": "way", "id": 32275585, "center": {"lat": 49.6439088, "lon": 8.6268614}, "tags": {"barrier": "fence", "frequency": "50", "landuse": "industrial", "name": "Umspannwerk Heppenheim", "operator": "HEAG", "power": "substation", "start_date": "1952", "substation": "transmission", "voltage": "110000;20000"}}, {"type": "way", "id": 32346955, "center": {"lat": 49.6712613, "lon": 8.6040369}, "tags": {"fenced": "yes", "operator": "RWE", "operator:wikidata": "Q138133", "power": "substation", "substation": "transmission", "voltage": "110000"}}, {"type": "way", "id": 32346957, "center": {"lat": 49.760711, "lon": 8.5984624}, "tags": {"barrier": "wall", "description:de": "\u00dcbergang zu Erdkabel.", "power": "substation", "substation": "transmission", "voltage": "110000"}}, {"type": "way", "id": 32640453, "center": {"lat": 49.5069737, "lon": 8.5231061}, "tags": {"barrier": "fence", "frequency": "50", "name": "MVV Netze Umspannwerk 3 K\u00e4fertal", "operator": "MVV Netze GmbH", "operator:short": "MVV", "operator:wikidata": "Q1882061", "operator:wikipedia": "de:MVV Energie", "phone": "+49 621 2902773", "power": "substation", "substation": "transmission", "voltage": "110000"}}, {"type": "way", "id": 32675761, "center": {"lat": 50.3900326, "lon": 6.5317124}, "tags": {"barrier": "fence", "name": "Station Dahlem", "operator": "Amprion;Westnetz", "power": "substation", "substation": "transmission", "voltage": "380000;110000", "wikidata": "Q52778108"}}, {"type": "way", "id": 32993727, "center": {"lat": 50.9884155, "lon": 6.6648311}, "tags": {"description": "keine 220 kV Trafos mehr vorhanden", "frequency": "50", "name": "KW Niederau\u00dfem", "operator": "RWE Power", "operator:wikidata": "Q138133", "power": "substation", "short_name": "Niederau\u00dfem", "substation": "transmission", "voltage": "110000", "wikidata": "Q52636035"}}, {"type": "way", "id": 33814365, "center": {"lat": 49.5210148, "lon": 6.0187757}, "tags": {"barrier": "fence", "frequency": "50", "name": "Schifflange", "operator": "Creos", "operator:wikidata": "Q21036415", "operator:wikipedia": "fr:Creos", "power": "substation", "substation": "transmission", "voltage": "220000;65000", "wikidata": "Q52491611"}}, {"type": "way", "id": 34171463, "center": {"lat": 50.9749505, "lon": 6.6926686}, "tags": {"name": "Station Oberau\u00dfem", "operator": "RWE", "operator:wikidata": "Q138133", "operator:wikipedia": "de:RWE", "power": "substation", "substation": "transmission", "voltage": "110000"}}, {"type": "way", "id": 34289171, "center": {"lat": 50.9951099, "lon": 6.5549183}, "tags": {"barrier": "fence", "name": "Station Bedburg", "operator": "Westnetz", "operator:wikidata": "Q2807462", "power": "substation", "substation": "transmission", "voltage": "110000"}}, {"type": "way", "id": 34479547, "center": {"lat": 50.6299651, "lon": 6.4541151}, "tags": {"barrier": "fence", "fixme": "name", "frequency": "50", "operator": "Westnetz", "power": "substation", "substation": "transmission", "voltage": "110000"}}, {"type": "way", "id": 34743890, "center": {"lat": 50.4229981, "lon": 7.4812796}, "tags": {"alt_name": "Engerser Feld", "barrier": "fence", "name": "Station Neuwied", "operator": "RWE", "operator:wikidata": "Q138133", "operator:wikipedia": "de:RWE", "power": "substation", "substation": "transmission", "voltage": "110000"}}, {"type": "way", "id": 34956770, "center": {"lat": 49.7029515, "lon": 8.6087669}, "tags": {"power": "substation", "substation": "transmission", "voltage": "110000"}}, {"type": "way", "id": 35908199, "center": {"lat": 49.5028227, "lon": 8.4573224}, "tags": {"frequency": "50", "name": "Umspannwerk 1", "power": "substation", "substation": "transmission", "voltage": "110000"}}, {"type": "way", "id": 38661452, "center": {"lat": 50.0973388, "lon": 8.4718525}, "tags": {"frequency": "50", "name": "Umspannwerk Kriftel", "operator": "Amprion", "operator:wikidata": "Q477318", "power": "substation", "start_date": "2004", "substation": "transmission", "voltage": "380000", "wikidata": "Q51553619"}}, {"type": "way", "id": 39896654, "center": {"lat": 50.8475642, "lon": 6.3131507}, "tags": {"barrier": "fence", "frequency": "50", "power": "substation", "substation": "transmission", "voltage": "110000"}}, {"type": "way", "id": 41339133, "center": {"lat": 50.986154, "lon": 6.0509128}, "tags": {"barrier": "fence", "name": "Station Stahe Am Wasberg", "operator": "Westnetz", "power": "substation", "substation": "transmission", "voltage": "110000"}}, {"type": "way", "id": 42097854, "center": {"lat": 49.7247507, "lon": 6.8137099}, "tags": {"barrier": "fence", "frequency": "50", "name": "Station Osburg", "operator": "Amprion; Westnetz", "power": "substation", "substation": "transmission", "voltage": "380000;110000", "wikidata": "Q58107817"}}, {"type": "way", "id": 42423415, "center": {"lat": 50.6177344, "lon": 7.0129017}, "tags": {"barrier": "fence", "frequency": "50", "name": "Meckenheim", "operator": "Amprion", "operator:wikidata": "Q2807462", "power": "substation", "short_name": "Meckenheim", "substation": "transmission", "voltage": "380000;110000", "wikidata": "Q55205549"}}, {"type": "way", "id": 44833842, "center": {"lat": 50.1291567, "lon": 8.671706}, "tags": {"addr:city": "Frankfurt am Main", "addr:country": "DE", "addr:housenumber": "147", "addr:postcode": "60323", "addr:street": "Eschersheimer Landstra\u00dfe", "building": "industrial", "building:levels": "3", "frequency": "50", "location": "indoor", "name": "Umspannwerk L\u00fcbecker Stra\u00dfe", "operator": "Netzdienste Rhein-Main", "operator:short": "NRM", "operator:wikidata": "Q124463068", "power": "substation", "ref": "UW 21", "roof:shape": "flat", "substation": "transmission", "voltage": "110000;10000"}}, {"type": "way", "id": 46584363, "center": {"lat": 49.2904016, "lon": 8.6739288}, "tags": {"barrier": "fence", "frequency": "50", "name": "Umspannwerk Wiesloch", "operator": "TransnetBW;Netze BW", "operator:wikidata": "Q1672772;Q16854888", "operator:wikipedia": "de:TransnetBW;de:Netze BW", "power": "substation", "substation": "transmission", "voltage": "380000;220000;110000"}}, {"type": "way", "id": 47481761, "center": {"lat": 50.9520432, "lon": 7.5742851}, "tags": {"barrier": "fence", "name": "Wiehl", "operator": "Westnetz", "power": "substation", "substation": "transmission", "voltage": "110000"}}, {"type": "way", "id": 48057110, "center": {"lat": 49.2502698, "lon": 8.4409751}, "tags": {"description": "Gasisolierte Schaltanlage (GIS) Philippsburg", "frequency": "50", "gas_insulated": "yes", "location": "indoor", "name": "Philippsburg", "operator": "TransnetBW GmbH", "operator:wikidata": "Q1672772", "operator:wikipedia": "de:TransnetBW", "power": "substation", "start_date": "2021-07-13", "substation": "transmission", "voltage": "380000"}}, {"type": "way", "id": 49577401, "center": {"lat": 51.124582, "lon": 6.8013741}, "tags": {"access": "no", "barrier": "fence", "frequency": "50", "landuse": "industrial", "name": "Station Sankt Peter", "operator": "RWE", "operator:wikidata": "Q138133", "operator:wikipedia": "de:RWE", "power": "substation", "substation": "transmission", "voltage": "220000;110000"}}, {"type": "way", "id": 49577448, "center": {"lat": 51.1227968, "lon": 6.8010294}, "tags": {"access": "no", "barrier": "fence", "frequency": "50", "name": "Station Sankt Peter", "operator": "RWE", "operator:wikidata": "Q138133", "operator:wikipedia": "de:RWE", "power": "substation", "substation": "transmission", "voltage": "380000;220000"}}, {"type": "way", "id": 50389714, "center": {"lat": 50.5494851, "lon": 7.1205538}, "tags": {"name": "Station Neuenahr", "operator": "RWE Net", "power": "substation", "source": "bing", "substation": "transmission", "voltage": "110000"}}, {"type": "way", "id": 50898216, "center": {"lat": 50.4061906, "lon": 8.0658971}, "tags": {"barrier": "fence", "name": "Station Limburg", "operator": "Amprion;S\u00fcwag", "power": "substation", "substation": "transmission", "voltage": "380000;110000", "wikidata": "Q55194921"}}, {"type": "way", "id": 54359256, "center": {"lat": 49.3757454, "lon": 6.9962061}, "tags": {"access": "no", "area": "yes", "barrier": "fence", "frequency": "50", "name": "Umspannwerk Uchtelfangen", "operator": "Amprion", "operator:wikidata": "Q477318", "power": "substation", "substation": "transmission", "voltage": "380000;220000;110000", "wikidata": "Q1515772"}}, {"type": "way", "id": 58672053, "center": {"lat": 50.0947567, "lon": 8.7662463}, "tags": {"addr:city": "Offenbach am Main", "addr:housenumber": "11", "addr:postcode": "63069", "addr:street": "Friedrichsring", "building": "service", "building:levels": "1", "name": "UW Friedrichsring", "operator": "Energieversorgung Offenbach", "operator:wikidata": "Q1341471", "power": "substation", "roof:levels": "1", "roof:shape": "hipped", "substation": "transmission", "voltage": "110kv/20kv/400v"}}, {"type": "way", "id": 62061947, "center": {"lat": 50.0848225, "lon": 8.6279469}, "tags": {"building": "industrial", "frequency": "50", "location": "indoor", "name": "Umspannwerk Goldsteinstra\u00dfe", "operator": "Netzdienste Rhein-Main", "operator:short": "NRM", "operator:wikidata": "Q124463068", "power": "substation", "ref": "UW 63", "substation": "transmission", "voltage": "110000;10000"}}, {"type": "way", "id": 62061952, "center": {"lat": 50.0922869, "lon": 8.6185279}, "tags": {"addr:city": "Frankfurt am Main", "addr:country": "DE", "addr:postcode": "65933", "addr:street": "Griesheimer Stadtweg", "frequency": "50", "name": "Umspannwerk Frankfurt S\u00fcdwest", "note": "Umspannwerk Griesheim", "operator": "TenneT TSO", "operator:wikidata": "Q1662830", "power": "substation", "start_date": "1976", "substation": "transmission", "voltage": "380000", "website": "https://e12m.energie-und-management.de/nachrichten/detail/mainova-und-tennet-bauen-an-frankfurts-stromnetz-155996", "wikidata": "Q53052906"}}, {"type": "way", "id": 66764943, "center": {"lat": 49.9705141, "lon": 6.9196007}, "tags": {"barrier": "fence", "location": "outdoor", "name": "Station Wengerohr", "operator": "Amprion; Westnetz", "power": "substation", "substation": "transmission", "voltage": "220000;110000"}}, {"type": "way", "id": 76371593, "center": {"lat": 50.912115, "lon": 6.4071365}, "tags": {"barrier": "fence", "name": "Station KFA", "operator": "RWE", "power": "substation", "substation": "transmission", "voltage": "110000"}}, {"type": "way", "id": 80589162, "center": {"lat": 50.9064233, "lon": 6.3593135}, "tags": {"barrier": "fence", "frequency": "50", "landuse": "industrial", "name": "Station J\u00fclich Kinofilm", "note": "hei\u00dft wirklich so!!!", "operator": "Westnetz", "operator:wikidata": "Q2807462", "power": "substation", "source": "survey", "substation": "transmission", "voltage": "110000"}}, {"type": "way", "id": 82310607, "center": {"lat": 49.3648523, "lon": 6.7555161}, "tags": {"barrier": "fence", "frequency": "50", "name": "Diefflen", "operator": "VSE", "power": "substation", "substation": "transmission", "voltage": "220000", "wikidata": "Q52793446"}}, {"type": "way", "id": 82773910, "center": {"lat": 49.2912013, "lon": 6.7728936}, "tags": {"frequency": "50", "name": "Umspannanlage Ensdorf", "operator": "Amprion", "power": "substation", "ref:FR:RTE": ".ENSD", "substation": "transmission", "voltage": "380000;220000;110000", "wikidata": "Q52862176"}}, {"type": "way", "id": 87607280, "center": {"lat": 50.6564378, "lon": 6.8180112}, "tags": {"location": "outdoor", "name": "Umspannwerk Station Euskirchen", "operator": "Westnetz", "operator:wikidata": "Q2807462", "power": "substation", "substation": "transmission", "voltage": "110000"}}, {"type": "way", "id": 87611958, "center": {"lat": 50.708922, "lon": 6.6413345}, "tags": {"barrier": "fence", "power": "substation", "source": "NRW Orthophoto Juni 2019", "substation": "transmission", "voltage": "110000"}}, {"type": "way", "id": 87618348, "center": {"lat": 50.6556418, "lon": 6.7671915}, "tags": {"barrier": "fence", "landuse": "industrial", "location": "outdoor", "name": "Umspannwerk Station Kommerner Stra\u00dfe", "operator": "Westnetz", "operator:wikidata": "Q2807462", "power": "substation", "substation": "transmission", "voltage": "110000"}}, {"type": "way", "id": 87872774, "center": {"lat": 50.0591776, "lon": 8.8104514}, "tags": {"addr:city": "Heusenstamm", "addr:housenumber": "12", "addr:postcode": "63150", "addr:street": "Frankfurter Stra\u00dfe", "building": "yes", "location": "indoor", "name": "UW Heusenstamm 110 KV", "operator": "Energieversorgung Offenbach", "operator:wikidata": "Q1341471", "power": "substation", "substation": "transmission", "voltage": "110kv"}}, {"type": "way", "id": 88075020, "center": {"lat": 50.9013497, "lon": 5.9666282}, "tags": {"barrier": "fence", "frequency": "50", "name": "150 kV Beersdal", "power": "substation", "substation": "transmission", "voltage": "150000"}}, {"type": "way", "id": 88284283, "center": {"lat": 51.0196717, "lon": 7.5564147}, "tags": {"barrier": "fence", "frequency": "50", "location": "outdoor", "name": "Gummersbach", "operator": "Westnetz", "operator:wikidata": "Q2807462", "power": "substation", "substation": "transmission", "voltage": "110000"}}, {"type": "way", "id": 88455858, "center": {"lat": 50.7683948, "lon": 7.4694036}, "tags": {"barrier": "fence", "power": "substation", "source": "WECO Pyrotechnische Fabrik GmbH", "substation": "transmission", "voltage": "110000"}}, {"type": "way", "id": 88605632, "center": {"lat": 51.0023884, "lon": 6.7905591}, "tags": {"name": "Station Pulheim", "operator": "Westnetz", "operator:wikidata": "Q2807462", "power": "substation", "source": "bing", "substation": "transmission", "voltage": "110000"}}, {"type": "way", "id": 88714859, "center": {"lat": 51.0040536, "lon": 6.2220723}, "tags": {"barrier": "fence", "frequency": "50", "operator": "Westnetz", "power": "substation", "source": "bing", "substation": "transmission", "voltage": "110000"}}, {"type": "way", "id": 88714863, "center": {"lat": 51.0982464, "lon": 6.1413442}, "tags": {"barrier": "fence", "operator": "Westnetz", "power": "substation", "source": "Bing", "substation": "transmission", "voltage": "110000"}}, {"type": "way", "id": 89043564, "center": {"lat": 50.8422869, "lon": 7.9857988}, "tags": {"frequency": "50", "name": "Station Eiserfeld", "operator": "Amprion", "operator:wikidata": "Q477318", "operator:wikipedia": "de:Amprion", "power": "substation", "source": "Aerowest", "substation": "transmission", "voltage": "220000", "wikidata": "Q52857451"}}, {"type": "way", "id": 89176939, "center": {"lat": 49.9586343, "lon": 6.2111151}, "tags": {"barrier": "fence", "frequency": "50", "name": "SA Bauler", "note": "Schaltanlage, keine Umspannanlage", "operator": "Amprion", "power": "substation", "source": "bing", "substation": "transmission", "voltage": "220000"}}, {"type": "way", "id": 89176956, "center": {"lat": 49.9530902, "lon": 6.1779509}, "tags": {"barrier": "fence", "name": "Vianden", "operator": "SEO", "power": "substation", "source": "bing", "substation": "transmission", "voltage": "220000"}}, {"type": "way", "id": 89215122, "center": {"lat": 49.3601714, "lon": 6.7660925}, "tags": {"barrier": "fence", "frequency": "50", "name": "Station Saarwellingen", "operator": "Amprion", "operator:wikidata": "Q477318", "power": "substation", "substation": "transmission", "voltage": "220000;110000", "wikidata": "Q58213520"}}, {"type": "way", "id": 89352550, "center": {"lat": 49.3576545, "lon": 7.2403989}, "tags": {"barrier": "fence", "frequency": "50", "name": "Schaltanlage St. Barbara", "operator": "Amprion / STEAG", "power": "substation", "source": "Bing", "substation": "transmission", "voltage": "380000;220000;110000;65000"}}, {"type": "way", "id": 89477547, "center": {"lat": 49.2851284, "lon": 7.1482637}, "tags": {"barrier": "fence", "frequency": "50", "name": "UA Rohrbach", "power": "substation", "substation": "transmission", "voltage": "110000"}}, {"type": "way", "id": 89528789, "center": {"lat": 50.8696036, "lon": 7.6093737}, "tags": {"barrier": "fence", "operator": "Westnetz", "power": "substation", "substation": "transmission", "voltage": "110000"}}, {"type": "way", "id": 89614507, "center": {"lat": 49.454562, "lon": 6.6300937}, "tags": {"barrier": "fence", "frequency": "50", "name": "UA Merzig", "operator": "VSE", "power": "substation", "substation": "transmission", "voltage": "110000"}}, {"type": "way", "id": 89661373, "center": {"lat": 50.9278201, "lon": 7.6459129}, "tags": {"name": "Umspannwerk Br\u00fccherm\u00fchle", "operator": "Westnetz", "power": "substation", "substation": "transmission", "voltage": "110000"}}, {"type": "way", "id": 89766688, "center": {"lat": 50.8534794, "lon": 7.3791585}, "tags": {"barrier": "fence", "operator": "Westnetz", "power": "substation", "source": "bing", "substation": "transmission", "voltage": "110000"}}, {"type": "way", "id": 90109304, "center": {"lat": 49.3574938, "lon": 6.7413675}, "tags": {"barrier": "fence", "frequency": "50", "name": "UA Dillinger H\u00fctte Mitte", "operator": "Amprion", "power": "substation", "substation": "transmission", "voltage": "220000", "wikidata": "Q52845323"}}, {"type": "way", "id": 90148336, "center": {"lat": 50.9237281, "lon": 8.0204847}, "tags": {"barrier": "fence", "frequency": "50", "location": "outdoor", "name": "Setzer Wiese", "operator": "RWE", "operator:wikidata": "Q138133", "power": "substation", "substation": "transmission", "voltage": "220000", "wikidata": "Q58221048"}}, {"type": "way", "id": 91655767, "center": {"lat": 49.8530159, "lon": 6.792523}, "tags": {"barrier": "fence", "name": "Station Bekond", "power": "substation", "substation": "transmission", "voltage": "110000"}}, {"type": "way", "id": 91765358, "center": {"lat": 50.3897978, "lon": 7.4033406}, "tags": {"barrier": "fence", "operator": "RWE Energie AG", "power": "substation", "source": "bing", "substation": "transmission", "voltage": "110000"}}, {"type": "way", "id": 91765386, "center": {"lat": 50.0388811, "lon": 7.1209118}, "tags": {"barrier": "fence", "name": "Station P\u00fcnderich", "operator": "Westnetz", "power": "substation", "substation": "transmission", "voltage": "110000"}}, {"type": "way", "id": 92070358, "center": {"lat": 49.8110373, "lon": 6.8434982}, "tags": {"location": "outdoor", "name": "Station Detzem", "power": "substation", "substation": "transmission", "voltage": "110000"}}, {"type": "way", "id": 92074857, "center": {"lat": 49.7104908, "lon": 6.7022457}, "tags": {"barrier": "fence", "name": "Station Gusterath", "power": "substation", "source": "bing", "substation": "transmission", "voltage": "110000"}}, {"type": "way", "id": 92186550, "center": {"lat": 50.9060414, "lon": 6.7638448}, "tags": {"barrier": "fence", "power": "substation", "source": "bing", "substation": "transmission", "voltage": "110000"}}, {"type": "way", "id": 92936047, "center": {"lat": 49.6226657, "lon": 7.2807693}, "tags": {"barrier": "fence", "name": "Station Ruschberg", "operator": "Westnetz", "power": "substation", "substation": "transmission", "voltage": "110000"}}, {"type": "way", "id": 93351747, "center": {"lat": 49.2724494, "lon": 6.7264525}, "tags": {"barrier": "fence", "name": "\u00dcberherrn", "power": "substation", "substation": "transmission", "voltage": "110000;20000"}}, {"type": "way", "id": 94059594, "center": {"lat": 50.9770053, "lon": 6.278752}, "tags": {"barrier": "fence", "operator": "Westnetz", "power": "substation", "source": "bing", "substation": "transmission", "voltage": "110000"}}, {"type": "way", "id": 94059599, "center": {"lat": 51.0695641, "lon": 6.5318025}, "tags": {"barrier": "fence", "power": "substation", "source": "bing", "substation": "transmission", "voltage": "110000"}}, {"type": "way", "id": 95233545, "center": {"lat": 49.5508659, "lon": 6.1390821}, "tags": {"access": "no", "barrier": "fence", "name": "Berchem", "operator": "CREOS; SNCFL", "power": "substation", "substation": "transmission", "voltage": "220000", "wikidata": "Q52637884"}}, {"type": "way", "id": 95346117, "center": {"lat": 50.9302861, "lon": 6.7041491}, "tags": {"barrier": "fence", "name": "Station Ichendorf", "operator": "RWE", "power": "substation", "source": "bing", "substation": "transmission", "voltage": "110000"}}, {"type": "way", "id": 95346134, "center": {"lat": 50.9387488, "lon": 6.5275808}, "tags": {"barrier": "fence", "name": "Schaltanlage Tollhausen", "operator": "Westnetz", "operator:wikidata": "Q2807462", "power": "substation", "substation": "transmission", "voltage": "110000"}}, {"type": "way", "id": 95434457, "center": {"lat": 51.0359421, "lon": 6.612359}, "tags": {"barrier": "fence", "frequency": "50", "power": "substation", "source": "bing", "substation": "transmission", "voltage": "380000;220000;110000"}}, {"type": "way", "id": 95744588, "center": {"lat": 50.110594, "lon": 8.7118256}, "tags": {"addr:city": "Frankfurt am Main", "addr:country": "DE", "addr:housenumber": "1", "addr:postcode": "60314", "addr:street": "Osthafenplatz", "building": "yes", "frequency": "50", "location": "indoor", "name": "Umspannwerk Osthafenplatz", "operator": "Netzdienste Rhein-Main", "operator:short": "NRM", "operator:wikidata": "Q124463068", "operator:wikipedia": "de:Mainova", "power": "substation", "ref": "UW 43", "substation": "transmission", "voltage": "110000;30000;10000"}}, {"type": "way", "id": 100812630, "center": {"lat": 49.3309012, "lon": 7.0312496}, "tags": {"barrier": "fence", "operator": "Creos", "operator:wikidata": "Q19900544", "power": "substation", "substation": "transmission", "voltage": "110000;65000"}}, {"type": "way", "id": 116701004, "center": {"lat": 51.0114198, "lon": 6.9772475}, "tags": {"name": "Station Bayer X 36", "power": "substation", "substation": "transmission", "voltage": "220000"}}, {"type": "way", "id": 121898368, "center": {"lat": 49.8783192, "lon": 6.9509512}, "tags": {"barrier": "fence", "location": "outdoor", "power": "substation", "substation": "transmission", "voltage": "110000"}}, {"type": "way", "id": 124387412, "center": {"lat": 50.3493577, "lon": 7.9017349}, "tags": {"access": "no", "barrier": "fence", "landuse": "industrial", "name": "Umspannwerk Holzappel", "power": "substation", "substation": "transmission", "voltage": "110000"}}, {"type": "way", "id": 127604371, "center": {"lat": 50.5718399, "lon": 6.7611035}, "tags": {"barrier": "fence", "fixme": "name", "operator": "Westnetz", "power": "substation", "substation": "transmission", "voltage": "110000"}}, {"type": "way", "id": 132814303, "center": {"lat": 51.0103479, "lon": 7.9378532}, "tags": {"frequency": "50", "location": "outdoor", "name": "Umspannwerk Altenkleusheim", "operator": "Amprion;Westnetz", "power": "substation", "substation": "transmission", "voltage": "220000", "wikidata": "Q52528761"}}, {"type": "way", "id": 132816119, "center": {"lat": 49.2577492, "lon": 6.7967441}, "tags": {"barrier": "fence", "name": "Schaffhausen", "power": "substation", "substation": "transmission", "voltage": "110000"}}, {"type": "way", "id": 140924713, "center": {"lat": 49.4792207, "lon": 8.4756083}, "tags": {"addr:housenumber": "5", "addr:postcode": "68165", "addr:street": "Galileistra\u00dfe", "building": "service", "name": "MVV Umspannwerk 2 Galileistra\u00dfe", "operator": "MVV Netze", "operator:short": "MVV", "operator:wikidata": "Q128479606", "operator:wikipedia": "de:MVV Energie", "power": "substation", "roof:shape": "flat", "substation": "transmission", "voltage": "110000"}}, {"type": "way", "id": 141161422, "center": {"lat": 51.0788551, "lon": 6.6218004}, "tags": {"building": "yes", "power": "substation", "substation": "transmission", "voltage": "110000"}}, {"type": "way", "id": 142365387, "center": {"lat": 49.4093237, "lon": 6.9013404}, "tags": {"access": "no", "barrier": "fence", "frequency": "50", "name": "UA Lebach", "power": "substation", "substation": "transmission", "voltage": "110000"}}, {"type": "way", "id": 145680894, "center": {"lat": 49.7489702, "lon": 6.6205039}, "tags": {"access": "no", "barrier": "fence", "frequency": "50", "layer": "-1", "name": "Station Trier", "operator": "Amprion", "operator:wikidata": "Q477318", "power": "substation", "substation": "transmission", "voltage": "220000", "wikidata": "Q64991468"}}, {"type": "way", "id": 146811980, "center": {"lat": 49.4952362, "lon": 6.1103}, "tags": {"barrier": "fence", "name": "Poste Riedgen", "operator": "CREOS", "power": "substation", "substation": "transmission", "voltage": "65000"}}, {"type": "way", "id": 147213229, "center": {"lat": 50.3310163, "lon": 7.702295}, "tags": {"barrier": "fence", "name": "Umspannanlage Bad Ems", "operator": "Westnetz; S\u00fcwag", "power": "substation", "substation": "transmission", "voltage": "110000"}}, {"type": "way", "id": 147521567, "center": {"lat": 49.815735, "lon": 8.5884243}, "tags": {"access": "no", "barrier": "fence", "frequency": "50", "name": "Umspannanlage Pfungstadt", "operator": "Amprion", "operator:wikidata": "Q477318", "power": "substation", "short_name": "Pfungstadt", "substation": "transmission", "voltage": "380000;110000", "wikidata": "Q58127621"}}, {"type": "way", "id": 149981427, "center": {"lat": 49.9571359, "lon": 7.948628}, "tags": {"barrier": "fence", "frequency": "50", "name": "Umspannwerk Bingen-Kempten", "power": "substation", "substation": "transmission", "voltage": "110000;20000"}}, {"type": "way", "id": 149987048, "center": {"lat": 49.6335883, "lon": 8.4193542}, "tags": {"access": "no", "barrier": "fence", "frequency": "50", "name": "Station B\u00fcrstadt", "note": "Dieses Umspannwerk habe ich eher zur Abschreckung so genau gemappt. Andere hatten angefangen und dabei insbesondere bei den Transformatoren diverse Fehler gemacht. Ich finde, diese Detailierung lohnt sich nicht.", "operator": "Amprion", "operator:wikidata": "Q477318", "power": "substation", "substation": "transmission", "voltage": "380000;220000", "wikidata": "Q52694490"}}, {"type": "way", "id": 149987052, "center": {"lat": 49.6388139, "lon": 8.4175698}, "tags": {"barrier": "fence", "frequency": "50", "name": "Umspannanlage Rosengarten", "operator": "EWR", "operator:wikidata": "Q1276508", "operator:wikipedia": "de:EWR AG", "power": "substation", "substation": "transmission", "voltage": "110000"}}, {"type": "way", "id": 150126865, "center": {"lat": 49.9306978, "lon": 8.6719003}, "tags": {"barrier": "fence", "frequency": "50", "name": "Umspannanlage Leonhardstanne", "operator": "e-netz S\u00fcdhessen", "operator:wikidata": "Q17353510", "power": "substation", "substation": "transmission", "voltage": "110000", "wikidata": "Q55479623"}}, {"type": "way", "id": 151967290, "center": {"lat": 49.9225682, "lon": 6.4750458}, "tags": {"access": "no", "barrier": "fence", "frequency": "50", "name": "Station Niederstedem", "operator": "Amprion; Westnetz", "power": "substation", "substation": "transmission", "voltage": "380000;220000;110000", "wikidata": "Q58052602"}}, {"type": "way", "id": 151967291, "center": {"lat": 49.828987, "lon": 6.7022905}, "tags": {"barrier": "fence", "frequency": "50", "name": "Station Quint", "operator": "Amprion; Westnetz", "power": "substation", "substation": "transmission", "voltage": "220000;110000", "wikidata": "Q58173548"}}, {"type": "way", "id": 151967292, "center": {"lat": 49.6416524, "lon": 6.5398056}, "tags": {"barrier": "fence", "frequency": "50", "landuse": "industrial", "name": "Station Tobiashaus", "operator": "Westnetz", "power": "substation", "substation": "transmission", "voltage": "110000"}}, {"type": "way", "id": 152018146, "center": {"lat": 49.3694937, "lon": 7.2357783}, "tags": {"access": "no", "barrier": "fence", "frequency": "50", "name": "Mittelbexbach", "operator": "Amprion", "operator:wikidata": "Q477318", "power": "substation", "source": "NEP 2014", "substation": "transmission", "voltage": "380000"}}, {"type": "way", "id": 152022992, "center": {"lat": 49.810381, "lon": 7.7922059}, "tags": {"barrier": "fence", "frequency": "50", "name": "Umspannwerk Niederhausen", "not:operator:wikidata": "Q2807462", "operator": "Westnetz", "power": "substation", "source:name": "Geonames.org", "substation": "transmission", "voltage": "110000", "wikidata": "Q58050833"}}, {"type": "way", "id": 152107810, "center": {"lat": 49.5778331, "lon": 8.0683118}, "tags": {"frequency": "50", "name": "Umspannwerk Kerzenheim", "operator": "Pfalzwerke", "power": "substation", "substation": "transmission", "voltage": "110000", "wikidata": "Q53269942"}}, {"type": "way", "id": 152107815, "center": {"lat": 49.4826808, "lon": 7.7290339}, "tags": {"barrier": "fence", "frequency": "50", "name": "Otterbach", "operator": "Amprion", "operator:wikidata": "Q477318", "operator:wikipedia": "de:Amprion", "power": "substation", "substation": "transmission", "voltage": "380000;110000", "wikidata": "Q58111885"}}, {"type": "way", "id": 152403632, "center": {"lat": 50.7683758, "lon": 7.8634118}, "tags": {"alt_name": "Umspannwerk Dauersberg", "barrier": "fence", "frequency": "50", "name": "Station Dauersberg", "operator": "RWE", "operator:wikidata": "Q138133", "power": "substation", "substation": "transmission", "voltage": "380000;220000;110000", "wikidata": "Q15133022"}}, {"type": "way", "id": 152403711, "center": {"lat": 50.3851418, "lon": 7.6404561}, "tags": {"barrier": "fence", "landuse": "industrial", "name": "Station Urbar", "power": "substation", "substation": "transmission", "voltage": "110000"}}, {"type": "way", "id": 152924498, "center": {"lat": 49.4212262, "lon": 8.3522609}, "tags": {"barrier": "fence", "frequency": "50", "name": "UA Mutterstadt", "operator": "Amprion", "operator:wikidata": "Q477318", "power": "substation", "substation": "transmission", "voltage": "220000;110000"}}, {"type": "way", "id": 152924501, "center": {"lat": 49.4252485, "lon": 8.3579204}, "tags": {"access": "no", "barrier": "fence", "frequency": "50", "name": "Umspannwerk Mutterstadt", "operator": "Pfalzwerke Netz AG", "operator:wikidata": "Q2082280", "power": "substation", "substation": "transmission", "voltage": "110000"}}, {"type": "way", "id": 152973139, "center": {"lat": 49.4403761, "lon": 8.5469721}, "tags": {"barrier": "fence", "frequency": "50", "name": "Amprion Station Rheinau", "operator": "Amprion", "operator:wikidata": "Q477318", "power": "substation", "substation": "transmission", "voltage": "380000;110000", "wikidata": "Q32860686", "wikipedia": "de:Umspannwerk Mannheim-Rheinau"}}, {"type": "way", "id": 153089322, "center": {"lat": 49.4355613, "lon": 8.5444822}, "tags": {"barrier": "fence", "frequency": "50", "landuse": "industrial", "location": "outdoor", "name": "Netze BW Station Rheinau", "operator": "Netze BW", "operator:wikidata": "Q16854888", "operator:wikipedia": "de:Netze BW", "power": "substation", "ref": "RHEIN", "substation": "transmission", "voltage": "110000"}}, {"type": "way", "id": 154225739, "center": {"lat": 49.8333863, "lon": 8.4870458}, "tags": {"name": "Umspannwerk Goddelau", "note:de": "Kraftwerke Mainz-Wiesbaden AG", "operator": "SWM-Netze EnRM", "power": "substation", "substation": "transmission", "voltage": "110000"}}, {"type": "way", "id": 156402422, "center": {"lat": 49.3047681, "lon": 7.3194091}, "tags": {"barrier": "fence", "frequency": "50", "landuse": "industrial", "name": "Homburg", "operator": "Amprion", "operator:wikidata": "Q477318", "operator:wikipedia": "de:Amprion", "power": "substation", "substation": "transmission", "voltage": "220000;110000", "wikipedia": "de:Liste der Schaltanlagen im H\u00f6chstspannungsnetz in Deutschland"}}, {"type": "way", "id": 156676050, "center": {"lat": 49.3600675, "lon": 8.6637604}, "tags": {"access": "no", "barrier": "fence", "fence_type": "metal", "frequency": "50", "name": "Heidelberg-S\u00fcd", "operator": "Stadtwerke Heidelberg Netze GmbH", "operator:wikidata": "Q48180711", "power": "substation", "substation": "transmission", "voltage": "220000;110000", "wikidata": "Q53149965"}}, {"type": "way", "id": 157613270, "center": {"lat": 51.1133249, "lon": 7.407381}, "tags": {"barrier": "fence", "name": "Wipperf\u00fcrth", "operator": "Westnetz", "operator:wikidata": "Q2807462", "power": "substation", "substation": "transmission", "voltage": "110000"}}, {"type": "way", "id": 159320772, "center": {"lat": 50.876667, "lon": 8.024042}, "tags": {"barrier": "fence", "frequency": "50", "location": "outdoor", "name": "Station Siegen", "operator": "Westnetz", "operator:wikidata": "Q2807462", "power": "substation", "substation": "transmission", "voltage": "110000"}}, {"type": "way", "id": 159326128, "center": {"lat": 51.1166496, "lon": 7.8929558}, "tags": {"barrier": "fence", "name": "Attendorn", "operator": "Westnetz", "power": "substation", "substation": "transmission", "voltage": "110000"}}, {"type": "way", "id": 159656193, "center": {"lat": 50.7808553, "lon": 7.8894614}, "tags": {"barrier": "fence", "name": "Station Betzdorf", "operator": "Westnetz", "power": "substation", "substation": "transmission", "voltage": "110000"}}, {"type": "way", "id": 159688719, "center": {"lat": 51.0730218, "lon": 8.0655315}, "tags": {"barrier": "fence", "fixme": "name", "operator": "Westnetz", "power": "substation", "substation": "transmission", "voltage": "110000"}}, {"type": "way", "id": 160584794, "center": {"lat": 50.3860296, "lon": 7.592713}, "tags": {"barrier": "fence", "name": "Station Koblenz", "operator": "Amprion", "operator:wikidata": "Q138133", "power": "substation", "substation": "transmission", "voltage": "380000;110000", "wikidata": "Q53272821"}}, {"type": "way", "id": 160929097, "center": {"lat": 49.543468, "lon": 8.6270011}, "tags": {"frequency": "50", "landuse": "industrial", "location": "outdoor", "name": "Umspannwerk Weinheim", "operator": "TransnetBW;Netze BW", "operator:wikidata": "Q1672772;Q16854888", "operator:wikipedia": "de:TransnetBW;de:Netze BW", "power": "substation", "source:name": "Geonames.org", "substation": "transmission", "voltage": "220000;110000"}}, {"type": "way", "id": 161446245, "center": {"lat": 49.4556401, "lon": 8.6644304}, "tags": {"barrier": "fence", "name": "Netze BW Umspannwerk Dossenheim", "operator": "Netze BW", "operator:wikidata": "Q16854888", "operator:wikipedia": "de:Netze BW", "power": "substation", "substation": "transmission", "voltage": "110000"}}, {"type": "way", "id": 162176185, "center": {"lat": 51.1470309, "lon": 5.921866}, "tags": {"landuse": "industrial", "name": "150 kV Maasbracht", "operator": "TenneT", "operator:wikidata": "Q1127569", "operator:wikipedia": "nl:TenneT", "power": "substation", "ref": "MBT", "substation": "transmission", "voltage": "150000", "wikidata": "Q111951958"}}, {"type": "way", "id": 162176187, "center": {"lat": 51.1484195, "lon": 5.9183012}, "tags": {"barrier": "fence", "landuse": "industrial", "name": "380 kV Maasbracht", "operator": "TenneT", "operator:wikidata": "Q1127569", "operator:wikipedia": "nl:TenneT", "power": "substation", "ref": "MBT", "substation": "transmission", "voltage": "380000", "wikidata": "Q111951958"}}, {"type": "way", "id": 162275049, "center": {"lat": 50.8972248, "lon": 5.96832}, "tags": {"barrier": "fence", "frequency": "50", "name": "150 kV Huskensweg", "power": "substation", "substation": "transmission", "voltage": "150000"}}, {"type": "way", "id": 162275050, "center": {"lat": 50.9351103, "lon": 5.9421128}, "tags": {"frequency": "50", "name": "150 kV Treebeek", "power": "substation", "substation": "transmission", "voltage": "150000"}}, {"type": "way", "id": 167959128, "center": {"lat": 49.2490971, "lon": 6.7306684}, "tags": {"building": "yes", "location": "outdoor", "power": "substation", "substation": "transmission", "voltage": "20000"}}, {"type": "way", "id": 167959132, "center": {"lat": 49.2483934, "lon": 6.7282037}, "tags": {"building": "yes", "location": "outdoor", "power": "substation", "substation": "transmission", "voltage": "20000"}}, {"type": "way", "id": 169244940, "center": {"lat": 50.047799, "lon": 8.5315006}, "tags": {"frequency": "50", "name": "Station Kelsterbach", "note": "Zuleitungen per Kabel", "operator": "Amprion", "operator:wikidata": "Q477318", "power": "substation", "substation": "transmission", "voltage": "380000", "wikidata": "Q28974727"}}, {"type": "way", "id": 175112801, "center": {"lat": 50.9043546, "lon": 7.0472211}, "tags": {"barrier": "fence", "frequency": "50", "name": "Station Gremberghoven", "operator": "RWE", "operator:wikidata": "Q138133", "operator:wikipedia": "de:RWE", "power": "substation", "short_name": "Gremberghoven", "source": "yahoo", "substation": "transmission", "voltage": "110000"}}, {"type": "way", "id": 175379477, "center": {"lat": 49.525428, "lon": 8.2917447}, "tags": {"frequency": "50", "location": "outdoor", "name": "Umspannanlage Lambsheim", "operator": "Pfalzwerke AG", "operator:wikidata": "Q2082280", "operator:wikipedia": "de:Pfalzwerke", "power": "substation", "substation": "transmission", "voltage": "110000"}}, {"type": "way", "id": 180008191, "center": {"lat": 51.0191597, "lon": 7.6531892}, "tags": {"access": "no", "barrier": "fence", "location": "outdoor", "name": "Bergneustadt", "operator": "Westnetz", "operator:wikidata": "Q2807462", "power": "substation", "substation": "transmission", "voltage": "110000"}}, {"type": "way", "id": 182177552, "center": {"lat": 49.4836214, "lon": 8.5976402}, "tags": {"barrier": "fence", "name": "Netze BW Umspannwerk Ladenburg", "operator": "Netze BW", "operator:wikidata": "Q16854888", "operator:wikipedia": "de:Netze BW", "power": "substation", "substation": "transmission", "voltage": "110000"}}, {"type": "way", "id": 190053861, "center": {"lat": 50.0832539, "lon": 8.8002727}, "tags": {"addr:city": "Offenbach am Main", "addr:housenumber": "49a", "addr:postcode": "63073", "addr:street": "Im Birkengrund", "building": "service", "name": "Trafostation", "operator": "Energieversorgung Offenbach", "operator:wikidata": "Q1341471", "power": "substation", "substation": "transmission", "voltage": "20kv/400v"}}, {"type": "way", "id": 191026795, "center": {"lat": 50.1035723, "lon": 8.7779035}, "tags": {"building": "yes", "name": "Trafostation", "power": "substation", "substation": "transmission"}}, {"type": "way", "id": 193668755, "center": {"lat": 49.9920831, "lon": 8.5602391}, "tags": {"power": "substation", "substation": "transmission", "voltage": "110000"}}, {"type": "way", "id": 198441076, "center": {"lat": 49.3701809, "lon": 6.2288737}, "tags": {"barrier": "wall", "location": "outdoor", "name": "Poste \u00e9lectrique de Basse Ham", "operator": "RTE", "operator:wikidata": "Q2178795", "power": "substation", "ref:FR:RTE": "B.HAM", "ref:FR:RTE_nom": "BASSE-HAM", "source": "data.gouv.fr:RTE - 04/2017", "substation": "transmission", "voltage": "225000"}}, {"type": "way", "id": 198448981, "center": {"lat": 49.9220861, "lon": 7.8160115}, "tags": {"barrier": "fence", "location": "outdoor", "name": "Umspannwerk Waldlaubersheim", "operator": "Amprion", "operator:wikidata": "Q138133", "operator:wikipedia": "de:RWE", "power": "substation", "substation": "transmission", "voltage": "380000;110000"}}, {"type": "way", "id": 201153704, "center": {"lat": 50.8598431, "lon": 6.8422213}, "tags": {"name": "Kraftwerkschaltanlage Knapsack 1", "power": "substation", "substation": "transmission", "voltage": "380000;220000"}}, {"type": "way", "id": 202747445, "center": {"lat": 50.6058955, "lon": 8.6577434}, "tags": {"frequency": "50", "name": "Umspannwerk Gie\u00dfen Nord", "name:en": "Giessen North Substation", "operator": "TenneT TSO", "operator:wikidata": "Q1662830", "power": "substation", "ref": "GIEN", "substation": "transmission", "voltage": "110000"}}, {"type": "way", "id": 204349873, "center": {"lat": 49.3002057, "lon": 6.1339819}, "tags": {"barrier": "wall", "location": "outdoor", "name": "Poste \u00e9lectrique de Saint-Hubert", "operator": "RTE", "operator:wikidata": "Q2178795", "power": "substation", "ref:FR:RTE": "SSHUB", "ref:FR:RTE_nom": "ST-HUBERT", "source": "Union europ\u00e9enne - SOeS, CORINE Land Cover, 2006.", "substation": "transmission", "voltage": "225000;63000"}}, {"type": "way", "id": 204660324, "center": {"lat": 50.8984067, "lon": 6.4076586}, "tags": {"barrier": "fence", "landuse": "industrial", "name": "Station Daubenrath", "operator": "Westnetz", "power": "substation", "substation": "transmission", "voltage": "110000"}}, {"type": "way", "id": 207248812, "center": {"lat": 49.3567063, "lon": 8.6231924}, "tags": {"frequency": "50", "location": "outdoor", "name": "Neurott", "operator": "TransnetBW", "operator:wikidata": "Q1672772", "operator:wikipedia": "de:TransnetBW", "power": "substation", "substation": "transmission", "voltage": "380000;220000", "wikidata": "Q52635989"}}, {"type": "way", "id": 207292011, "center": {"lat": 49.2841052, "lon": 6.179208}, "tags": {"barrier": "fence", "name": "Richemont", "operator": "RTE", "operator:wikidata": "Q2178795", "power": "substation", "ref:FR:RTE": "RICHE", "ref:FR:RTE_nom": "RICHEMONT", "source": "data.gouv.fr:RTE - 04/2017", "substation": "transmission", "voltage": "225000;63000"}}, {"type": "way", "id": 207295423, "center": {"lat": 51.1410097, "lon": 7.6094525}, "tags": {"building": "service", "power": "substation", "roof:colour": "red", "roof:shape": "flat", "substation": "transmission"}}, {"type": "way", "id": 207526732, "center": {"lat": 49.2653318, "lon": 6.1443296}, "tags": {"barrier": "fence", "name": "Poste \u00e9lectrique d'Amn\u00e9ville", "operator": "RTE", "operator:wikidata": "Q2178795", "power": "substation", "ref:FR:RTE": "AMNEV", "ref:FR:RTE_nom": "AMNEVILLE", "source": "data.gouv.fr:RTE - 04/2017", "substation": "transmission", "voltage": "225000"}}, {"type": "way", "id": 230151138, "center": {"lat": 49.7880199, "lon": 8.082682}, "tags": {"barrier": "fence", "location": "outdoor", "power": "substation", "substation": "transmission"}}, {"type": "way", "id": 231443162, "center": {"lat": 49.4074972, "lon": 8.6507765}, "tags": {"frequency": "50", "name": "Heidelberg West", "operator": "Stadtwerke Heidelberg Netze GmbH", "operator:wikidata": "Q48180711", "power": "substation", "substation": "transmission", "voltage": "110000"}}, {"type": "way", "id": 244618092, "center": {"lat": 50.098002, "lon": 8.6496801}, "tags": {"frequency": "50", "location": "indoor", "name": "Umspannwerk Gutleutstra\u00dfe", "operator": "Netzdienste Rhein-Main", "operator:short": "NRM", "operator:wikidata": "Q124463068", "power": "substation", "ref": "UW 71", "substation": "transmission", "voltage": "110000;10000"}}, {"type": "way", "id": 254321365, "center": {"lat": 50.0217164, "lon": 8.3687353}, "tags": {"landuse": "industrial", "name": "Umspannanlage Hochheim", "power": "substation", "substation": "transmission", "voltage": "110000"}}, {"type": "way", "id": 259561755, "center": {"lat": 49.257065, "lon": 8.3083368}, "tags": {"barrier": "fence", "name": "Weingarten", "power": "substation", "substation": "transmission", "voltage": "380000"}}, {"type": "way", "id": 265245119, "center": {"lat": 49.3938579, "lon": 7.0030259}, "tags": {"building": "yes", "location": "indoor", "name": "WKA Anschluss", "power": "substation", "substation": "transmission"}}, {"type": "way", "id": 265381234, "center": {"lat": 50.3751729, "lon": 8.7429006}, "tags": {"building": "yes", "operator": "Stadtwerke Bad Nauheim", "power": "substation", "substation": "transmission", "voltage": "20000"}}, {"type": "way", "id": 272653516, "center": {"lat": 49.2983358, "lon": 8.6235036}, "tags": {"frequency": "50", "location": "indoor", "operator": "Stadtwerke Walldorf GmbH & Co. KG", "power": "substation", "substation": "transmission"}}, {"type": "way", "id": 274609757, "center": {"lat": 49.7102563, "lon": 8.412473}, "tags": {"comment": "Einspeisepunkt f\u00fcr Phasenschieber Biblis", "frequency": "50", "location": "outdoor", "name": "Biblis B", "power": "substation", "source": "http://www.energiespektrum.de", "substation": "transmission", "voltage": "380000;220000"}}, {"type": "way", "id": 319625465, "center": {"lat": 51.1251696, "lon": 7.5974039}, "tags": {"building": "electricity", "name": "Kierspe", "operator": "Enervie Vernetzt GmbH", "power": "substation", "substation": "transmission", "voltage": "110000;10000"}}, {"type": "way", "id": 373967500, "center": {"lat": 50.0262129, "lon": 7.6927012}, "tags": {"access": "no", "barrier": "fence", "frequency": "50", "location": "outdoor", "name": "Bacharach", "note": "(110kv<>380kV) Umspannwerk Bacharach, operator= Westnetz, Amprion", "operator": "Amprion;Westnetz", "power": "substation", "substation": "transmission", "voltage": "380000;110000"}}, {"type": "way", "id": 387620061, "center": {"lat": 49.5100056, "lon": 5.947656}, "tags": {"name": "Belval", "operator": "Elias", "power": "substation", "substation": "transmission", "voltage": "220000"}}, {"type": "way", "id": 395847307, "center": {"lat": 50.402375, "lon": 7.4495644}, "tags": {"barrier": "fence", "frequency": "50", "name": "Station Wei\u00dfenthurm", "note": "Die GPS-Traces zeigen, dass Bing keinen Versatz und keine Drehung aufweist. Die Sammelschienen werde ich erst mal sp\u00e4ter anpassen.", "operator": "Amprion", "operator:wikidata": "Q477318", "power": "substation", "short_name": "Wei\u00dfenthurm", "substation": "transmission", "voltage": "380000;220000;110000"}}, {"type": "way", "id": 409305507, "center": {"lat": 49.293468, "lon": 8.5116141}, "tags": {"access": "no", "frequency": "50", "last_renovation": "2020", "location": "outdoor", "name": "Umspannwerk Altlu\u00dfheim", "operator": "TransnetBW", "operator:wikidata": "Q1672772", "operator:wikipedia": "de:TransnetBW", "power": "substation", "proposed:voltage": "380000", "start_date": "1960s", "substation": "transmission", "surveillance": "outdoor", "voltage": "220000", "wikidata": "Q50098662"}}, {"type": "way", "id": 460847807, "center": {"lat": 49.5380195, "lon": 5.9335427}, "tags": {"barrier": "fence", "frequency": "50", "name": "Repiquage Differdange", "operator": "ELIA", "power": "substation", "substation": "transmission", "voltage": "220000"}}, {"type": "way", "id": 531045106, "center": {"lat": 49.8983565, "lon": 8.4770101}, "tags": {"power": "substation", "substation": "transmission", "voltage": "110000"}}, {"type": "way", "id": 553128839, "center": {"lat": 50.6161572, "lon": 8.3567746}, "tags": {"building": "yes", "operator": "EAM Mitte", "power": "substation", "substation": "transmission"}}, {"type": "way", "id": 556458043, "center": {"lat": 49.2747311, "lon": 6.839819}, "tags": {"building": "yes", "description": "Einspeisung Windpark Schwalbach", "location": "indoor", "power": "substation", "start_date": "2018", "substation": "transmission", "voltage": "110000;20000"}}, {"type": "way", "id": 600395952, "center": {"lat": 49.5244328, "lon": 8.2949018}, "tags": {"frequency": "50", "location": "outdoor", "name": "Umspannanlage Lambsheim", "operator": "Amprion", "operator:wikidata": "Q477318", "operator:wikipedia": "de:Amprion", "power": "substation", "start_date": "2018", "substation": "transmission", "voltage": "380000"}}, {"type": "way", "id": 609996715, "center": {"lat": 50.1099221, "lon": 8.6577809}, "tags": {"frequency": "50", "location": "indoor", "name": "Umspannwerk Hohenstaufenstra\u00dfe", "operator": "Netzdienste Rhein-Main", "operator:short": "NRM", "operator:wikidata": "Q124463068", "power": "substation", "ref": "UW 74", "substation": "transmission", "voltage": "110000;10000"}}, {"type": "way", "id": 609996730, "center": {"lat": 50.1454773, "lon": 8.7021621}, "tags": {"frequency": "50", "location": "indoor", "name": "Umspannwerk Marbachweg", "operator": "Netzdienste Rhein-Main", "operator:short": "NRM", "operator:wikidata": "Q124463068", "power": "substation", "ref": "UW 32", "substation": "transmission", "voltage": "110000;10000"}}, {"type": "way", "id": 614250886, "center": {"lat": 50.1219585, "lon": 8.6518399}, "tags": {"frequency": "50", "location": "indoor", "name": "Umspannwerk Gr\u00e4fstra\u00dfe", "operator": "Netzdienste Rhein-Main", "operator:short": "NRM", "operator:wikidata": "Q124463068", "power": "substation", "ref": "UW 82", "substation": "transmission", "voltage": "110000;10000"}}, {"type": "way", "id": 614250889, "center": {"lat": 50.1229462, "lon": 8.6986359}, "tags": {"frequency": "50", "location": "indoor", "name": "Umspannwerk Heideplatz", "operator": "Netzdienste Rhein-Main", "operator:short": "NRM", "operator:wikidata": "Q124463068", "power": "substation", "ref": "UW 22", "substation": "transmission", "voltage": "110000;10000"}}, {"type": "way", "id": 614747209, "center": {"lat": 50.4233042, "lon": 8.1219661}, "tags": {"building": "yes", "power": "substation", "substation": "transmission"}}, {"type": "way", "id": 615539966, "center": {"lat": 50.0985118, "lon": 8.6915895}, "tags": {"frequency": "50", "location": "indoor", "name": "Umspannwerk Darmst\u00e4dter Landstra\u00dfe", "operator": "Netzdienste Rhein-Main", "operator:short": "NRM", "operator:wikidata": "Q124463068", "power": "substation", "ref": "UW 51", "substation": "transmission", "voltage": "110000;10000"}}, {"type": "way", "id": 615892346, "center": {"lat": 50.0990625, "lon": 8.5949291}, "tags": {"frequency": "50", "location": "indoor", "name": "Umspannwerk Froschh\u00e4user Stra\u00dfe", "operator": "Netzdienste Rhein-Main", "operator:short": "NRM", "operator:wikidata": "Q124463068", "operator:wikipedia": "de:Mainova", "power": "substation", "ref": "UW 75", "substation": "transmission", "voltage": "110000;10000"}}, {"type": "way", "id": 616337076, "center": {"lat": 50.0952835, "lon": 8.6268792}, "tags": {"frequency": "50", "gas_insulated": "yes", "location": "indoor", "name": "Umspannwerk Kleyerstra\u00dfe", "operator": "Netzdienste Rhein-Main", "operator:short": "NRM", "operator:wikidata": "Q124463068", "power": "substation", "rating": "63 MVA", "ref": "UW 31", "start_date": "2017", "substation": "transmission", "voltage": "110000;30000"}}, {"type": "way", "id": 617447023, "center": {"lat": 50.1404075, "lon": 8.742445}, "tags": {"addr:city": "Frankfurt am Main", "addr:housenumber": "109-111", "addr:postcode": "60388", "addr:street": "Kruppstra\u00dfe", "frequency": "50", "location": "indoor", "name": "Umspannwerk Kruppstra\u00dfe", "operator": "Netzdienste Rhein-Main", "operator:short": "NRM", "operator:wikidata": "Q124463068", "power": "substation", "ref": "UW 42", "substation": "transmission", "voltage": "110000;30000;10000"}}, {"type": "way", "id": 622325549, "center": {"lat": 49.6955168, "lon": 8.3481429}, "tags": {"barrier": "fence", "location": "outdoor", "name": "elektrizit\u00e4tswerk Rheinhessen", "power": "substation", "substation": "transmission", "voltage": "110000"}}, {"type": "way", "id": 668052074, "center": {"lat": 50.8864487, "lon": 7.870652}, "tags": {"barrier": "fence", "fixme": "name", "operator": "Westnetz", "power": "substation", "substation": "transmission", "voltage": "110000"}}, {"type": "way", "id": 680706742, "center": {"lat": 50.3195719, "lon": 6.4100969}, "tags": {"barrier": "fence", "power": "substation", "substation": "transmission", "voltage": "110000"}}, {"type": "way", "id": 725173934, "center": {"lat": 51.0564804, "lon": 7.0586422}, "tags": {"barrier": "fence", "location": "outdoor", "operator": "Westnetz", "power": "substation", "substation": "transmission", "voltage": "110000"}}, {"type": "way", "id": 767959640, "center": {"lat": 50.083213, "lon": 8.8205073}, "tags": {"addr:city": "Offenbach am Main", "addr:country": "DE", "addr:housenumber": "155", "addr:postcode": "63073", "addr:street": "Seligenst\u00e4dter Stra\u00dfe", "building": "service", "name": "Trafostation", "operator": "Energieversorgung Offenbach", "operator:wikidata": "Q1341471", "power": "substation", "substation": "transmission", "voltage": "20kv/400v"}}, {"type": "way", "id": 797584455, "center": {"lat": 50.7169583, "lon": 6.0081915}, "tags": {"building": "yes", "operator": "ORES", "operator:wikidata": "Q3347693", "power": "substation", "substation": "transmission"}}, {"type": "way", "id": 797589838, "center": {"lat": 50.7165925, "lon": 6.0080678}, "tags": {"building": "yes", "operator": "ORES", "operator:wikidata": "Q3347693", "power": "substation", "substation": "transmission"}}, {"type": "way", "id": 887075778, "center": {"lat": 50.7093817, "lon": 6.0233999}, "tags": {"building": "yes", "operator": "ORES", "operator:wikidata": "Q3347693", "power": "substation", "ref": "Emmaburger KE 000199 CCD", "substation": "transmission", "voltage": "15000"}}, {"type": "way", "id": 909772781, "center": {"lat": 50.9878274, "lon": 6.2681242}, "tags": {"addr:city": "Linnich", "addr:postcode": "52441", "barrier": "fence", "name": "Umspannwerk K\u00f6rrenz", "operator": "Windpark Linnich GmbH & Co. KG / Westnetz GmbH", "power": "substation", "substation": "transmission", "voltage": "110000"}}, {"type": "way", "id": 963454861, "center": {"lat": 49.7107216, "lon": 8.4154697}, "tags": {"comment": "Einspeisepunkt f\u00fcr Phasenschieber Biblis", "frequency": "50", "location": "outdoor", "name": "Biblis A", "power": "substation", "source": "http://www.energiespektrum.de", "substation": "transmission", "voltage": "380000"}}, {"type": "way", "id": 976394392, "center": {"lat": 50.7524392, "lon": 7.0644432}, "tags": {"barrier": "fence", "name": "Bonn-Nord (Westnetz GmbH)", "operator": "Westnetz", "operator:wikidata": "Q2807462", "power": "substation", "short_name": "Bonn-Nord", "source": "yahoo;survey", "substation": "transmission", "voltage": "110000"}}, {"type": "way", "id": 1024536785, "center": {"lat": 50.2113602, "lon": 6.4600073}, "tags": {"fixme": "incomplete", "name": "Umspannwerk Rommersheim", "operator": "Amprion", "power": "substation", "substation": "transmission", "voltage": "380000;110000"}}, {"type": "way", "id": 1042974725, "center": {"lat": 49.6685109, "lon": 6.1399073}, "tags": {"name": "Heisdorf", "operator": "Creos", "operator:wikidata": "Q21036415", "operator:wikipedia": "fr:Creos", "power": "substation", "substation": "transmission", "voltage": "220000;65000;20000", "wikidata": "Q52637863"}}, {"type": "way", "id": 1066647207, "center": {"lat": 50.0777746, "lon": 8.5294955}, "tags": {"construction": "yes", "name": "Schwanheim (vorh. H\u00f6chst S\u00fcd Neu)", "operator": "Amprion", "operator:wikidata": "Q477318", "power": "substation", "start_date": "2022-10-01", "substation": "transmission", "voltage": "380000;110000"}}, {"type": "way", "id": 1073873489, "center": {"lat": 50.5209714, "lon": 7.743494}, "tags": {"fixme": "name", "power": "substation", "substation": "transmission", "voltage": "110000"}}, {"type": "way", "id": 1084229166, "center": {"lat": 50.1056751, "lon": 8.7824225}, "tags": {"addr:city": "Offenbach am Main", "addr:postcode": "63075", "addr:street": "M\u00fchlheimer Stra\u00dfe", "name": "UW Ost", "operator": "Energieversorgung Offenbach", "operator:wikidata": "Q1341471", "power": "substation", "substation": "transmission", "voltage": "110kv/20kv/400v"}}, {"type": "way", "id": 1116645088, "center": {"lat": 49.7199239, "lon": 8.5821588}, "tags": {"building": "yes", "power": "substation", "substation": "transmission", "voltage": "20000"}}, {"type": "way", "id": 1125463934, "center": {"lat": 50.6697005, "lon": 6.0803145}, "tags": {"building": "yes", "operator": "ORES", "operator:wikidata": "Q3347693", "power": "substation", "substation": "transmission"}}, {"type": "way", "id": 1127383055, "center": {"lat": 50.4514688, "lon": 8.9103339}, "tags": {"building": "service", "power": "substation", "substation": "transmission"}}, {"type": "way", "id": 1144626038, "center": {"lat": 50.7104568, "lon": 6.0074264}, "tags": {"building": "yes", "name": "CAB Im Bruch No 546", "operator": "ORES", "operator:wikidata": "Q3347693", "power": "substation", "ref": "No 546", "substation": "transmission", "voltage": "15000"}}, {"type": "way", "id": 1144626042, "center": {"lat": 50.7121055, "lon": 6.0319928}, "tags": {"building": "yes", "operator": "ORES", "operator:wikidata": "Q3347693", "power": "substation", "ref": "Aachenerstr. 70", "substation": "transmission", "voltage": "15000"}}, {"type": "way", "id": 1149855135, "center": {"lat": 50.6221908, "lon": 6.0873318}, "tags": {"building": "yes", "building:levels": "1", "name": "Trafostation f\u00fcr Wasserwerk", "operator": "ORES", "operator:wikidata": "Q3347693", "power": "substation", "source:geometry:date": "2016-06-23", "source:geometry:ref": "Picc/240792", "substation": "transmission", "voltage": "15000"}}, {"type": "way", "id": 1212227579, "center": {"lat": 50.1334616, "lon": 8.5141401}, "tags": {"building": "service", "name": "Am Erbsengewann", "operator": "S\u00fcwag Energie", "operator:wikidata": "Q2382300", "power": "substation", "substation": "transmission"}}, {"type": "way", "id": 1220278961, "center": {"lat": 50.7137006, "lon": 6.0115321}, "tags": {"building": "yes", "operator": "ORES", "operator:wikidata": "Q3347693", "power": "substation", "substation": "transmission"}}, {"type": "way", "id": 1223405794, "center": {"lat": 49.7058698, "lon": 8.4157945}, "tags": {"frequency": "50", "gas_insulated": "yes", "location": "outdoor", "name": "Umspannwerk Gasturbinenkraftwerk", "power": "substation", "substation": "transmission", "voltage": "380000"}}, {"type": "way", "id": 1237812760, "center": {"lat": 49.7110852, "lon": 8.4146114}, "tags": {"frequency": "50", "location": "outdoor", "name": "Biblis C", "note": "Wahrscheinlich Eigenbedarf des Kraftwerks", "power": "substation", "substation": "transmission", "voltage": "220000"}}, {"type": "way", "id": 1245826064, "center": {"lat": 50.5913795, "lon": 8.4807293}, "tags": {"barrier": "fence", "name": "A\u00dflar 380kV", "operator": "TenneT", "power": "substation", "substation": "transmission", "voltage": "380000", "wikidata": "Q52680069"}}, {"type": "way", "id": 1245867884, "center": {"lat": 50.7585693, "lon": 8.2848597}, "tags": {"frequency": "50", "name": "Dillenburg 380kV", "operator": "Amprion", "operator:wikidata": "Q477318", "power": "substation", "substation": "transmission", "voltage": "380000", "wikidata": "Q52844321"}}, {"type": "way", "id": 1258237603, "center": {"lat": 50.8702725, "lon": 6.4551236}, "tags": {"barrier": "fence", "frequency": "50", "name": "Station Oberzier", "operator": "Amprion", "operator:wikidata": "Q477318", "operator:wikipedia": "de:Amprion", "power": "substation", "substation": "transmission", "voltage": "110000", "wikidata": "Q29167446"}}, {"type": "way", "id": 1280011543, "center": {"lat": 50.6055767, "lon": 6.7456322}, "tags": {"power": "substation", "substation": "transmission"}}, {"type": "way", "id": 1298631267, "center": {"lat": 50.71569, "lon": 6.0096362}, "tags": {"building": "container", "operator": "ORES", "operator:wikidata": "Q3347693", "power": "substation", "substation": "transmission", "voltage": "15000"}}, {"type": "way", "id": 1312785244, "center": {"lat": 50.8105958, "lon": 7.1442635}, "tags": {"building": "service", "operator": "Stadtwerke Troisdorf", "operator:wikidata": "Q113464968", "power": "substation", "substation": "transmission"}}, {"type": "way", "id": 1383729318, "center": {"lat": 50.1329279, "lon": 8.5072973}, "tags": {"power": "substation", "substation": "transmission"}}, {"type": "way", "id": 1451172039, "center": {"lat": 50.0921303, "lon": 8.6181358}, "tags": {"addr:city": "Frankfurt am Main", "addr:country": "DE", "addr:postcode": "65933", "addr:street": "Griesheimer Stadtweg", "frequency": "50", "name": "Umspannwerk Frankfurt S\u00fcdwest", "note": "Umspannwerk Griesheim", "operator": "Mainova Netzdienste Rhein-Main", "power": "substation", "start_date": "1976", "substation": "transmission", "voltage": "110000"}}, {"type": "way", "id": 1456079591, "center": {"lat": 50.2033737, "lon": 8.8074991}, "tags": {"fixme": "Geb\u00e4ude und Leitungen in der westlichen Erweiterung erg\u00e4nzen", "frequency": "50", "name": "Umspannwerk Karben", "note": "300 MVAR Blindleistungskompensationsanlage im Bau", "operator": "Avacon Netz", "operator:wikidata": "Q124369334", "power": "substation", "ref": "KARB", "substation": "transmission", "voltage": "110000"}}, {"type": "way", "id": 1456700158, "center": {"lat": 49.8065812, "lon": 8.6869499}, "tags": {"building": "yes", "power": "substation", "substation": "transmission"}}, {"type": "way", "id": 1457400703, "center": {"lat": 51.0114648, "lon": 7.9379952}, "tags": {"frequency": "50", "location": "outdoor", "name": "Umspannwerk Altenkleusheim", "operator": "Amprion;Westnetz", "power": "substation", "substation": "transmission", "voltage": "110000", "wikidata": "Q52528761"}}, {"type": "way", "id": 1457401986, "center": {"lat": 50.8422232, "lon": 7.9846319}, "tags": {"frequency": "50", "name": "Station Eiserfeld", "operator": "Amprion", "operator:wikidata": "Q477318", "operator:wikipedia": "de:Amprion", "power": "substation", "source": "Aerowest", "substation": "transmission", "voltage": "110000", "wikidata": "Q52857451"}}, {"type": "way", "id": 1457401987, "center": {"lat": 50.8413585, "lon": 7.9852815}, "tags": {"frequency": "50", "name": "Station Eiserfeld", "operator": "Amprion", "operator:wikidata": "Q477318", "operator:wikipedia": "de:Amprion", "power": "substation", "source": "Aerowest", "substation": "transmission", "voltage": "380000", "wikidata": "Q52857451"}}, {"type": "way", "id": 1457403362, "center": {"lat": 50.0967503, "lon": 8.4720647}, "tags": {"frequency": "50", "name": "Umspannwerk Kriftel", "operator": "Amprion", "operator:wikidata": "Q477318", "power": "substation", "start_date": "2004", "substation": "transmission", "voltage": "110000", "wikidata": "Q51553619"}}, {"type": "way", "id": 1463641515, "center": {"lat": 51.162672, "lon": 6.8268672}, "tags": {"frequency": "50", "name": "Station Reisholz", "power": "substation", "substation": "transmission", "voltage": "220000", "wikidata": "Q58194895"}}, {"type": "way", "id": 1463642809, "center": {"lat": 51.0486468, "lon": 6.5704377}, "tags": {"name": "Umspannanlage Frimmersdorf I", "operator": "RWE", "operator:wikidata": "Q138133", "operator:wikipedia": "de:RWE", "power": "substation", "substation": "transmission", "voltage": "220000", "wikidata": "Q53054088"}}, {"type": "way", "id": 1463872032, "center": {"lat": 51.0339981, "lon": 6.9346516}, "tags": {"access": "no", "frequency": "50", "name": "Umspannwerk F\u00fchlingen", "operator": "RheinEnergie", "operator:wikidata": "Q2147629", "power": "substation", "short_name": "UW F\u00fchlingen", "substation": "transmission", "voltage": "220000"}}, {"type": "way", "id": 1464535491, "center": {"lat": 50.8273202, "lon": 7.0950967}, "tags": {"name": "Station Stockem", "operator": "Westnetz", "operator:wikidata": "Q2807462", "power": "substation", "short_name": "Stockem", "source": "yahoo", "substation": "transmission", "voltage": "220000"}}, {"type": "way", "id": 1464536984, "center": {"lat": 50.7993818, "lon": 7.1903454}, "tags": {"name": "Station Siegburg", "operator": "RWE", "operator:wikidata": "Q138133", "power": "substation", "short_name": "Siegburg", "source": "yahoo", "source:name": "Schild am Tor", "substation": "transmission", "voltage": "380000", "wikidata": "Q58221640"}}, {"type": "way", "id": 1464536985, "center": {"lat": 50.7996525, "lon": 7.1920321}, "tags": {"name": "Station Siegburg", "operator": "RWE", "operator:wikidata": "Q138133", "power": "substation", "short_name": "Siegburg", "source": "yahoo", "source:name": "Schild am Tor", "substation": "transmission", "voltage": "220000", "wikidata": "Q58221640"}}, {"type": "way", "id": 1464561951, "center": {"lat": 50.6056841, "lon": 8.656137}, "tags": {"frequency": "50", "name": "Umspannwerk Gie\u00dfen Nord", "name:en": "Giessen North Substation", "operator": "TenneT TSO", "operator:wikidata": "Q1662830", "power": "substation", "ref": "GIEN", "substation": "transmission", "voltage": "380000;110000"}}, {"type": "relation", "id": 5389061, "center": {"lat": 49.4460739, "lon": 8.4934481}, "tags": {"est_name": "Kraftwerk Mannheim", "frequency": "16.7", "location": "outdoor", "operator": "Grosskraftwerk Mannheim Aktiengesellschaft", "operator:2": "DB Energie GmbH", "power": "substation", "substation": "transmission", "type": "multipolygon", "voltage": "110000"}}, {"type": "relation", "id": 13319688, "center": {"lat": 49.6685109, "lon": 6.1399073}, "tags": {"frequency": "50", "name": "Heisdorf", "power": "substation", "substation": "transmission", "type": "multipolygon", "voltage": "220000;65000;20000", "wikidata": "Q52637863"}}, {"type": "relation", "id": 17145097, "center": {"lat": 50.7593158, "lon": 8.2851562}, "tags": {"frequency": "50", "name": "Dillenburg", "operator": "e.on;Mitte AG", "power": "substation", "ref": "DILL", "substation": "transmission", "type": "multipolygon", "voltage": "380000;110000", "wikidata": "Q52844321"}}, {"type": "relation", "id": 17591073, "center": {"lat": 49.4449417, "lon": 8.5019166}, "tags": {"barrier": "fence", "frequency": "50", "name": "GKM Station B", "power": "substation", "ref": "GKMB", "substation": "transmission", "type": "multipolygon", "voltage": "220000;110000"}}, {"type": "relation", "id": 19189729, "center": {"lat": 50.1110425, "lon": 8.6410792}, "tags": {"addr:city": "Frankfurt am Main", "addr:housenumber": "2", "addr:postcode": "60486", "addr:street": "Am Dammgraben", "building": "industrial", "frequency": "50", "gas_insulated": "yes", "location": "indoor", "name": "Umspannwerk Am Dammgraben", "operator": "Netzdienste Rhein-Main", "operator:short": "NRM", "operator:wikidata": "Q124463068", "power": "substation", "ref": "UW 73", "start_date": "1993", "substation": "transmission", "type": "multipolygon", "voltage": "110000;10000"}}]