[{"type": "way", "id": 7716877, "center": {"lat": 47.5209138, "lon": 12.0979605}, "tags": {"landuse": "industrial", "name": "Schretter & Cie, Spezialbindemittel Mahlwerk"}}, {"type": "way", "id": 7718870, "center": {"lat": 47.5883348, "lon": 12.1633491}, "tags": {"landuse": "industrial"}}, {"type": "way", "id": 7768063, "center": {"lat": 47.557762, "lon": 12.1201804}, "tags": {"landuse": "industrial", "name": "Stihl Tirol", "website": "https://www.stihl-tirol.at/kontakt.aspx"}}, {"type": "way", "id": 7918368, "center": {"lat": 47.4835072, "lon": 12.0330551}, "tags": {"industrial": "warehouse", "landuse": "industrial", "name": "Gewerbepark"}}, {"type": "way", "id": 7918369, "center": {"lat": 47.4864164, "lon": 12.0536357}, "tags": {"industrial": "warehouse", "landuse": "industrial"}}, {"type": "way", "id": 11133608, "center": {"lat": 48.0489041, "lon": 12.225508}, "tags": {"landuse": "industrial", "name": "RKW SE"}}, {"type": "way", "id": 12541737, "center": {"lat": 48.9772069, "lon": 12.1711005}, "tags": {"industrial": "factory", "landuse": "industrial", "name": "BMW Werk 6.1", "ref:bmw": "06.10"}}, {"type": "way", "id": 15734773, "center": {"lat": 48.2961346, "lon": 14.3296001}, "tags": {"landuse": "industrial"}}, {"type": "way", "id": 15734775, "center": {"lat": 48.2980602, "lon": 14.3242246}, "tags": {"landuse": "industrial"}}, {"type": "way", "id": 15734776, "center": {"lat": 48.299994, "lon": 14.324234}, "tags": {"alt_name": "FHKW Linz-Mitte", "landuse": "industrial", "name": "Fernheizkraftwerk Linz-Mitte", "operator": "LINZ AG", "plant:method": "combustion", "plant:output:electricity": "251 MW", "plant:output:steam": "239 MW", "plant:source": "gas;waste;biomass", "power": "plant", "start_date": "1970"}}, {"type": "way", "id": 15738120, "center": {"lat": 48.2841712, "lon": 14.3165941}, "tags": {"access": "private", "depot": "bus", "industrial": "depot", "landuse": "industrial", "name": "\u00d6sterreichische Postbus AG: Werkst\u00e4tte Linz", "operator": "\u00d6sterreichische Postbus AG"}}, {"type": "way", "id": 15746848, "center": {"lat": 48.3075215, "lon": 14.3299402}, "tags": {"contact:fax": "+43 732 771029", "contact:phone": "+43 732 778436", "contact:website": "http://www.bunzl-biach.at", "description": "Altpapier Recycling und Handel", "landuse": "industrial", "name": "Bunzl&Biach"}}, {"type": "way", "id": 15748292, "center": {"lat": 48.317614, "lon": 14.3155345}, "tags": {"industrial": "shipyard", "landuse": "industrial", "name": "\u00d6SWAG Schiffswerft"}}, {"type": "way", "id": 15808830, "center": {"lat": 48.3413087, "lon": 14.4509817}, "tags": {"landcover": "grass", "landuse": "industrial", "man_made": "wastewater_plant", "name": "Kl\u00e4ranlage Gallneukirchner Becken", "operator": "Reinhalteverband Gallneukirchner Becken", "source": "yahoo"}}, {"type": "way", "id": 17649970, "center": {"lat": 48.3347378, "lon": 14.4310662}, "tags": {"landuse": "industrial", "name": "Gewerbegebiet Langwiesen", "source": "geoimage.at"}}, {"type": "way", "id": 19781142, "center": {"lat": 48.2570387, "lon": 14.4702166}, "tags": {"landuse": "industrial", "name": "Poschacher", "source": "yahoo"}}, {"type": "way", "id": 22466225, "center": {"lat": 48.2318063, "lon": 14.2234116}, "tags": {"landuse": "industrial", "name": "Commerz Park West", "ref": "CPW"}}, {"type": "way", "id": 22700001, "center": {"lat": 47.8874288, "lon": 12.1032797}, "tags": {"addr:city": "Gro\u00dfkarolinenfeld", "addr:country": "DE", "addr:housenumber": "7", "addr:postcode": "83109", "addr:street": "Moos", "barrier": "fence", "landuse": "industrial", "name": "nafta Erdgas-Untergrundspeicherbetrieb Inzenham-West Hauptbetriebsplatz", "source": "survey; http://www.regierung.oberbayern.bayern.de/imperia/md/content/regob/internet/dokumente/bereich2/sg_26/planfeststellungen/anlage_1_lageplan_iw_c5-c5a.pdf", "utility": "gas", "website": "https://www.nafta-speicher.de/de/inzenham-west/produkte-und-service"}}, {"type": "way", "id": 22700002, "center": {"lat": 47.8848614, "lon": 12.110216}, "tags": {"landuse": "industrial", "name": "nafta Erdgas-Untergrundspeicherbetrieb Inzenham-West Sondenplatz 4", "source": "survey", "utility": "gas"}}, {"type": "way", "id": 22700003, "center": {"lat": 47.8906731, "lon": 12.1039179}, "tags": {"barrier": "fence", "landuse": "industrial", "name": "nafta Erdgas-Untergrundspeicherbetrieb Inzenham-West Sondenplatz 1", "source": "survey; http://www.regierung.oberbayern.bayern.de/imperia/md/content/regob/internet/dokumente/bereich2/sg_26/planfeststellungen/anlage_1_lageplan_iw_c5-c5a.pdf", "utility": "gas"}}, {"type": "way", "id": 22700005, "center": {"lat": 47.8935485, "lon": 12.1096686}, "tags": {"landuse": "industrial", "name": "nafta Erdgas-Untergrundspeicherbetrieb Inzenham-West Sondenplatz Inzenham-West 4", "source": "survey; http://www.regierung.oberbayern.bayern.de/imperia/md/content/regob/internet/dokumente/bereich2/sg_26/planfeststellungen/anlage_1_lageplan_iw_c5-c5a.pdf", "utility": "gas"}}, {"type": "way", "id": 22700006, "center": {"lat": 47.8903801, "lon": 12.1138216}, "tags": {"landuse": "industrial", "name": "nafta Erdgas-Untergrundspeicherbetrieb Inzenham-West Sondenplatz 2", "source": "survey; http://www.regierung.oberbayern.bayern.de/imperia/md/content/regob/internet/dokumente/bereich2/sg_26/planfeststellungen/anlage_1_lageplan_iw_c5-c5a.pdf", "utility": "gas"}}, {"type": "way", "id": 22913556, "center": {"lat": 47.8469063, "lon": 12.1609228}, "tags": {"landuse": "industrial", "name": "Hamberger Industriewerke", "source": "bing"}}, {"type": "way", "id": 23329860, "center": {"lat": 48.062053, "lon": 12.2214407}, "tags": {"landuse": "industrial"}}, {"type": "way", "id": 23416266, "center": {"lat": 48.0557345, "lon": 12.1844731}, "tags": {"addr:city": "Wasserburg am Inn", "addr:country": "DE", "addr:housenumber": "6 - 12", "addr:postcode": "83512", "addr:street": "Megglestra\u00dfe", "contact:email": "info@meggle.de", "contact:facebook": "https://www.facebook.com/meggle.de", "contact:fax": "+49 8071 73444", "contact:instagram": "https://www.instagram.com/meggle_deutschland", "contact:phone": "+49 8071 730", "contact:website": "https://www.meggle.de", "landuse": "industrial", "name": "Molkerei Meggle"}}, {"type": "way", "id": 23657276, "center": {"lat": 48.2020978, "lon": 13.5382153}, "tags": {"landuse": "industrial"}}, {"type": "way", "id": 23712505, "center": {"lat": 48.2038953, "lon": 13.5357975}, "tags": {"landuse": "industrial", "name": "O.\u00d6. Besamungsstation"}}, {"type": "way", "id": 23713630, "center": {"lat": 48.1996765, "lon": 13.5408979}, "tags": {"landuse": "industrial", "name": "Lettershop - HS Druck"}}, {"type": "way", "id": 23802422, "center": {"lat": 48.6051789, "lon": 12.2951688}, "tags": {"disused:power": "plant", "end_date": "2023-04-15", "landuse": "industrial", "name": "Kernkraftwerk Isar", "operator": "E.ON", "operator:wikidata": "Q270223", "planned:end_date": "2022-12-31", "plant:method": "fission", "plant:output:electricity": "1410 MW", "plant:source": "nuclear", "ref": "KKI", "ref:EU:ENTSOE_EIC": "11WD2ISKW000299Q", "start_date": "1979-03-21", "wikidata": "Q569510", "wikipedia": "de:Kernkraftwerk Isar"}}, {"type": "way", "id": 23904583, "center": {"lat": 47.4933048, "lon": 12.0732108}, "tags": {"industrial": "timber", "landuse": "industrial", "name": "Egger Spanplattenwerk"}}, {"type": "way", "id": 23995835, "center": {"lat": 47.2744965, "lon": 12.3590794}, "tags": {"landuse": "industrial"}}, {"type": "way", "id": 24018199, "center": {"lat": 48.0467544, "lon": 12.221613}, "tags": {"landuse": "industrial", "name": "J. Bauer", "official_name": "J. Bauer GmbH & Co. KG"}}, {"type": "way", "id": 24024440, "center": {"lat": 48.0499628, "lon": 12.2238713}, "tags": {"landuse": "industrial"}}, {"type": "way", "id": 24062778, "center": {"lat": 48.0474892, "lon": 12.2345224}, "tags": {"landuse": "industrial", "name": "Huber & Sohn", "official_name": "Huber & Sohn Gmbh & Co. KG"}}, {"type": "way", "id": 24229046, "center": {"lat": 48.2845011, "lon": 12.1391811}, "tags": {"landuse": "industrial"}}, {"type": "way", "id": 24232722, "center": {"lat": 48.0630639, "lon": 12.2363834}, "tags": {"landuse": "industrial"}}, {"type": "way", "id": 24263517, "center": {"lat": 47.7006599, "lon": 14.3216709}, "tags": {"landuse": "industrial"}}, {"type": "way", "id": 24285406, "center": {"lat": 47.4730988, "lon": 12.0182975}, "tags": {"addr:city": "Kundl", "addr:country": "AT", "addr:housenumber": "88", "addr:postcode": "6250", "addr:street": "Luna", "contact:website": "http://www.pfeifergroup.com/", "industrial": "timber", "landuse": "industrial", "name": "Pfeifer Holz GmbH & Co KG"}}, {"type": "way", "id": 24403716, "center": {"lat": 48.2876514, "lon": 14.3089472}, "tags": {"alt_name": "Poschacher Brauerei", "contact:email": "office@brauunion.com", "contact:fax": "+43 732 69792672", "contact:phone": "+43 732 69790", "contact:website": "http://www.brauunion.at", "landuse": "industrial", "name": "Brau Union \u00d6sterreich - Firmenzentrale", "operator": "Brau Union \u00d6sterreich AG"}}, {"type": "way", "id": 24443606, "center": {"lat": 48.0527432, "lon": 14.4499151}, "tags": {"landuse": "industrial", "name": "BMW Steyr", "ref:bmw": "05.10"}}, {"type": "way", "id": 24443614, "center": {"lat": 48.0488156, "lon": 14.4517334}, "tags": {"contact:phone": "+43 7252 797-0", "landuse": "industrial", "name": "SKF Steyr", "website": "https://www.skf.com/at/footer/site-ownership"}}, {"type": "way", "id": 24443882, "center": {"lat": 48.0639072, "lon": 14.4332594}, "tags": {"barrier": "fence", "landuse": "industrial", "man_made": "wastewater_plant", "name": "Kl\u00e4ranlage RHV Steyr", "operator": "Reinhaltungsverband Steyr und Umgebung"}}, {"type": "way", "id": 24444998, "center": {"lat": 48.0384228, "lon": 14.4322384}, "tags": {"landuse": "industrial", "name": "Steyrwerke", "note": "Name-Tag soll keine Descriptoren beinhalten.", "operator": "MAN;ZF"}}, {"type": "way", "id": 24521790, "center": {"lat": 48.2824913, "lon": 12.1591479}, "tags": {"landuse": "industrial", "name": "Kiefer GmbH"}}, {"type": "way", "id": 24575430, "center": {"lat": 48.2649216, "lon": 12.1636255}, "tags": {"landuse": "industrial", "source": "extrapolation"}}, {"type": "way", "id": 24585772, "center": {"lat": 47.797061, "lon": 12.1187375}, "tags": {"landuse": "industrial"}}, {"type": "way", "id": 24645140, "center": {"lat": 48.0570244, "lon": 14.4550778}, "tags": {"addr:city": "Steyr", "addr:country": "AT", "addr:housenumber": "5", "addr:postcode": "4400", "addr:street": "Gusswerkstra\u00dfe", "contact:phone": "+43 7252 76417", "landuse": "industrial", "name": "Gienanth Steyr Guss GmbH", "old_name": "SLR Steyr", "source": "https://www.nachrichten.at/oberoesterreich/steyr/SLR-hat-neue-Eigentuemer;art68,3087123", "website": "https://www.slr.at/kontakt/kontakt-ihre-ansprechpartner-bei-slr/"}}, {"type": "way", "id": 24647910, "center": {"lat": 48.0437593, "lon": 12.223614}, "tags": {"landuse": "industrial", "name": "Gewerbegebiet Am Burgfrieden"}}, {"type": "way", "id": 24660951, "center": {"lat": 48.2676107, "lon": 12.1562726}, "tags": {"landuse": "industrial"}}, {"type": "way", "id": 24670304, "center": {"lat": 48.26723, "lon": 12.0902936}, "tags": {"landuse": "industrial"}}, {"type": "way", "id": 24681859, "center": {"lat": 48.6553687, "lon": 13.2470771}, "tags": {"barrier": "fence", "landuse": "industrial", "man_made": "wastewater_plant", "name": "Alte Kl\u00e4ranlage Rathsmannsdorf (au\u00dfer Betrieb)", "operator": "Markt Windorf"}}, {"type": "way", "id": 24682404, "center": {"lat": 48.659429, "lon": 13.2518896}, "tags": {"craft": "sawmill", "email": "holz-endl@t-online.de", "fax": "+49 8546 2455", "landuse": "industrial", "name": "S\u00e4ge- und Hobelwerk Endl", "phone": "+49 8546 1066", "website": "https://www.holz-endl.de/"}}, {"type": "way", "id": 24683351, "center": {"lat": 48.6671453, "lon": 13.3065016}, "tags": {"landuse": "industrial", "man_made": "wastewater_plant", "name": "Kl\u00e4ranlage"}}, {"type": "way", "id": 24710103, "center": {"lat": 48.1549008, "lon": 13.9608458}, "tags": {"landuse": "industrial", "name": "Humer Anh\u00e4nger"}}, {"type": "way", "id": 24711150, "center": {"lat": 48.350319, "lon": 12.1321407}, "tags": {"addr:city": "Taufkirchen (Vils)", "addr:country": "DE", "addr:housenumber": "37", "addr:postcode": "84416", "addr:street": "Landshuter Stra\u00dfe", "industrial": "furniture", "landuse": "industrial", "name": "Himolla", "website": "https://www.himolla.com", "wikidata": "Q39328520", "wikipedia": "de:Himolla"}}, {"type": "way", "id": 24719221, "center": {"lat": 48.0186018, "lon": 12.5523143}, "tags": {"landuse": "industrial", "name": "Chemiepark Trostberg", "note": "ehemals SKW Trostberg", "source": "Luftbilder des Bayerischen Vermessungsamts"}}, {"type": "way", "id": 24735184, "center": {"lat": 47.9988494, "lon": 12.3099954}, "tags": {"description": "Verpackungsmaschinen", "landuse": "industrial", "man_made": "works", "name": "SOMIC Verpackungsmaschinen", "website": "https://www.somic.de/de/kontakt/vertrieb-weltweit"}}, {"type": "way", "id": 24778048, "center": {"lat": 49.2060229, "lon": 12.6366991}, "tags": {"landuse": "industrial", "name": "Zollner AG"}}, {"type": "way", "id": 24778051, "center": {"lat": 49.2060725, "lon": 12.6383059}, "tags": {"landuse": "industrial", "name": "Hotex"}}, {"type": "way", "id": 24778053, "center": {"lat": 49.2066331, "lon": 12.6378058}, "tags": {"landuse": "industrial", "name": "B\u00fcrotechnik Baumgartner"}}, {"type": "way", "id": 24830381, "center": {"lat": 48.3247401, "lon": 14.300885}, "tags": {"addr:city": "Linz", "addr:country": "AT", "addr:housenumber": "206", "addr:postcode": "4040", "addr:street": "Freist\u00e4dter Stra\u00dfe", "frequency": "50", "landuse": "industrial", "location": "outdoor", "name": "Umspannwerk Linz-Nord", "not:operator:wikidata": "Q1827148", "operator": "Linz Netz", "power": "substation", "substation": "transmission", "voltage": "110000"}}, {"type": "way", "id": 24876608, "center": {"lat": 48.0474794, "lon": 14.4056771}, "tags": {"landuse": "industrial"}}, {"type": "way", "id": 24890410, "center": {"lat": 49.206799, "lon": 12.6362586}, "tags": {"landuse": "industrial", "name": "Bruckbauer"}}, {"type": "way", "id": 24975576, "center": {"lat": 48.1649258, "lon": 14.0053204}, "tags": {"landuse": "industrial", "name": "Vereinigte Fettwerke Wels"}}, {"type": "way", "id": 24996621, "center": {"lat": 48.0582148, "lon": 14.4414116}, "tags": {"landuse": "industrial"}}, {"type": "way", "id": 24996673, "center": {"lat": 48.0582014, "lon": 14.4525945}, "tags": {"landuse": "industrial"}}, {"type": "way", "id": 24997166, "center": {"lat": 48.0629427, "lon": 14.4224305}, "tags": {"landuse": "industrial"}}, {"type": "way", "id": 24997189, "center": {"lat": 48.056681, "lon": 14.4221416}, "tags": {"landuse": "industrial", "name": "GFM"}}, {"type": "way", "id": 24997235, "center": {"lat": 48.0544736, "lon": 14.4245772}, "tags": {"landuse": "industrial"}}, {"type": "way", "id": 25005805, "center": {"lat": 48.4034617, "lon": 14.3657081}, "tags": {"landuse": "industrial", "name": "S\u00e4gewerk"}}, {"type": "way", "id": 25071115, "center": {"lat": 48.0394993, "lon": 13.5174331}, "tags": {"landuse": "industrial", "name": "S\u00e4gewerk Muss Hermann"}}, {"type": "way", "id": 25103229, "center": {"lat": 48.0881019, "lon": 14.4290195}, "tags": {"landuse": "industrial"}}, {"type": "way", "id": 25148287, "center": {"lat": 48.0377129, "lon": 13.5042892}, "tags": {"brewery": "Zipfer Bier", "industrial": "brewery", "landuse": "industrial", "man_made": "works", "name": "Brau Union Brauerei Zipf", "operator": "Brau Union \u00d6sterreich AG", "product": "beer", "website": "https://www.zipfer.at/", "wikidata": "Q900422"}}, {"type": "way", "id": 25197414, "center": {"lat": 48.7760508, "lon": 14.3018463}, "tags": {"barrier": "fence", "industrial": "factory", "landuse": "industrial", "name": "JIP - Pap\u00edrny V\u011bt\u0159n\u00ed, a.s.", "website": "https://www.jip.cz", "wikidata": "Q58488849", "wikipedia": "cs:JIP \u2013 Pap\u00edrny V\u011bt\u0159n\u00ed"}}, {"type": "way", "id": 25208839, "center": {"lat": 48.7022731, "lon": 13.2792534}, "tags": {"landuse": "industrial", "name": "Gewerbegebiet Kollmering"}}, {"type": "way", "id": 25293279, "center": {"lat": 48.7182639, "lon": 13.2675914}, "tags": {"landuse": "industrial"}}, {"type": "way", "id": 25314323, "center": {"lat": 48.7222529, "lon": 13.2638661}, "tags": {"landuse": "industrial", "man_made": "wastewater_plant"}}, {"type": "way", "id": 25342137, "center": {"lat": 48.27399, "lon": 12.2719028}, "tags": {"contact:website": "http://www.holzwerk-obermeier.de/", "landuse": "industrial", "name": "Holzwerk Obermeier"}}, {"type": "way", "id": 25469209, "center": {"lat": 48.0475251, "lon": 12.2231023}, "tags": {"landuse": "industrial"}}, {"type": "way", "id": 25544244, "center": {"lat": 48.7310849, "lon": 13.2548552}, "tags": {"landuse": "industrial"}}, {"type": "way", "id": 25629707, "center": {"lat": 47.8047467, "lon": 12.9554992}, "tags": {"addr:housenumber": "1", "addr:postcode": "83404", "addr:street": "Feldkirchener Feld", "landuse": "industrial", "name": "Palfinger Ainring"}}, {"type": "way", "id": 25629749, "center": {"lat": 47.7944503, "lon": 12.9520237}, "tags": {"addr:city": "Hammerau", "addr:housenumber": "1-2", "addr:postcode": "83404", "addr:street": "Max-Aicher-Allee", "email": "stahlwerk@annahuette.com", "fax": "+49 8654 487968", "landuse": "industrial", "man_made": "works", "name": "Stahlwerk Annah\u00fctte", "operator": "Stahlwerk Annah\u00fctte Max Aicher GmbH & Co. KG", "phone": "+49 8654 4870", "product": "steel", "website": "https://www.annahuette.com/home", "wikidata": "Q2329057", "wikipedia": "de:Stahlwerk Annah\u00fctte"}}, {"type": "way", "id": 25749758, "center": {"lat": 48.1197723, "lon": 14.901044}, "tags": {"landuse": "industrial", "name": "Umdasch / Doka"}}, {"type": "way", "id": 25749920, "center": {"lat": 48.1236146, "lon": 14.8902981}, "tags": {"landuse": "industrial"}}, {"type": "way", "id": 25761906, "center": {"lat": 48.1198469, "lon": 14.8903516}, "tags": {"landuse": "industrial"}}, {"type": "way", "id": 25797868, "center": {"lat": 48.7171019, "lon": 13.2706054}, "tags": {"landuse": "industrial"}}, {"type": "way", "id": 25824042, "center": {"lat": 47.7259524, "lon": 13.0665355}, "tags": {"landuse": "industrial", "name": "Bosch"}}, {"type": "way", "id": 25846041, "center": {"lat": 47.8286657, "lon": 12.1562127}, "tags": {"landuse": "industrial", "name": "Sengewald"}}, {"type": "way", "id": 25878768, "center": {"lat": 47.7740225, "lon": 12.1283992}, "tags": {"landuse": "industrial", "name": "Innkieswerk"}}, {"type": "way", "id": 25881963, "center": {"lat": 48.6390501, "lon": 12.4912567}, "tags": {"landuse": "industrial", "man_made": "works", "name": "BMW Werk 02.10", "ref:bmw": "02.10"}}, {"type": "way", "id": 25882180, "center": {"lat": 48.6411487, "lon": 12.4206367}, "tags": {"addr:city": "Loiching", "addr:housenumber": "3", "addr:postcode": "84180", "addr:street": "Bahnweg", "landuse": "industrial", "man_made": "works", "name": "BMW Werk 02.80", "ref:bmw": "02.80"}}, {"type": "way", "id": 25891947, "center": {"lat": 47.8374379, "lon": 12.1580086}, "tags": {"landuse": "industrial", "name": "Hamberger Logistik Center"}}, {"type": "way", "id": 25970051, "center": {"lat": 47.8106789, "lon": 12.1206788}, "tags": {"addr:city": "Raubling", "addr:country": "DE", "addr:housenumber": "1", "addr:postcode": "83064", "addr:street": "Seestra\u00dfe", "email": "Suedbayern.am-rosenheim@autobahn.de", "landuse": "industrial", "name": "Autobahnmeisterei Raubling", "operator": "Autobahn GmbH"}}, {"type": "way", "id": 26238297, "center": {"lat": 48.6433512, "lon": 12.4816108}, "tags": {"landuse": "industrial", "man_made": "works", "name": "BMW Werk 02.20", "ref:bmw": "02.20", "website": "http://www.bmw-werk-dingolfing.de/", "wikidata": "Q796355"}}, {"type": "way", "id": 26569414, "center": {"lat": 48.2013242, "lon": 13.4733802}, "tags": {"industrial": "factory", "landuse": "industrial"}}, {"type": "way", "id": 26913368, "center": {"lat": 47.9464248, "lon": 13.1766173}, "tags": {"landuse": "industrial", "man_made": "works", "name": "Palfinger", "website": "https://www.palfinger.com", "wikidata": "Q697492", "wikipedia": "de:Palfinger"}}, {"type": "way", "id": 27191604, "center": {"lat": 48.6841448, "lon": 13.2889037}, "tags": {"frequency": "50", "landuse": "industrial", "location": "outdoor", "name": "Umspannwerk Aicha v.W.", "name:abbreviation": "AIHA", "power": "substation", "substation": "distribution", "voltage": "110000"}}, {"type": "way", "id": 27446890, "center": {"lat": 48.0250032, "lon": 14.7613034}, "tags": {"contact:phone": "+43 7475 5000", "landuse": "industrial", "name": "Mondi Neusiedler"}}, {"type": "way", "id": 27641940, "center": {"lat": 48.2383966, "lon": 14.2370595}, "tags": {"amenity": "recycling", "landuse": "industrial", "recycling:green_waste": "yes", "recycling:wood": "yes", "recycling_type": "container"}}, {"type": "way", "id": 27652572, "center": {"lat": 48.2721486, "lon": 14.2439791}, "tags": {"contact:email": "office@rosenbauer.com", "fax": "+43 732 6794-89", "landuse": "industrial", "name": "Rosenbauer", "opening_hours": "Mo-Th 07:00-17:00; Fr 07:00-16:00; Sa-Su off", "operator": "Rosenbauer International AG", "phone": "+43 732 6794-0", "source": "yahoo", "website": "https://www.rosenbauer.com", "wikidata": "Q459825", "wikipedia": "de:Rosenbauer (Unternehmen)"}}, {"type": "way", "id": 27661979, "center": {"lat": 48.7227723, "lon": 13.5760048}, "tags": {"landuse": "industrial"}}, {"type": "way", "id": 27951669, "center": {"lat": 48.2368183, "lon": 14.4123765}, "tags": {"contact:phone": "+43 732 3400-6111", "contact:website": "http://www.linzag.at", "landuse": "industrial", "man_made": "wastewater_plant", "name": "Regionalkl\u00e4ranlage Linz/Asten", "operator": "LINZ SERVICE GmbH f\u00fcr Infrastruktur und Kommunale Dienste", "source": "http://www.linzag.at/cms/media/linzagwebsite/dokumente/infomaterial_1/service_1/RKL_Asten.pdf"}}, {"type": "way", "id": 28079809, "center": {"lat": 48.2549462, "lon": 14.2583644}, "tags": {"contact:email": "office@rosenbauer.com", "contact:fax": "+43 732 6794-89", "contact:phone": "+43 732 6794-0", "contact:website": "http://www.rosenbauer.com", "industrial": "factory", "landuse": "industrial", "name": "Rosenbauer Werk II Leonding", "operator": "Rosenbauer International AG"}}, {"type": "way", "id": 28079846, "center": {"lat": 48.2553319, "lon": 14.2638678}, "tags": {"contact:email": "office@poloplast.com", "contact:fax": "+43 732 38869", "contact:phone": "+43 732 38860", "contact:website": "http://www.poloplast.com", "landuse": "industrial", "name": "Poloplast", "operator": "POLOPLAST GmbH & Co KG"}}, {"type": "way", "id": 28260930, "center": {"lat": 48.6973434, "lon": 12.6474895}, "tags": {"landuse": "industrial", "name": "Nemak Pilsting GmbH", "website": "https://www.nemak.com/"}}, {"type": "way", "id": 28469397, "center": {"lat": 49.1584746, "lon": 14.3525383}, "tags": {"landuse": "industrial", "location": "outdoor", "name": "rozvodna Ko\u010d\u00edn", "operator": "\u010cEPS", "operator:wikidata": "Q11089927", "power": "substation", "sorting_name": "Ko\u010d\u00edn", "source": "cuzk:km", "source:name": "ceps_cr", "substation": "transmission", "voltage": "400000;110000", "wikidata": "Q55536515"}}, {"type": "way", "id": 28682182, "center": {"lat": 48.4187185, "lon": 14.6090684}, "tags": {"landuse": "industrial", "name": "Fernw\u00e4rme Gutau", "note": "powerplant", "operator": "Fernw\u00e4rme Gutau eGen", "plant:method": "combustion", "plant:output:hot_water": "yes", "plant:source": "biomass", "power": "plant", "source": "aerial gutau", "start_date": "2006-09"}}, {"type": "way", "id": 28701910, "center": {"lat": 49.0803791, "lon": 12.723065}, "tags": {"landuse": "industrial", "man_made": "works", "name": "B+K", "source": "landsat"}}, {"type": "way", "id": 28955819, "center": {"lat": 49.1578901, "lon": 12.7322472}, "tags": {"landuse": "industrial", "name": "Zollner Elektronik AG", "source": "DOP_LVA_BY_01"}}, {"type": "way", "id": 28962879, "center": {"lat": 49.19095, "lon": 12.5353839}, "tags": {"landuse": "industrial", "name": "HKR", "source": "DOP_LVA_BY_01"}}, {"type": "way", "id": 28985710, "center": {"lat": 47.8639386, "lon": 13.0089367}, "tags": {"landuse": "industrial"}}, {"type": "way", "id": 28985831, "center": {"lat": 47.8622766, "lon": 12.997617}, "tags": {"landuse": "industrial", "name": "Salzburger Abfallbeseitigung GmbH", "source": "Yahoo"}}, {"type": "way", "id": 29011777, "center": {"lat": 49.2090095, "lon": 12.624961}, "tags": {"landuse": "industrial"}}, {"type": "way", "id": 29024931, "center": {"lat": 48.9588246, "lon": 12.237785}, "tags": {"landuse": "industrial", "source": "Bing"}}, {"type": "way", "id": 29064199, "center": {"lat": 48.4252686, "lon": 14.6008387}, "tags": {"landuse": "industrial", "layer": "-2", "source": "aerial gutau"}}, {"type": "way", "id": 29114517, "center": {"lat": 49.150941, "lon": 12.1071055}, "tags": {"landuse": "industrial", "name": "Wasserwerk Hagenau"}}, {"type": "way", "id": 29116441, "center": {"lat": 49.193608, "lon": 12.0821746}, "tags": {"landuse": "industrial", "source": "DOP_LVA_BY_01"}}, {"type": "way", "id": 29117839, "center": {"lat": 49.1870263, "lon": 12.0912042}, "tags": {"landuse": "industrial"}}, {"type": "way", "id": 29192755, "center": {"lat": 47.7260027, "lon": 13.4948701}, "tags": {"addr:postcode": "5360", "landuse": "industrial", "source": "geoimage.at HighQuality"}}, {"type": "way", "id": 29194375, "center": {"lat": 47.941575, "lon": 13.8030313}, "tags": {"barrier": "fence", "landuse": "industrial", "man_made": "wastewater_plant", "name": "Kl\u00e4ranlage", "source": "geoimage.at"}}, {"type": "way", "id": 29194376, "center": {"lat": 47.9895588, "lon": 13.8072997}, "tags": {"landuse": "industrial", "man_made": "wastewater_plant", "name": "Kl\u00e4ranlage Kohlwehr"}}, {"type": "way", "id": 29215532, "center": {"lat": 48.5849749, "lon": 13.9879847}, "tags": {"landuse": "industrial", "name": "Molkerei Rohrbach"}}, {"type": "way", "id": 29259568, "center": {"lat": 49.2000175, "lon": 12.0233051}, "tags": {"landuse": "industrial"}}, {"type": "way", "id": 29293900, "center": {"lat": 49.2116303, "lon": 12.0901883}, "tags": {"landuse": "industrial", "source": "DOP_LVA_BY_01"}}, {"type": "way", "id": 29293904, "center": {"lat": 49.2097873, "lon": 12.0886693}, "tags": {"landuse": "industrial", "name": "ehem. Eisenwerk Maximiliansh\u00fctte Haidhof", "source": "DOP_LVA_BY_01"}}, {"type": "way", "id": 29363719, "center": {"lat": 48.1823557, "lon": 14.1375953}, "tags": {"addr:city": "Marchtrenk", "addr:housenumber": "73", "addr:postcode": "4614", "addr:street": "Kappern", "landuse": "industrial", "man_made": "wastewater_plant", "name": "Kl\u00e4ranlage Kappern", "operator": "Abwasserverband Welser Heide"}}, {"type": "way", "id": 29417741, "center": {"lat": 49.012574, "lon": 12.150056}, "tags": {"access": "no", "addr:city": "Regensburg", "addr:country": "DE", "addr:housenumber": "54", "addr:postcode": "93055", "addr:street": "Straubinger Stra\u00dfe", "barrier": "fence", "landuse": "industrial", "name": "Umspannwerk Regensburg", "operator": "TenneT TSO GmbH;Bayernwerk", "power": "substation", "ref": "RE", "substation": "transmission", "voltage": "220000", "wikidata": "Q58194317"}}, {"type": "way", "id": 29454827, "center": {"lat": 48.9152063, "lon": 12.325618}, "tags": {"landuse": "industrial", "man_made": "wastewater_plant", "name": "Kl\u00e4ranlage Riekofen", "operator": "Gemeinde Riekofen"}}, {"type": "way", "id": 29470303, "center": {"lat": 49.2137149, "lon": 12.0301987}, "tags": {"industrial": "cement", "landuse": "industrial", "name": "Zementwerk Burglengenfeld", "operator": "Heidelberg Cement", "website": "https://www.heidelbergcement.de/de/burglengenfeld"}}, {"type": "way", "id": 29478834, "center": {"lat": 47.9377168, "lon": 13.4814627}, "tags": {"landuse": "industrial", "source": "plan.at 2009"}}, {"type": "way", "id": 29479192, "center": {"lat": 47.9671661, "lon": 13.6079761}, "tags": {"landuse": "industrial", "man_made": "wastewater_plant", "source": "plan.at 2009"}}, {"type": "way", "id": 29504067, "center": {"lat": 48.5651563, "lon": 13.9592125}, "tags": {"addr:postcode": "4150", "landuse": "industrial", "name": "Fischm\u00fchle", "source": "plan.at 2009"}}, {"type": "way", "id": 29556224, "center": {"lat": 48.243002, "lon": 14.265394}, "tags": {"addr:postcode": "4050", "landuse": "industrial", "name": "Fa. C. Bergmann"}}, {"type": "way", "id": 29563578, "center": {"lat": 48.2750527, "lon": 14.3382509}, "tags": {"landuse": "industrial", "name": "Brammenlagerplatz"}}, {"type": "way", "id": 29563651, "center": {"lat": 48.2770617, "lon": 14.3417975}, "tags": {"landuse": "industrial", "name": "FF-Materiallager 12 Ost"}}, {"type": "way", "id": 29566894, "center": {"lat": 48.2246257, "lon": 14.489578}, "tags": {"landuse": "industrial"}}, {"type": "way", "id": 29603445, "center": {"lat": 48.226552, "lon": 13.0361773}, "tags": {"landuse": "industrial", "name": "AMAG Austria Metall AG"}}, {"type": "way", "id": 29603448, "center": {"lat": 48.2197131, "lon": 13.0304914}, "tags": {"landuse": "industrial", "name": "Borbet Austria GmbH"}}, {"type": "way", "id": 29788628, "center": {"lat": 47.5853056, "lon": 12.6001947}, "tags": {"landuse": "industrial", "man_made": "wastewater_plant", "name": "Kl\u00e4ranlage Waidring", "source": "plan.at 2009"}}, {"type": "way", "id": 29788641, "center": {"lat": 47.5952432, "lon": 12.473508}, "tags": {"landuse": "industrial", "man_made": "wastewater_plant", "name": "Kl\u00e4ranlage Kirchdorf", "source": "geoimage.at MaxRes"}}, {"type": "way", "id": 30063468, "center": {"lat": 49.2011478, "lon": 12.3010921}, "tags": {"addr:city": "Nittenau", "addr:housenumber": "1", "addr:postcode": "93149", "addr:street": "Muckenbach", "craft": "sawmill", "industrial": "sawmill", "landuse": "industrial", "name": "S\u00e4gewerk Michael Kraus e.K.", "operator": "Michael Kraus", "phone": "+49 9436 419", "source": "local knowledge;survey"}}, {"type": "way", "id": 30088390, "center": {"lat": 48.497274, "lon": 14.4979893}, "tags": {"landuse": "industrial"}}, {"type": "way", "id": 30091045, "center": {"lat": 48.4947375, "lon": 14.4881693}, "tags": {"landuse": "industrial", "layer": "-1"}}, {"type": "way", "id": 30107725, "center": {"lat": 48.4945106, "lon": 14.5067833}, "tags": {"landuse": "industrial", "man_made": "wastewater_plant", "name": "Kl\u00e4ranlage Freistadt", "operator": "Reinhaltungsverband Freistadt und Umgebung"}}, {"type": "way", "id": 30133608, "center": {"lat": 49.2079396, "lon": 12.925674}, "tags": {"landuse": "industrial", "man_made": "wastewater_plant", "name": "Kl\u00e4ranlage", "source": "DOP_LVA_BY_01"}}, {"type": "way", "id": 30219056, "center": {"lat": 48.1554596, "lon": 14.4974453}, "tags": {"landuse": "industrial", "name": "CNH Industrial \u00d6sterreich GmbH St. Valentin"}}, {"type": "way", "id": 30219057, "center": {"lat": 48.202535, "lon": 14.5185726}, "tags": {"addr:postcode": "4300", "industrial": "oil_storage", "landuse": "industrial", "name": "\u00d6MV - Tanklager", "source": "plan.at 2009"}}, {"type": "way", "id": 30219955, "center": {"lat": 48.0701667, "lon": 14.8083713}, "tags": {"addr:city": "Hausmening", "addr:country": "AT", "addr:housenumber": "50", "addr:postcode": "3363", "addr:street": "Theresienthalstra\u00dfe", "contact:phone": "+43 7475 500-0", "landuse": "industrial", "name": "Mondi Neusiedler", "source": "geoimage.at"}}, {"type": "way", "id": 30220002, "center": {"lat": 48.099962, "lon": 14.8067293}, "tags": {"addr:city": "Mauer bei Amstetten", "addr:country": "AT", "addr:housenumber": "56", "addr:postcode": "3362", "addr:street": "Urlweg", "landuse": "industrial", "man_made": "wastewater_plant", "name": "Kl\u00e4ranlage Mauer"}}, {"type": "way", "id": 30220061, "center": {"lat": 48.1197319, "lon": 14.890203}, "tags": {"addr:city": "Amstetten", "addr:postcode": "3300", "building": "yes", "contact:phone": "+43 7472 606", "landuse": "industrial", "name": "Wieland Austria", "old_name": "Fa. BUNTMETALL", "operator": "Wieland Austria GmbH", "source": "plan.at 2009", "website": "https://www.wieland.com/de/wieland-austria"}}, {"type": "way", "id": 30222218, "center": {"lat": 48.0638848, "lon": 14.8129435}, "tags": {"landuse": "industrial", "man_made": "water_works", "name": "Wasserwerk Ulmerfeld - Hausmening", "source": "plan.at 2009"}}, {"type": "way", "id": 30292216, "center": {"lat": 48.509913, "lon": 14.5001394}, "tags": {"landuse": "industrial", "layer": "-1", "name": "Braucommune Freistadt"}}, {"type": "way", "id": 30294391, "center": {"lat": 47.4665813, "lon": 11.9796326}, "tags": {"landuse": "industrial", "name": "Sandoz", "place": "plot", "source": "geoimage.at"}}, {"type": "way", "id": 30422030, "center": {"lat": 48.3968468, "lon": 12.6183106}, "tags": {"landuse": "industrial", "name": "Industriegebiet Ost"}}, {"type": "way", "id": 30444401, "center": {"lat": 49.2160481, "lon": 12.5067629}, "tags": {"landuse": "industrial", "name": "Industriegebiet Roding am Bahnhof"}}, {"type": "way", "id": 30511979, "center": {"lat": 47.8236121, "lon": 13.0292644}, "tags": {"alt_name": "Messe Salzburg", "amenity": "exhibition_centre", "landuse": "industrial", "name": "Messezentrum Salzburg", "short_name": "MZS"}}, {"type": "way", "id": 30513046, "center": {"lat": 47.409976, "lon": 13.2161031}, "tags": {"addr:postcode": "5500", "landuse": "industrial", "name": "S\u00e4gewerk", "source": "plan.at 2009"}}, {"type": "way", "id": 30515855, "center": {"lat": 47.4137958, "lon": 15.0200719}, "tags": {"addr:postcode": "8793", "landuse": "industrial", "man_made": "wastewater_plant", "name": "Kl\u00e4ranlage Umweltzentrum"}}, {"type": "way", "id": 30533422, "center": {"lat": 47.3989215, "lon": 13.7067595}, "tags": {"landuse": "industrial"}}, {"type": "way", "id": 30573039, "center": {"lat": 48.0748996, "lon": 14.3734938}, "tags": {"addr:postcode": "4493", "landuse": "industrial", "name": "Wirtschaftszone", "source": "plan.at 2009; Bing"}}, {"type": "way", "id": 30577509, "center": {"lat": 48.0720884, "lon": 14.4209809}, "tags": {"landuse": "industrial"}}, {"type": "way", "id": 30577513, "center": {"lat": 48.0684842, "lon": 14.4212079}, "tags": {"addr:postcode": "4400", "landuse": "industrial", "source": "plan.at 2009"}}, {"type": "way", "id": 30577559, "center": {"lat": 48.0522833, "lon": 14.3959754}, "tags": {"addr:postcode": "4400", "landuse": "industrial", "source": "plan.at 2009"}}, {"type": "way", "id": 30598961, "center": {"lat": 48.2503534, "lon": 12.58559}, "tags": {"addr:city": "T\u00f6ging am Inn", "addr:country": "DE", "addr:housenumber": "18", "addr:postcode": "84513", "addr:street": "Werkstra\u00dfe", "disused:power": "plant", "end_date": "2022-02-01", "landuse": "industrial", "name": "Altes Wasserkraftwerk T\u00f6ging", "operator": "Verbund Hydro Power AG", "plant:method": "run-of-the-river", "plant:output:electricity": "85.3 MW", "plant:source": "hydro", "start_date": "1924-01-01", "wikidata": "Q22344497", "wikipedia": "de:Kraftwerk T\u00f6ging"}}, {"type": "way", "id": 30642407, "center": {"lat": 48.2160867, "lon": 12.0598796}, "tags": {"landuse": "industrial"}}, {"type": "way", "id": 30682302, "center": {"lat": 48.8879069, "lon": 12.3521703}, "tags": {"landuse": "industrial", "name": "S\u00fcdst\u00e4rke GmbH"}}, {"type": "way", "id": 30728048, "center": {"lat": 48.04885, "lon": 14.2052958}, "tags": {"landuse": "industrial", "man_made": "wastewater_plant", "name": "Kl\u00e4ranlage Bad Hall"}}, {"type": "way", "id": 30728671, "center": {"lat": 48.4982974, "lon": 13.9656434}, "tags": {"landuse": "industrial"}}, {"type": "way", "id": 30728673, "center": {"lat": 48.4978443, "lon": 13.966641}, "tags": {"landuse": "industrial"}}, {"type": "way", "id": 30842680, "center": {"lat": 48.9723238, "lon": 13.1002712}, "tags": {"landuse": "industrial"}}, {"type": "way", "id": 30842939, "center": {"lat": 48.9825724, "lon": 13.1282644}, "tags": {"landuse": "industrial", "name": "Sch\u00f6nh\u00f6h I"}}, {"type": "way", "id": 30993159, "center": {"lat": 49.0692479, "lon": 12.4238875}, "tags": {"landuse": "industrial"}}, {"type": "way", "id": 31007053, "center": {"lat": 47.9333587, "lon": 13.7962606}, "tags": {"building": "industrial", "generator:type": "kaplan_turbine", "landuse": "industrial", "layer": "1", "name": "Kraftwerk Gmunden", "operator": "Energie AG", "operator:wikidata": "Q1231542", "plant:method": "run-of-the-river", "plant:output:electricity": "12.2 MW", "plant:source": "hydro", "power": "plant", "start_date": "1968"}}, {"type": "way", "id": 31267503, "center": {"lat": 49.0543542, "lon": 12.1282325}, "tags": {"barrier": "fence", "frequency": "50", "landuse": "industrial", "name": "Umspannwerk Wutzlhofen", "name:abbreviation": "WUZ", "operator": "E.ON Netz GmbH", "power": "substation", "voltage": "110000"}}, {"type": "way", "id": 31451451, "center": {"lat": 49.213947, "lon": 12.8431381}, "tags": {"landuse": "industrial", "source": "DOP_LVA_BY_01"}}, {"type": "way", "id": 31547202, "center": {"lat": 49.2030954, "lon": 12.766451}, "tags": {"landuse": "industrial", "name": "Steinm\u00fchle", "source": "DOP_LVA_BY_01"}}, {"type": "way", "id": 31547203, "center": {"lat": 49.2026743, "lon": 12.769869}, "tags": {"landuse": "industrial", "name": "Reism\u00fchle", "source": "DOP_LVA_BY_01"}}, {"type": "way", "id": 31548576, "center": {"lat": 49.2024101, "lon": 12.7787968}, "tags": {"landuse": "industrial", "name": "Breitensteinm\u00fchle", "source": "DOP_LVA_BY_01"}}, {"type": "way", "id": 31610753, "center": {"lat": 49.2026106, "lon": 12.8761747}, "tags": {"landuse": "industrial", "man_made": "wastewater_plant", "name": "Kl\u00e4ranlage", "source": "DOP_LVA_BY_01"}}, {"type": "way", "id": 31814687, "center": {"lat": 49.2082707, "lon": 14.6383355}, "tags": {"building": "barn", "building:ruian:type": "13", "landuse": "industrial", "ref:ruian:building": "40927407", "source": "cuzk:ruian"}}, {"type": "way", "id": 31814700, "center": {"lat": 49.2107515, "lon": 14.637707}, "tags": {"building": "barn", "building:ruian:type": "13", "landuse": "industrial", "ref:ruian:building": "41270681", "source": "cuzk:ruian"}}, {"type": "way", "id": 31815353, "center": {"lat": 49.2092683, "lon": 14.6891399}, "tags": {"landuse": "industrial"}}, {"type": "way", "id": 31822076, "center": {"lat": 49.1057838, "lon": 12.4824111}, "tags": {"landuse": "industrial", "man_made": "wastewater_plant", "name": "Kl\u00e4ranlage Falkenstein", "operator": "Markt Falkenstein", "source": "DOP_LVA_BY_01"}}, {"type": "way", "id": 32340145, "center": {"lat": 49.1626208, "lon": 12.7626275}, "tags": {"landuse": "industrial", "man_made": "wastewater_plant", "source": "DOP_LVA_BY_01"}}, {"type": "way", "id": 32453264, "center": {"lat": 47.952321, "lon": 12.6122609}, "tags": {"landuse": "industrial", "man_made": "works", "name": "Siteco GmbH"}}, {"type": "way", "id": 32460763, "center": {"lat": 49.1666166, "lon": 12.8352884}, "tags": {"landuse": "industrial", "man_made": "wastewater_plant", "name": "Kl\u00e4ranlage", "source": "DOP_LVA_BY_01"}}, {"type": "way", "id": 32461438, "center": {"lat": 49.1833483, "lon": 12.8505783}, "tags": {"landuse": "industrial"}}, {"type": "way", "id": 32479722, "center": {"lat": 48.2487696, "lon": 14.2442476}, "tags": {"contact:fax": "+43 732 67255041", "description": "Konstruktionen aus Stahl - Aluminium - Nirosta", "email": "office@primetzhofer.at", "landuse": "industrial", "operator": "Primetzhofer Stahl-und Fahrzeugbau GmbH"}}, {"type": "way", "id": 32484996, "center": {"lat": 48.2367735, "lon": 14.2586556}, "tags": {"landuse": "industrial"}}, {"type": "way", "id": 32493406, "center": {"lat": 47.966741, "lon": 13.2401871}, "tags": {"frequency": "16.7", "landuse": "industrial", "location": "outdoor", "name": "Unterwerk Steindorf", "operator": "\u00d6BB-Infrastruktur AG", "operator:short": "\u00d6BB Infra", "operator:wikidata": "Q56425426", "power": "substation", "substation": "traction", "voltage": "110000;15000"}}, {"type": "way", "id": 32497151, "center": {"lat": 48.2254791, "lon": 14.2083123}, "tags": {"landuse": "industrial"}}, {"type": "way", "id": 32498285, "center": {"lat": 48.222927, "lon": 14.208847}, "tags": {"landuse": "industrial"}}, {"type": "way", "id": 32501034, "center": {"lat": 48.2185081, "lon": 14.2438142}, "tags": {"landuse": "industrial", "name": "Dr. Franz Feurstein GmbH. / delfortgroup AG", "website": "https://www.delfortgroup.com/de/karriere/oesterreich/"}}, {"type": "way", "id": 32501080, "center": {"lat": 48.2672016, "lon": 14.347504}, "tags": {"landuse": "industrial", "name": "Umspannwerk FHKW Linz-S\u00fcd", "operator": "Linz AG", "operator:wikidata": "Q1827148", "power": "substation", "substation": "transmission", "voltage": "110000"}}, {"type": "way", "id": 32519735, "center": {"lat": 48.0890086, "lon": 14.0505917}, "tags": {"landuse": "industrial", "man_made": "works", "name": "Fronius", "official_name": "Fronius International GmbH", "website": "https://www.fronius.com/"}}, {"type": "way", "id": 32537049, "center": {"lat": 48.8863227, "lon": 12.3648835}, "tags": {"landuse": "industrial", "man_made": "wastewater_plant", "name": "Kl\u00e4ranlage S\u00fcnching", "operator": "Gemeinde S\u00fcnching", "source": "Bing"}}, {"type": "way", "id": 32599513, "center": {"lat": 49.0093937, "lon": 12.4033408}, "tags": {"landuse": "industrial", "name": "Deutsche Technoplast"}}, {"type": "way", "id": 32956467, "center": {"lat": 47.8849317, "lon": 13.1207185}, "tags": {"addr:city": "Seekirchen am Wallersee", "addr:country": "AT", "addr:housenumber": "15", "addr:postcode": "5201", "addr:street": "Gewerbestra\u00dfe", "email": "rhv.wallersee-sued@sbg.at", "landuse": "industrial", "man_made": "wastewater_plant", "name": "Reinhalteverband Wallersee S\u00fcd", "source": "yahoo"}}, {"type": "way", "id": 33004953, "center": {"lat": 47.7065687, "lon": 13.0823959}, "tags": {"frequency": "50", "landuse": "industrial", "location": "outdoor", "name": "Umspannwerk Oberalm", "power": "substation", "substation": "distribution", "voltage": "110000"}}, {"type": "way", "id": 33077861, "center": {"lat": 48.3240998, "lon": 14.3248887}, "tags": {"frequency": "50", "landuse": "industrial", "location": "outdoor", "name": "Umspannwerk Katzbach", "not:operator:wikidata": "Q1827148", "operator": "Linz Netz", "power": "substation", "substation": "distribution", "voltage": "110000"}}, {"type": "way", "id": 33463751, "center": {"lat": 47.7739661, "lon": 12.9277993}, "tags": {"addr:country": "DE", "addr:housenumber": "4", "addr:postcode": "83451", "addr:street": "Hirschloh", "frequency": "50", "landuse": "industrial", "location": "outdoor", "name": "Umspannwerk Hirschloh", "operator": "Bayernwerk Netz", "operator:wikidata": "Q107477739", "power": "substation", "substation": "distribution", "voltage": "110000"}}, {"type": "way", "id": 33685690, "center": {"lat": 48.019273, "lon": 13.7274128}, "tags": {"frequency": "16.7", "landuse": "industrial", "location": "outdoor", "name": "Unterwerk Attnang-Puchheim", "operator": "\u00d6BB-Infrastruktur AG", "operator:short": "\u00d6BB Infra", "operator:wikidata": "Q56425426", "phone": "+43 7674 93000-4696", "power": "substation", "substation": "traction", "voltage": "110000;15000"}}, {"type": "way", "id": 33692059, "center": {"lat": 48.4182291, "lon": 13.3300479}, "tags": {"landuse": "industrial", "man_made": "works", "name": "RW silicium Rottwerk", "official_name": "RW silicium GmbH Rottwerk"}}, {"type": "way", "id": 33709482, "center": {"lat": 48.4380836, "lon": 13.3281018}, "tags": {"addr:city": "Ruhstorf a.d.Rott", "addr:country": "DE", "addr:housenumber": "32", "addr:postcode": "94099", "addr:street": "Hans-Loher-Stra\u00dfe", "landuse": "industrial", "man_made": "works", "name": "Siemens Technopark Ruhstorf", "website": "https://www.siemens.com/de/de/unternehmen/konzern/unternehmensstruktur/real-estate/rent/technoparks/ruhstorf.html"}}, {"type": "way", "id": 33709483, "center": {"lat": 48.4339575, "lon": 13.3325632}, "tags": {"landuse": "industrial", "man_made": "works", "name": "Hatz Diesel"}}, {"type": "way", "id": 33774615, "center": {"lat": 48.251166, "lon": 13.2430452}, "tags": {"landuse": "industrial", "name": "WIEHAG Wiesner Hager"}}, {"type": "way", "id": 33787304, "center": {"lat": 48.1485021, "lon": 12.6249412}, "tags": {"landuse": "industrial", "name": "AlzChem"}}, {"type": "way", "id": 33787617, "center": {"lat": 48.1425398, "lon": 12.5767616}, "tags": {"addr:city": "Garching an der Alz", "addr:country": "DE", "addr:housenumber": "72", "addr:postcode": "84518", "addr:street": "Langschwert", "email": "info@haba-beton.de", "image": "https://www.haba-beton.com/daten/Logo_HABA-BETON_xing.jpg", "industrial": "factory", "landuse": "industrial", "name": "HABA-Beton", "official_name": "Johann Bartlechner KG", "phone": "+49863462400", "website": "https://www.haba-beton.de"}}, {"type": "way", "id": 33790771, "center": {"lat": 48.5151728, "lon": 12.1009788}, "tags": {"addr:city": "Tiefenbach", "addr:housenumber": "1", "addr:place": "Schlo\u00dfberg", "addr:postcode": "84184", "building": "yes", "landuse": "industrial", "layer": "1", "name": "Uppenbornwerk II", "operator": "Stadtwerke M\u00fcnchen", "plant:method": "run-of-the-river", "plant:output:electricity": "18 MW", "plant:source": "hydro", "power": "plant"}}, {"type": "way", "id": 33811901, "center": {"lat": 47.9761596, "lon": 13.616876}, "tags": {"contact:phone": "+43 7672 701 0", "landuse": "industrial", "name": "Lenzing AG", "source": "geoimage.at", "website": "https://www.lenzing.com/de/impressum", "wikipedia": "de:Lenzing AG"}}, {"type": "way", "id": 33811906, "center": {"lat": 47.9751435, "lon": 13.6219319}, "tags": {"landuse": "industrial", "name": "Lenzing AG"}}, {"type": "way", "id": 33840137, "center": {"lat": 48.0120766, "lon": 13.5874309}, "tags": {"landuse": "industrial", "name": "Kraftwerk Timelkam", "operator": "Energie AG", "operator:wikidata": "Q1231542", "plant:method": "combustion", "plant:output:electricity": "405 MW", "plant:source": "gas", "power": "plant", "website": "https://www.energieag.at/ueber-uns/kraftwerke/thermische-kraftwerke/gas-und-dampf-kraftwerk-timelkam"}}, {"type": "way", "id": 33868831, "center": {"lat": 48.248564, "lon": 13.2105132}, "tags": {"landuse": "industrial"}}, {"type": "way", "id": 33868845, "center": {"lat": 48.252365, "lon": 13.213679}, "tags": {"landuse": "industrial"}}, {"type": "way", "id": 33922140, "center": {"lat": 48.0594801, "lon": 12.5741105}, "tags": {"addr:city": "Tacherting", "addr:housenumber": "15", "addr:postcode": "83342", "addr:street": "Carl-von-Linde-Stra\u00dfe", "landuse": "industrial", "name": "Linde AG Werk Schalchen"}}, {"type": "way", "id": 33922141, "center": {"lat": 48.0620238, "lon": 12.5724426}, "tags": {"landuse": "industrial", "name": "Alzchem Werk Schalchen"}}, {"type": "way", "id": 34340420, "center": {"lat": 48.5479619, "lon": 13.8931022}, "tags": {"landuse": "industrial", "name": "Internorm"}}, {"type": "way", "id": 34375072, "center": {"lat": 48.0044601, "lon": 12.9412991}, "tags": {"landuse": "industrial", "name": "Betonwerk Ramb\u00f6ck"}}, {"type": "way", "id": 34380206, "center": {"lat": 48.2443669, "lon": 13.3361494}, "tags": {"contact:email": "office@romberger.at", "contact:fax": "+43 7757 7030-12", "contact:phone": "+43 7757 7030-0", "contact:website": "http://www.romberger.at/", "landuse": "industrial", "man_made": "works", "name": "Romberger", "official_name": "Romberger Fertigteile GmbH"}}, {"type": "way", "id": 34380207, "center": {"lat": 48.2409898, "lon": 13.3398076}, "tags": {"landuse": "industrial"}}, {"type": "way", "id": 34515236, "center": {"lat": 48.0281739, "lon": 13.4927834}, "tags": {"landuse": "industrial", "man_made": "works", "name": "GE Healthcare Austria GmbH & Co OG"}}, {"type": "way", "id": 35008674, "center": {"lat": 48.8600204, "lon": 12.6375507}, "tags": {"amenity": "recycling", "landuse": "industrial", "name": "ZAW-SR Kompostwerk Aiterhofen", "operator": "ZAW-SR", "recycling_type": "centre"}}, {"type": "way", "id": 35008710, "center": {"lat": 48.8568185, "lon": 12.6424539}, "tags": {"description": "Biogasanlage", "landuse": "industrial", "operator": "E.ON Bioerdgas GmbH"}}, {"type": "way", "id": 35313023, "center": {"lat": 48.212368, "lon": 14.2179565}, "tags": {"landuse": "industrial", "name": "Ing. Voith-Traun"}}, {"type": "way", "id": 35313059, "center": {"lat": 48.2208574, "lon": 14.22618}, "tags": {"landuse": "industrial", "name": "HAKA K\u00fcche", "operator": "HAKA K\u00fcche GmbH"}}, {"type": "way", "id": 35360058, "center": {"lat": 48.0744678, "lon": 14.8036814}, "tags": {"landuse": "industrial", "source:geometry": "basemap.at; geoimage.at"}}, {"type": "way", "id": 35380127, "center": {"lat": 48.2179924, "lon": 14.2889324}, "tags": {"landuse": "industrial", "name": "Gr\u00fcnwallpark", "website": "https://www.gruenwallpark.at/"}}, {"type": "way", "id": 35578289, "center": {"lat": 48.224666, "lon": 13.3000183}, "tags": {"landuse": "industrial", "source": "geoimage.at"}}, {"type": "way", "id": 35786123, "center": {"lat": 48.7691254, "lon": 14.9542148}, "tags": {"landuse": "industrial", "name": "\u017dOS"}}, {"type": "way", "id": 35952032, "center": {"lat": 47.9841251, "lon": 14.2731532}, "tags": {"landuse": "industrial", "name": "AGRU"}}, {"type": "way", "id": 36058381, "center": {"lat": 48.2751423, "lon": 14.2298052}, "tags": {"landuse": "industrial", "name": "EBNER Industrieofenbau"}}, {"type": "way", "id": 36058388, "center": {"lat": 48.2748468, "lon": 14.2320291}, "tags": {"landuse": "industrial", "name": "EBNER Industrieofenbau"}}, {"type": "way", "id": 36437417, "center": {"lat": 49.1645644, "lon": 14.5770805}, "tags": {"industrial": "brickyard", "landuse": "industrial"}}, {"type": "way", "id": 36740722, "center": {"lat": 48.1637475, "lon": 14.3385121}, "tags": {"landuse": "industrial"}}, {"type": "way", "id": 36956121, "center": {"lat": 48.7442868, "lon": 13.6110587}, "tags": {"landuse": "industrial"}}, {"type": "way", "id": 36977745, "center": {"lat": 48.0233339, "lon": 12.5442055}, "tags": {"landuse": "industrial", "name": "Papierfabrik Hamburger Rieger", "official_name": "Papierfabrik Hamburger Rieger GmbH & Co. KG"}}, {"type": "way", "id": 36983594, "center": {"lat": 47.9564333, "lon": 12.6117084}, "tags": {"landuse": "industrial", "name": "BSH Hausger\u00e4te GmbH"}}, {"type": "way", "id": 37044236, "center": {"lat": 48.6787671, "lon": 13.2995531}, "tags": {"addr:city": "Aicha vorm Wald", "addr:country": "DE", "addr:housenumber": "6a", "addr:postcode": "94529", "addr:street": "Dreiburgenstra\u00dfe", "amenity": "recycling", "landuse": "industrial", "name": "Recyclinghof Aicha v.W.", "opening_hours": "We,Fr: 13:00-16:00, Sa: 09:00-12:00", "operator": "AWG Donau-Wald mbH", "phone": "+49 8544 91353", "recycling:batteries": "yes", "recycling:cans": "yes", "recycling:clothes": "yes", "recycling:glass": "yes", "recycling:glass_bottles": "yes", "recycling:green_waste": "yes", "recycling:paper": "yes", "recycling:plastic_packaging": "yes", "recycling:scrap_metal": "yes", "recycling_type": "centre", "website": "https://www.awg.de/abfallentsorgung/alle-anlagen-oeffnungszeiten/"}}, {"type": "way", "id": 37263951, "center": {"lat": 49.1877274, "lon": 14.3821002}, "tags": {"barrier": "fence", "fence_type": "chain_link", "landuse": "industrial", "location": "outdoor", "name": "Rozvodna K\u0159t\u011bnov", "operator": "EG.D", "operator:wikidata": "Q47089156", "power": "substation", "source": "cuzk:km", "substation": "distribution", "voltage": "110000;22000"}}, {"type": "way", "id": 37492528, "center": {"lat": 48.1634061, "lon": 14.3372739}, "tags": {"landuse": "industrial"}}, {"type": "way", "id": 37564874, "center": {"lat": 48.0221289, "lon": 13.5127543}, "tags": {"landuse": "industrial", "name": "S\u00e4gewerk Roithinger"}}, {"type": "way", "id": 37655242, "center": {"lat": 48.1900889, "lon": 12.4378789}, "tags": {"landuse": "industrial"}}, {"type": "way", "id": 37777410, "center": {"lat": 48.9239992, "lon": 12.0075201}, "tags": {"landuse": "industrial"}}, {"type": "way", "id": 37777411, "center": {"lat": 48.9250575, "lon": 12.011884}, "tags": {"landuse": "industrial"}}, {"type": "way", "id": 37785565, "center": {"lat": 48.0272023, "lon": 14.2312059}, "tags": {"addr:city": "Adlwang", "addr:country": "AT", "addr:housenumber": "1", "addr:postcode": "4541", "addr:street": "Terschlplatz", "fax": "+43 7258 24289", "landuse": "industrial", "name": "Terschl Metallbearbeitung", "phone": "+43 7258 2428"}}, {"type": "way", "id": 37785566, "center": {"lat": 48.0281221, "lon": 14.230674}, "tags": {"addr:city": "Adlwang", "addr:country": "AT", "addr:housenumber": "11", "addr:postcode": "4541", "addr:street": "Weignerstra\u00dfe", "landuse": "industrial", "name": "HOVA Maschinenbau GmbH"}}, {"type": "way", "id": 37800426, "center": {"lat": 48.1123811, "lon": 14.1968344}, "tags": {"landuse": "industrial", "name": "Kunex"}}, {"type": "way", "id": 37800427, "center": {"lat": 48.1132104, "lon": 14.1976983}, "tags": {"landuse": "industrial"}}, {"type": "way", "id": 37800428, "center": {"lat": 48.1140925, "lon": 14.1957478}, "tags": {"landuse": "industrial", "name": "Kunex"}}, {"type": "way", "id": 37972492, "center": {"lat": 48.927311, "lon": 12.0139832}, "tags": {"addr:housenumber": "2", "addr:street": "Br\u00fcckenstra\u00dfe", "landuse": "industrial", "name": "Wasserkraftwerk Bad Abbach", "plant:method": "run-of-the-river", "plant:output:electricity": "6.5 MW", "plant:source": "hydro", "power": "plant", "wikidata": "Q1786054", "wikipedia": "de:Kraftwerk Bad Abbach"}}, {"type": "way", "id": 38075161, "center": {"lat": 48.2414102, "lon": 12.4633538}, "tags": {"landuse": "industrial", "name": "Inn-Beton"}}, {"type": "way", "id": 38136745, "center": {"lat": 47.9106048, "lon": 12.5359103}, "tags": {"landuse": "industrial"}}, {"type": "way", "id": 38209299, "center": {"lat": 48.9152024, "lon": 14.0199664}, "tags": {"landuse": "industrial", "name": "Agrokomplex \u0160umava s.r.o."}}, {"type": "way", "id": 38248825, "center": {"lat": 48.7808023, "lon": 13.9464215}, "tags": {"landuse": "industrial"}}, {"type": "way", "id": 38248831, "center": {"lat": 48.7883349, "lon": 13.9449283}, "tags": {"landuse": "industrial", "name": "pila"}}, {"type": "way", "id": 38355453, "center": {"lat": 48.0789526, "lon": 14.0575781}, "tags": {"landuse": "industrial"}}, {"type": "way", "id": 38681902, "center": {"lat": 48.6053976, "lon": 13.5350856}, "tags": {"landuse": "industrial", "name": "Gewerbegebiet Thyrnau"}}, {"type": "way", "id": 38723720, "center": {"lat": 47.9995151, "lon": 14.2131443}, "tags": {"landuse": "industrial", "name": "Rika"}}, {"type": "way", "id": 38778213, "center": {"lat": 47.9347129, "lon": 12.7323149}, "tags": {"email": "info@bergader.de", "fax": "+49 8681 404100", "landuse": "industrial", "name": "Bergader K\u00e4serei", "official_name": "Bergader Privatk\u00e4serei GmbH", "phone": "+49 8681 4040", "website": "https://www.bergader.de/"}}, {"type": "way", "id": 38834716, "center": {"lat": 48.0552745, "lon": 14.1490251}, "tags": {"landuse": "industrial", "name": "Bauhof/Stra\u00dfenmeisterei Kremsm\u00fcnster"}}, {"type": "way", "id": 38868243, "center": {"lat": 47.2777201, "lon": 12.7398102}, "tags": {"barrier": "wall", "landuse": "industrial", "location": "outdoor", "name": "Umspannwerk Tauern", "operator": "Austrian Power Grid AG", "operator:wikidata": "Q783723", "power": "substation", "substation": "transmission", "voltage": "380000;220000"}}, {"type": "way", "id": 38911278, "center": {"lat": 47.9863292, "lon": 12.9283341}, "tags": {"landuse": "industrial"}}, {"type": "way", "id": 38964492, "center": {"lat": 47.9757278, "lon": 12.9070893}, "tags": {"landuse": "industrial", "name": "non ferrum GmbH"}}, {"type": "way", "id": 38964494, "center": {"lat": 47.97474, "lon": 12.907973}, "tags": {"landuse": "industrial", "name": "non ferrum GmbH"}}, {"type": "way", "id": 39051362, "center": {"lat": 47.8677463, "lon": 12.1055523}, "tags": {"landuse": "industrial", "name": "GABOR"}}, {"type": "way", "id": 39087917, "center": {"lat": 47.9889584, "lon": 12.9332921}, "tags": {"landuse": "industrial", "name": "Gewerbezone 2000"}}, {"type": "way", "id": 39345040, "center": {"lat": 48.516779, "lon": 13.8910347}, "tags": {"landuse": "industrial", "name": "P\u00fchringer Bau-Elektro", "source": "landsat, knowledge"}}, {"type": "way", "id": 39606799, "center": {"lat": 47.9826901, "lon": 12.9201406}, "tags": {"industrial": "factory", "landuse": "industrial", "name": "W&H Dentalwerk - Werk I"}}, {"type": "way", "id": 40917240, "center": {"lat": 48.165283, "lon": 14.0596051}, "tags": {"frequency": "50", "landuse": "industrial", "location": "outdoor", "name": "Umspannwerk Wels-Ost", "operator": "Wels Strom", "power": "substation", "substation": "distribution", "voltage": "110000;10000"}}, {"type": "way", "id": 40921186, "center": {"lat": 48.1630992, "lon": 14.0527535}, "tags": {"landuse": "industrial", "name": "Felbermayr"}}, {"type": "way", "id": 40924497, "center": {"lat": 48.1635497, "lon": 14.0458889}, "tags": {"landuse": "industrial", "name": "G. Englmayer"}}, {"type": "way", "id": 40924498, "center": {"lat": 48.1635718, "lon": 14.0421396}, "tags": {"landuse": "industrial", "name": "Liebherr"}}, {"type": "way", "id": 40943875, "center": {"lat": 47.7289887, "lon": 12.9064168}, "tags": {"barrier": "fence", "landuse": "industrial", "name": "Kl\u00e4ranlage Bayerisch Gmain/Gro\u00dfgmain", "source": "Yahoo"}}, {"type": "way", "id": 41291631, "center": {"lat": 47.7021355, "lon": 13.0795715}, "tags": {"addr:city": "Hallein", "addr:country": "AT", "addr:housenumber": "46", "addr:postcode": "5400", "addr:street": "Solvay-Halvic-Stra\u00dfe", "landuse": "industrial", "name": "Binderholz Bausysteme Hallein", "operator": "Binder Holz", "url": "https://www.binderholz.com/"}}, {"type": "way", "id": 41391898, "center": {"lat": 48.1022332, "lon": 14.4761727}, "tags": {"landuse": "industrial", "name": "Kl\u00e4ranlage"}}, {"type": "way", "id": 41504921, "center": {"lat": 47.8807705, "lon": 12.8455731}, "tags": {"landuse": "industrial", "name": "bam Asphaltmischwerk Englham", "source": "Yahoo", "website": "https://www.bam-net.de/"}}, {"type": "way", "id": 41504922, "center": {"lat": 47.880386, "lon": 12.8476287}, "tags": {"landuse": "industrial", "source": "Yahoo"}}, {"type": "way", "id": 41504923, "center": {"lat": 47.8804139, "lon": 12.8495608}, "tags": {"landuse": "industrial", "source": "Yahoo"}}, {"type": "way", "id": 41585685, "center": {"lat": 47.8502655, "lon": 12.0438229}, "tags": {"barrier": "fixme", "landuse": "industrial", "operator": "Bayernwerk Netz GmbH", "power": "substation", "substation": "distribution", "voltage": "110000"}}, {"type": "way", "id": 41657523, "center": {"lat": 47.9227304, "lon": 12.8357649}, "tags": {"landuse": "industrial"}}, {"type": "way", "id": 42275280, "center": {"lat": 47.9533524, "lon": 12.9440494}, "tags": {"landuse": "industrial", "source": "Yahoo"}}, {"type": "way", "id": 42336163, "center": {"lat": 48.769712, "lon": 13.4864864}, "tags": {"barrier": "fence", "frequency": "50", "landuse": "industrial", "location": "outdoor", "name": "Umspannwerk Perlesreuth", "name:abbreviation": "PERL", "operator": "E.ON Netz GmbH", "power": "substation", "substation": "transmission", "voltage": "110000"}}, {"type": "way", "id": 42419562, "center": {"lat": 48.3121004, "lon": 14.2784955}, "tags": {"contact:email": "linz@pramer.at", "contact:fax": "+43 732 730860", "contact:phone": "+43 732 730230-0", "contact:website": "http://www.pramer.at", "landuse": "industrial", "name": "Pramer Baustoffe", "opening_hours": "Mo-Th 07:00-12:00,13:00-16:30; Fr 07:00-12:00,13:00-16:00"}}, {"type": "way", "id": 42486678, "center": {"lat": 49.1418064, "lon": 14.1677026}, "tags": {"landuse": "industrial"}}, {"type": "way", "id": 42486680, "center": {"lat": 49.1413736, "lon": 14.1927697}, "tags": {"landuse": "industrial"}}, {"type": "way", "id": 43140844, "center": {"lat": 48.3426978, "lon": 13.402565}, "tags": {"landuse": "industrial"}}, {"type": "way", "id": 43156714, "center": {"lat": 48.3179857, "lon": 13.4269469}, "tags": {"landuse": "industrial"}}, {"type": "way", "id": 43181609, "center": {"lat": 48.2732161, "lon": 14.2676761}, "tags": {"contact:email": "sales.at@trench-group.com", "contact:fax": "+43 732 671341", "contact:phone": "+43 732 67930", "contact:website": "http://www.trenchgroup.com", "landuse": "industrial", "source": "Yahoo"}}, {"type": "way", "id": 43542907, "center": {"lat": 49.0143174, "lon": 12.1362319}, "tags": {"addr:city": "Regensburg", "addr:country": "DE", "addr:housenumber": "6", "addr:postcode": "93055", "addr:street": "Ditthornstra\u00dfe", "craft": "metal_construction", "landuse": "industrial", "name": "Schillinger GmbH", "website": "https://www.schillinger-metallbau.de/"}}, {"type": "way", "id": 43572409, "center": {"lat": 49.2056837, "lon": 12.665464}, "tags": {"depot": "maintenance_yard", "landuse": "industrial", "man_made": "depot", "name": "Stra\u00dfenmeisterei Cham", "operator": "staatliches Bauamt Regensburg"}}, {"type": "way", "id": 43860761, "center": {"lat": 48.9116656, "lon": 12.69866}, "tags": {"landuse": "industrial", "name": "Inoutic"}}, {"type": "way", "id": 43864584, "center": {"lat": 48.9499842, "lon": 12.7334}, "tags": {"landuse": "industrial"}}, {"type": "way", "id": 43997538, "center": {"lat": 47.7944124, "lon": 13.0214695}, "tags": {"landuse": "industrial", "man_made": "works", "name": "Stiegl Brauerei", "product": "beer", "wikidata": "Q877556", "wikipedia": "de:Stieglbrauerei zu Salzburg"}}, {"type": "way", "id": 44397760, "center": {"lat": 47.9246845, "lon": 12.7061033}, "tags": {"landuse": "industrial", "name": "Gewerbegebiet Scharling"}}, {"type": "way", "id": 44585172, "center": {"lat": 48.4660935, "lon": 12.7240379}, "tags": {"landuse": "industrial", "name": "Haas Fertigbau", "official_name": "Haas Fertigbau GmbH"}}, {"type": "way", "id": 45085227, "center": {"lat": 48.493035, "lon": 11.9984478}, "tags": {"addr:city": "Wang", "addr:country": "DE", "addr:housenumber": "25", "addr:postcode": "85368", "addr:street": "Werkstra\u00dfe", "addr:suburb": "Sp\u00f6rerau", "landuse": "industrial", "name": "Uppenbornwerk 1", "operator": "Stadtwerke_M\u00fcnchen", "plant:method": "run-of-the-river", "plant:output:electricity": "25 MW", "plant:source": "hydro", "power": "plant"}}, {"type": "way", "id": 45507216, "center": {"lat": 48.7880622, "lon": 12.8835229}, "tags": {"addr:housenumber": "1", "addr:street": "Dr.-Ludwig-Kayser-Stra\u00dfe", "contact:phone": "+49 9931 7040", "contact:website": "https://www.suedzucker.de/de", "description": "R\u00fcbenzuckerfabrik", "industrial": "sugar_refinery", "landuse": "industrial", "man_made": "works", "name": "S\u00fcdzucker AG Werk Plattling", "operator": "S\u00fcdzucker AG", "product": "sugar", "source_ref": "https://www.suedzucker.de/de/unternehmen/standorte", "works": "sugar_refinery"}}, {"type": "way", "id": 45507218, "center": {"lat": 48.8513383, "lon": 12.984127}, "tags": {"landuse": "industrial", "name": "Gewerbegebiet Gro\u00dfwalding"}}, {"type": "way", "id": 45664690, "center": {"lat": 47.9646412, "lon": 12.5939965}, "tags": {"landuse": "industrial", "name": "Dr. Johannes Heidenhain GmbH"}}, {"type": "way", "id": 45664691, "center": {"lat": 47.9632959, "lon": 12.5969445}, "tags": {"landuse": "industrial", "name": "Dr. Johannes Heidenhain GmbH"}}, {"type": "way", "id": 45664692, "center": {"lat": 47.9650132, "lon": 12.5984815}, "tags": {"landuse": "industrial", "name": "Dr. Johannes Heidenhain GmbH"}}, {"type": "way", "id": 46626147, "center": {"lat": 49.0793161, "lon": 12.8728376}, "tags": {"landuse": "industrial", "operator": "REHAU AG + Co"}}, {"type": "way", "id": 46626158, "center": {"lat": 49.0660984, "lon": 12.885422}, "tags": {"landuse": "industrial"}}, {"type": "way", "id": 47051687, "center": {"lat": 47.8212409, "lon": 13.0424974}, "tags": {"depot": "bus", "industrial": "depot", "landuse": "industrial", "name": "\u00d6BB Postbus Gmbh", "operator:wikidata": "Q14912709"}}, {"type": "way", "id": 47929441, "center": {"lat": 48.1552206, "lon": 14.048948}, "tags": {"landuse": "industrial", "name": "Fronius"}}, {"type": "way", "id": 48431911, "center": {"lat": 49.143562, "lon": 15.0369327}, "tags": {"landuse": "industrial", "man_made": "works", "name": "Jitka a.s."}}, {"type": "way", "id": 48454481, "center": {"lat": 49.1560713, "lon": 15.0154187}, "tags": {"landuse": "industrial", "source": "uhul:ortofoto;cuzk:km"}}, {"type": "way", "id": 48456142, "center": {"lat": 49.1437362, "lon": 15.0259962}, "tags": {"landuse": "industrial", "name": "U Cihelny", "source": "uhul:ortofoto;cuzk:km"}}, {"type": "way", "id": 48459687, "center": {"lat": 49.1292006, "lon": 15.0112494}, "tags": {"landuse": "industrial", "man_made": "wastewater_plant", "operator": "\u010cevak a.s.", "source": "uhul:ortofoto;cuzk:km", "website": "https://www.cevak.cz/"}}, {"type": "way", "id": 48459689, "center": {"lat": 49.1298968, "lon": 15.0164579}, "tags": {"landuse": "industrial", "source": "uhul:ortofoto;cuzk:km"}}, {"type": "way", "id": 48459693, "center": {"lat": 49.1197913, "lon": 15.0034887}, "tags": {"landuse": "industrial", "source": "uhul:ortofoto;cuzk:km"}}, {"type": "way", "id": 48914884, "center": {"lat": 47.8253095, "lon": 13.0377486}, "tags": {"landuse": "industrial"}}, {"type": "way", "id": 48914885, "center": {"lat": 47.824573, "lon": 13.0370009}, "tags": {"landuse": "industrial"}}, {"type": "way", "id": 49131984, "center": {"lat": 48.6655127, "lon": 13.1234674}, "tags": {"landuse": "industrial", "man_made": "wastewater_plant"}}, {"type": "way", "id": 49159831, "center": {"lat": 47.8283316, "lon": 12.9918551}, "tags": {"landuse": "industrial", "name": "Kaindl Lager"}}, {"type": "way", "id": 49181276, "center": {"lat": 48.8754888, "lon": 12.5801011}, "tags": {"landuse": "industrial"}}, {"type": "way", "id": 49181278, "center": {"lat": 48.8757968, "lon": 12.5774275}, "tags": {"landuse": "industrial"}}, {"type": "way", "id": 49181279, "center": {"lat": 48.8758892, "lon": 12.5815782}, "tags": {"landuse": "industrial"}}, {"type": "way", "id": 49414485, "center": {"lat": 47.8170825, "lon": 13.0503713}, "tags": {"landuse": "industrial"}}, {"type": "way", "id": 49602186, "center": {"lat": 48.9431879, "lon": 12.2429001}, "tags": {"landuse": "industrial", "plant:method": "anaerobic_digestion", "plant:output:electricity": "625 kW", "plant:source": "biomass", "power": "plant"}}, {"type": "way", "id": 49702728, "center": {"lat": 49.1257527, "lon": 15.0221209}, "tags": {"landuse": "industrial", "source": "uhul:ortofoto;cuzk:km"}}, {"type": "way", "id": 49702730, "center": {"lat": 49.1353783, "lon": 15.0107972}, "tags": {"landuse": "industrial", "source": "cuzk:km"}}, {"type": "way", "id": 49943695, "center": {"lat": 48.9762898, "lon": 14.4676105}, "tags": {"building": "industrial", "building:ruian:type": "1", "generator:type": "francis_turbine", "landuse": "industrial", "name": "mal\u00e1 vodn\u00ed elektr\u00e1rna Sokolsk\u00fd ostrov", "plant:method": "run-of-the-river", "plant:output:electricity": "760 kW", "plant:source": "hydro", "power": "plant", "ref:ruian:building": "46877649", "short_name": "MVE Sokolsk\u00fd ostrov", "sorting_name": "Sokolsk\u00fd ostrov", "source": "cuzk:ruian", "start_date": "1932"}}, {"type": "way", "id": 50924916, "center": {"lat": 49.2095837, "lon": 13.5143638}, "tags": {"landuse": "industrial", "source": "vuv:dibavod:a05"}}, {"type": "way", "id": 51335296, "center": {"lat": 48.5587395, "lon": 13.624857}, "tags": {"landuse": "industrial", "name": "Gewerbegebiet Obernzell"}}, {"type": "way", "id": 51406139, "center": {"lat": 47.3852691, "lon": 13.4070767}, "tags": {"addr:city": "Altenmarkt im Pongau", "addr:country": "AT", "addr:housenumber": "20", "addr:postcode": "5541", "addr:street": "Lackengasse", "landuse": "industrial"}}, {"type": "way", "id": 51544551, "center": {"lat": 48.3484497, "lon": 14.0603481}, "tags": {"landuse": "industrial"}}, {"type": "way", "id": 51679068, "center": {"lat": 47.9019497, "lon": 12.2245888}, "tags": {"landuse": "industrial", "name": "Asphalt-Mischanlage"}}, {"type": "way", "id": 51799565, "center": {"lat": 47.8376828, "lon": 13.2686746}, "tags": {"landuse": "industrial"}}, {"type": "way", "id": 51799566, "center": {"lat": 47.838458, "lon": 13.2674277}, "tags": {"landuse": "industrial"}}, {"type": "way", "id": 52036257, "center": {"lat": 47.8124891, "lon": 12.6122943}, "tags": {"landuse": "industrial", "man_made": "works", "name": "Gewerbegebiet Bad Adelholzen", "website": "https://www.adelholzener.de/"}}, {"type": "way", "id": 52071742, "center": {"lat": 48.8491193, "lon": 13.2728756}, "tags": {"landuse": "industrial", "source": "Bing"}}, {"type": "way", "id": 53160491, "center": {"lat": 48.105508, "lon": 13.1452927}, "tags": {"landuse": "industrial"}}, {"type": "way", "id": 53160492, "center": {"lat": 48.0960316, "lon": 13.1587811}, "tags": {"landuse": "industrial", "operator": "KTM", "source": "geoimage.at"}}, {"type": "way", "id": 53541426, "center": {"lat": 47.5020033, "lon": 12.0393469}, "tags": {"industrial": "sawmill", "landuse": "industrial", "name": "S\u00e4gewerk"}}, {"type": "way", "id": 53568844, "center": {"lat": 47.9751451, "lon": 13.2667438}, "tags": {"landuse": "industrial", "name": "S\u00e4gewerk S\u00f6llinger"}}, {"type": "way", "id": 53578497, "center": {"lat": 47.9733534, "lon": 13.2630666}, "tags": {"landuse": "industrial"}}, {"type": "way", "id": 53845154, "center": {"lat": 48.1073361, "lon": 13.1554511}, "tags": {"barrier": "fence", "landuse": "industrial", "name": "KTM-Fahrrad"}}, {"type": "way", "id": 54139357, "center": {"lat": 48.0378664, "lon": 13.4967582}, "tags": {"landuse": "industrial"}}, {"type": "way", "id": 55125632, "center": {"lat": 48.3729378, "lon": 13.5749546}, "tags": {"barrier": "fence", "landuse": "industrial", "name": "Baustoffe Edwin Pimiskern", "shop": "building_materials"}}, {"type": "way", "id": 55447668, "center": {"lat": 48.4415315, "lon": 11.9929106}, "tags": {"landuse": "industrial", "name": "Kraftwerk Pfrombach", "wikimedia_commons": "Category:Kraftwerk Pfrombach"}}, {"type": "way", "id": 55533283, "center": {"lat": 48.1674488, "lon": 14.0269591}, "tags": {"landuse": "industrial"}}, {"type": "way", "id": 55824057, "center": {"lat": 48.8586124, "lon": 12.6362999}, "tags": {"generator:method": "photovoltaic", "generator:source": "solar", "landuse": "industrial", "power": "generator"}}, {"type": "way", "id": 55974737, "center": {"lat": 47.5924302, "lon": 13.3218565}, "tags": {"landuse": "industrial", "man_made": "wastewater_plant", "name": "Kl\u00e4ranlage Marktgemeinde Abtenau", "start_date": "1996"}}, {"type": "way", "id": 56053957, "center": {"lat": 48.7197496, "lon": 14.4477858}, "tags": {"landuse": "industrial"}}, {"type": "way", "id": 56126690, "center": {"lat": 47.8094357, "lon": 13.038214}, "tags": {"landuse": "industrial", "name": "Heizkraftwerk Salzburg Mitte", "operator": "Salzburg AG", "operator:wikidata": "Q2215905", "plant:method": "combustion", "plant:output:electricity": "84 MW", "plant:output:hot_water": "127 MW", "plant:source": "gas", "power": "plant", "start_date": "1955;2001", "wikidata": "Q14912627", "wikipedia": "de:Heizkraftwerk Salzburg Mitte"}}, {"type": "way", "id": 56128269, "center": {"lat": 47.818612, "lon": 13.0595732}, "tags": {"landuse": "industrial"}}, {"type": "way", "id": 56674518, "center": {"lat": 47.9532244, "lon": 13.8219722}, "tags": {"landuse": "industrial"}}, {"type": "way", "id": 58473599, "center": {"lat": 49.1853191, "lon": 13.647522}, "tags": {"landuse": "industrial", "name": "pila", "source": "uhul:ortofoto"}}, {"type": "way", "id": 58502814, "center": {"lat": 47.8118199, "lon": 13.0562361}, "tags": {"landuse": "industrial"}}, {"type": "way", "id": 59096054, "center": {"lat": 47.901299, "lon": 12.6249853}, "tags": {"industrial": "sawmill", "landuse": "industrial", "name": "S\u00e4gewerk Schneider", "website": "https://www.saegewerk-schneider.de/"}}, {"type": "way", "id": 59264628, "center": {"lat": 47.8426118, "lon": 12.0925749}, "tags": {"landuse": "industrial"}}, {"type": "way", "id": 59374901, "center": {"lat": 47.8978448, "lon": 12.6219478}, "tags": {"landuse": "industrial"}}, {"type": "way", "id": 59526206, "center": {"lat": 49.1702964, "lon": 13.4611691}, "tags": {"landuse": "industrial", "man_made": "wastewater_plant", "name": "\u010cOV", "source": "cuzk:km"}}, {"type": "way", "id": 59537189, "center": {"lat": 48.8509131, "lon": 12.0073566}, "tags": {"barrier": "fence", "generator:method": "photovoltaic", "generator:output:electricity": "yes", "generator:source": "solar", "generator:type": "solar_photovoltaic_panel", "landuse": "industrial", "power": "generator", "source": "survey"}}, {"type": "way", "id": 59561465, "center": {"lat": 48.1166003, "lon": 14.0309329}, "tags": {"landuse": "industrial", "name": "Kremsm\u00fcller Industrieanlagenbau KG", "website": "https://www.kremsmueller.com/kontakt/"}}, {"type": "way", "id": 60011609, "center": {"lat": 47.7133191, "lon": 12.1380326}, "tags": {"landuse": "industrial", "name": "Bauhof"}}, {"type": "way", "id": 60196427, "center": {"lat": 49.0280793, "lon": 12.0777412}, "tags": {"addr:city": "Regensburg", "addr:housenumber": "6", "addr:postcode": "93049", "addr:street": "Winzerweg", "building": "yes", "generator:type": "kaplan_turbine", "landuse": "industrial", "name": "Laufwasserkraftwerk Regensburg", "operator": "Uniper Kraftwerke", "operator:wikidata": "Q1273399", "operator:wikipedia": "de:Uniper Kraftwerke", "plant:method": "run-of-the-river", "plant:output:electricity": "7200 kW", "plant:source": "hydro", "power": "plant", "start_date": "1977", "wikidata": "Q1718376", "wikipedia": "de:Kraftwerk Regensburg"}}, {"type": "way", "id": 60301374, "center": {"lat": 47.7321356, "lon": 12.1165613}, "tags": {"landuse": "industrial", "name": "Tjiko"}}, {"type": "way", "id": 60334712, "center": {"lat": 48.0161088, "lon": 13.5727517}, "tags": {"addr:city": "Gampern", "addr:country": "AT", "addr:housenumber": "28", "addr:place": "Schwarzmoos", "addr:postcode": "4851", "industrial": "natural_gas", "landuse": "industrial", "name": "Speicherstation Puchkirchen", "operator": "RAG Austria AG"}}, {"type": "way", "id": 60928883, "center": {"lat": 48.6370148, "lon": 13.6076639}, "tags": {"landuse": "industrial"}}, {"type": "way", "id": 61015936, "center": {"lat": 48.2061742, "lon": 14.223489}, "tags": {"building": "industrial", "building:material": "concrete", "generator:type": "kaplan_turbine", "landuse": "industrial", "layer": "1", "name": "Kraftwerk Traun-Pucking", "operator": "Energie AG Ober\u00f6sterreich", "plant:method": "run-of-the-river", "plant:output:electricity": "45.8 MW", "plant:source": "hydro", "power": "plant", "roof:material": "concrete", "start_date": "1983", "wikidata": "Q109093571", "wikimedia_commons": "Category:Traun-Pucking Hydroelectric Power Station"}}, {"type": "way", "id": 61814084, "center": {"lat": 48.0494761, "lon": 12.5811381}, "tags": {"landuse": "industrial", "name": "S\u00e4gewerk Bl\u00fcml"}}, {"type": "way", "id": 61958989, "center": {"lat": 47.9867698, "lon": 13.2321637}, "tags": {"industrial": "gas", "landuse": "industrial", "name": "Speicher Haidach", "operator": "RAG GmbH", "pipeline": "substation", "substance": "gas", "utility": "gas"}}, {"type": "way", "id": 61958990, "center": {"lat": 47.9830377, "lon": 13.2409203}, "tags": {"industrial": "gas", "landuse": "industrial", "name": "R.AG"}}, {"type": "way", "id": 61959264, "center": {"lat": 47.9855825, "lon": 13.2264993}, "tags": {"landuse": "industrial", "name": "Isolith M. Hattinger Ges.m.b.H", "website": "https://www.isolith.com/"}}, {"type": "way", "id": 62163884, "center": {"lat": 47.8327585, "lon": 13.1829935}, "tags": {"landuse": "industrial", "name": "S\u00e4gewerk"}}, {"type": "way", "id": 62216303, "center": {"lat": 47.8344651, "lon": 13.1738192}, "tags": {"landuse": "industrial"}}, {"type": "way", "id": 62216312, "center": {"lat": 47.833396, "lon": 13.1777097}, "tags": {"landuse": "industrial", "source": "geoimage.at"}}, {"type": "way", "id": 62281208, "center": {"lat": 47.8313881, "lon": 13.1814345}, "tags": {"landuse": "industrial", "name": "Frauenlob- Hochm\u00fchle", "source": "Yahoo"}}, {"type": "way", "id": 62285298, "center": {"lat": 47.8346566, "lon": 13.1643019}, "tags": {"landuse": "industrial"}}, {"type": "way", "id": 62706837, "center": {"lat": 47.8524088, "lon": 13.2022097}, "tags": {"landuse": "industrial", "name": "Breitwies", "source": "Yahoo"}}, {"type": "way", "id": 63673120, "center": {"lat": 47.9597136, "lon": 13.2389102}, "tags": {"landuse": "industrial", "name": "Schw\u00f6ller Karniesen"}}, {"type": "way", "id": 64500742, "center": {"lat": 47.8607073, "lon": 13.1281133}, "tags": {"landuse": "industrial"}}, {"type": "way", "id": 64842407, "center": {"lat": 48.6193578, "lon": 13.3898569}, "tags": {"barrier": "fence", "landuse": "industrial", "man_made": "wastewater_plant"}}, {"type": "way", "id": 64842410, "center": {"lat": 48.8002891, "lon": 12.8953111}, "tags": {"landuse": "industrial", "name": "Gewerbegebiet Kermi"}}, {"type": "way", "id": 64946812, "center": {"lat": 47.8401764, "lon": 13.171545}, "tags": {"amenity": "recycling", "landuse": "industrial", "name": "Recyclinghof", "recycling_type": "centre"}}, {"type": "way", "id": 66207023, "center": {"lat": 47.8254142, "lon": 12.9655123}, "tags": {"addr:city": "Freilassing", "addr:country": "DE", "addr:housenumber": "1", "addr:postcode": "83395", "addr:street": "An der B304", "landuse": "industrial", "name": "Max Aicher"}}, {"type": "way", "id": 66313294, "center": {"lat": 49.0435949, "lon": 14.0226977}, "tags": {"landuse": "industrial", "name": "Agrostav", "source": "cuzk:km"}}, {"type": "way", "id": 66313311, "center": {"lat": 49.0448097, "lon": 14.020061}, "tags": {"landuse": "industrial", "source": "cuzk:km"}}, {"type": "way", "id": 66529518, "center": {"lat": 47.9956139, "lon": 13.2745567}, "tags": {"landuse": "industrial", "name": "Kranzinger Spezialerden-Erzeugung"}}, {"type": "way", "id": 66801715, "center": {"lat": 49.1458112, "lon": 13.5685664}, "tags": {"landuse": "industrial", "name": "Stavebniny"}}, {"type": "way", "id": 67194043, "center": {"lat": 47.8529068, "lon": 12.115435}, "tags": {"addr:city": "Rosenheim", "addr:country": "DE", "addr:housenumber": "80", "addr:postcode": "83022", "addr:street": "M\u00fcnchener Stra\u00dfe", "check_date": "2026-02-05", "contact:email": "auerbraeu@auerbraeu.de", "contact:facebook": "https://www.facebook.com/auerbraeurosenheim", "contact:fax": "+49 8031 1805-29", "contact:phone": "+49 8031 1805-0", "contact:website": "http://www.auerbraeu.de", "craft": "brewery", "landuse": "industrial", "name": "Auerbr\u00e4u", "source": "knowledge"}}, {"type": "way", "id": 67383018, "center": {"lat": 48.6236694, "lon": 13.8399811}, "tags": {"landuse": "industrial"}}, {"type": "way", "id": 67383381, "center": {"lat": 48.4846443, "lon": 13.8715402}, "tags": {"landuse": "industrial", "name": "\u00d6koFEN Pelletsheizung", "source": "GeoLand.at"}}, {"type": "way", "id": 67383485, "center": {"lat": 48.493456, "lon": 13.89173}, "tags": {"landuse": "industrial"}}, {"type": "way", "id": 67757631, "center": {"lat": 49.099569, "lon": 13.8011057}, "tags": {"landuse": "industrial", "man_made": "works", "name": "D\u0159evostroj \u010ckyn\u011b", "website": "https://www.drevostroj.cz/"}}, {"type": "way", "id": 67810345, "center": {"lat": 47.8486816, "lon": 13.2250153}, "tags": {"landuse": "industrial", "source": "Yahoo"}}, {"type": "way", "id": 67822825, "center": {"lat": 48.1672718, "lon": 13.1197942}, "tags": {"landuse": "industrial", "name": "Industriegebiet Nord"}}, {"type": "way", "id": 68801699, "center": {"lat": 47.9817888, "lon": 13.2411804}, "tags": {"landuse": "industrial", "name": "R.AG"}}, {"type": "way", "id": 69219558, "center": {"lat": 48.9245246, "lon": 14.4635335}, "tags": {"barrier": "fence", "landuse": "industrial"}}, {"type": "way", "id": 69976727, "center": {"lat": 48.0568689, "lon": 12.218626}, "tags": {"landuse": "industrial"}}, {"type": "way", "id": 70006320, "center": {"lat": 48.0474842, "lon": 12.2157865}, "tags": {"landuse": "industrial", "name": "Arzneimittelwerke Wasserburg"}}, {"type": "way", "id": 70116259, "center": {"lat": 48.0012901, "lon": 13.0357511}, "tags": {"landuse": "industrial"}}, {"type": "way", "id": 70120245, "center": {"lat": 48.0456052, "lon": 14.7911061}, "tags": {"contact:email": "info@austriajuice.com", "contact:phone": "+43 7448 2304-0", "contact:website": "http://www.austriajuice.com/", "landuse": "industrial", "name": "Austria Juice"}}, {"type": "way", "id": 70684338, "center": {"lat": 48.8232903, "lon": 14.318288}, "tags": {"industrial": "factory", "landuse": "industrial", "name": "are\u00e1l tisk\u00e1rny Vy\u0161ehrad", "source": "cuzk:km,knowledge"}}, {"type": "way", "id": 70685093, "center": {"lat": 48.8251817, "lon": 14.325766}, "tags": {"industrial": "brickyard", "landuse": "industrial", "name": "\u010cR Beton Bohemia, spol. s r.o.", "source": "cuzk:km,knowledge"}}, {"type": "way", "id": 70861621, "center": {"lat": 49.1541492, "lon": 12.4543075}, "tags": {"landuse": "industrial", "name": "Dechantanger", "source": "DOP_LVA_BY_01"}}, {"type": "way", "id": 70949823, "center": {"lat": 48.9420619, "lon": 14.4451527}, "tags": {"landuse": "industrial"}}, {"type": "way", "id": 70952692, "center": {"lat": 48.9418818, "lon": 14.4517285}, "tags": {"landuse": "industrial"}}, {"type": "way", "id": 70952705, "center": {"lat": 48.9395082, "lon": 14.4343567}, "tags": {"landuse": "industrial"}}, {"type": "way", "id": 70952707, "center": {"lat": 48.9394823, "lon": 14.4405715}, "tags": {"landuse": "industrial", "name": "Obalovna Plan\u00e1"}}, {"type": "way", "id": 70952709, "center": {"lat": 48.9380622, "lon": 14.4365708}, "tags": {"landuse": "industrial"}}, {"type": "way", "id": 71146133, "center": {"lat": 47.6140296, "lon": 12.194073}, "tags": {"landuse": "industrial", "name": "Spedition Dettendorfer", "source": "knowledge"}}, {"type": "way", "id": 71338634, "center": {"lat": 49.0002892, "lon": 12.0616918}, "tags": {"barrier": "fence", "landuse": "industrial", "operator": "Stadtgartenamt Regensburg", "source": "survey"}}, {"type": "way", "id": 71391009, "center": {"lat": 48.8348445, "lon": 14.3337767}, "tags": {"barrier": "fence", "industrial": "wood", "landuse": "industrial", "name": "Zambelli-technik, spol. s r.o.", "source": "cuzk:km;knowledge"}}, {"type": "way", "id": 71391010, "center": {"lat": 48.8345206, "lon": 14.3290523}, "tags": {"addr:city": "\u010cesk\u00fd Krumlov", "addr:housenumber": "170", "addr:postcode": "38101", "addr:street": "Tov\u00e1rn\u00ed", "barrier": "fence", "landuse": "industrial", "name": "Fronius \u010cesk\u00e1 republika s.r.o.", "operator": "Fronius \u010cesk\u00e1 republika s.r.o.", "product": "welding_machines;battery_charging", "source": "cuzk:km,knowledge"}}, {"type": "way", "id": 72272920, "center": {"lat": 48.898986, "lon": 12.4757059}, "tags": {"landuse": "industrial", "name": "Gewerbegebiet Rainer Weg"}}, {"type": "way", "id": 72707583, "center": {"lat": 47.944458, "lon": 14.8155528}, "tags": {"landuse": "industrial", "name": "Bene"}}, {"type": "way", "id": 74665836, "center": {"lat": 47.7187016, "lon": 12.0887415}, "tags": {"landuse": "industrial", "name": "S\u00e4gewerk Berger", "source": "survey"}}, {"type": "way", "id": 74665858, "center": {"lat": 47.7217473, "lon": 12.091017}, "tags": {"landuse": "industrial", "name": "S\u00e4gewerk Fischer & S\u00f6hne", "source": "survey"}}, {"type": "way", "id": 74937569, "center": {"lat": 47.9587308, "lon": 13.3063426}, "tags": {"landuse": "industrial", "name": "Gewerbegebiet Oberhofen"}}, {"type": "way", "id": 75033608, "center": {"lat": 48.1925384, "lon": 14.2123775}, "tags": {"contact:email": "erwin.litzlbauer@volvo.com", "contact:fax": "+43 5 750044099", "contact:phone": "+43 5 750044010", "contact:website": "http://www.volvotrucks.com", "landuse": "industrial", "name": "Volvo", "operator": "Volvo Austria GmbH"}}, {"type": "way", "id": 75405765, "center": {"lat": 47.6164384, "lon": 12.1976705}, "tags": {"barrier": "fence", "landuse": "industrial"}}, {"type": "way", "id": 75535263, "center": {"lat": 48.9722848, "lon": 14.5116833}, "tags": {"landuse": "industrial"}}, {"type": "way", "id": 75865676, "center": {"lat": 47.9132407, "lon": 12.1299819}, "tags": {"addr:city": "Schechen", "addr:housenumber": "81", "addr:postcode": "83135", "addr:street": "Rosenheimer Stra\u00dfe", "barrier": "fence", "landuse": "industrial", "name": "UW Marienberg", "name:abbreviation": "MBG", "operator": "Tennet TSO GmbH, E.ON Netz GmbH", "power": "substation", "substation": "transmission", "voltage": "220000", "wikidata": "Q55199654"}}, {"type": "way", "id": 75881712, "center": {"lat": 47.882564, "lon": 12.0863295}, "tags": {"landuse": "industrial", "name": "nafta Erdgas-Untergrundspeicherbetrieb Inzenham-West Sondenplatz Inzenham-West 3", "source": "http://www.regierung.oberbayern.bayern.de/imperia/md/content/regob/internet/dokumente/bereich2/sg_26/planfeststellungen/anlage_1_lageplan_iw_c5-c5a.pdf"}}, {"type": "way", "id": 75881715, "center": {"lat": 47.8834947, "lon": 12.0959911}, "tags": {"landuse": "industrial", "name": "nafta Erdgas-Untergrundspeicherbetrieb Inzenham-West Sondenplatz 3", "source": "http://www.regierung.oberbayern.bayern.de/imperia/md/content/regob/internet/dokumente/bereich2/sg_26/planfeststellungen/anlage_1_lageplan_iw_c5-c5a.pdf", "utility": "gas"}}, {"type": "way", "id": 76027124, "center": {"lat": 48.8227926, "lon": 12.5735828}, "tags": {"landuse": "industrial", "name": "Industriegebiet Stra\u00df\u00e4cker"}}, {"type": "way", "id": 76069584, "center": {"lat": 48.2184783, "lon": 14.2847463}, "tags": {"end_date": "2025", "landuse": "industrial", "old_name": "ASZ Ansfelden"}}, {"type": "way", "id": 76121105, "center": {"lat": 48.8907751, "lon": 14.4644318}, "tags": {"landuse": "industrial", "man_made": "wastewater_plant"}}, {"type": "way", "id": 76848647, "center": {"lat": 49.139938, "lon": 12.9512366}, "tags": {"check_date": "2023-09-30", "craft": "sawmill", "landuse": "industrial", "name": "S\u00e4gewerk"}}, {"type": "way", "id": 77452032, "center": {"lat": 47.7361803, "lon": 12.9118272}, "tags": {"landuse": "industrial", "source": "Yahoo"}}, {"type": "way", "id": 77453315, "center": {"lat": 48.1979127, "lon": 13.1324514}, "tags": {"landuse": "industrial"}}, {"type": "way", "id": 77465068, "center": {"lat": 48.1920683, "lon": 13.1216107}, "tags": {"contact:phone": "+43 7724 2111 0", "landuse": "industrial", "name": "BECK Fastener Group", "operator": "Raimund Beck KG", "website": "https://www.beck-fastening.com/de"}}, {"type": "way", "id": 77467285, "center": {"lat": 47.7347184, "lon": 12.8779844}, "tags": {"landuse": "industrial", "source": "Yahoo"}}, {"type": "way", "id": 77492288, "center": {"lat": 47.7237333, "lon": 12.8727189}, "tags": {"barrier": "fence", "landuse": "industrial", "name": "Werksgel\u00e4nde Neue Saline", "source": "Ortskundige Auskunft"}}, {"type": "way", "id": 77569513, "center": {"lat": 48.2481838, "lon": 14.2348638}, "tags": {"landuse": "industrial", "surface": "paved"}}, {"type": "way", "id": 77689593, "center": {"lat": 48.9212976, "lon": 14.6160563}, "tags": {"landuse": "industrial", "name": "Ledenick\u00fd n\u00e1bytek"}}, {"type": "way", "id": 77694915, "center": {"lat": 48.5838914, "lon": 12.2180649}, "tags": {"addr:city": "Essenbach", "addr:country": "DE", "addr:housenumber": "22", "addr:postcode": "84051", "addr:street": "Kraftwerkstra\u00dfe", "landuse": "industrial", "name": "Wasserkraftwerk Altheim", "operator": "Uniper Kraftwerke", "operator:wikidata": "Q1273399", "operator:wikipedia": "de:Uniper Kraftwerke", "plant:method": "run-of-the-river", "plant:output:electricity": "17.8 MW", "plant:source": "hydro", "power": "plant", "wikidata": "Q2551086"}}, {"type": "way", "id": 77722867, "center": {"lat": 47.7210988, "lon": 12.8520127}, "tags": {"landuse": "industrial", "name": "Fischzucht Alpenland", "source": "Yahoo"}}, {"type": "way", "id": 77722946, "center": {"lat": 47.7219786, "lon": 12.8623612}, "tags": {"landuse": "industrial", "source": "Yahoo"}}, {"type": "way", "id": 77973558, "center": {"lat": 48.7831855, "lon": 14.9788487}, "tags": {"landuse": "industrial", "name": "NBG"}}, {"type": "way", "id": 79480444, "center": {"lat": 47.9644713, "lon": 13.2382687}, "tags": {"landuse": "industrial", "name": "Europapier"}}, {"type": "way", "id": 79569508, "center": {"lat": 47.970816, "lon": 13.24734}, "tags": {"landuse": "industrial"}}, {"type": "way", "id": 79857342, "center": {"lat": 48.9843161, "lon": 12.1910885}, "tags": {"industrial": "factory", "landuse": "industrial", "name": "Krones AG", "website": "https://www.krones.com/", "wikipedia": "de:Krones AG"}}, {"type": "way", "id": 79857345, "center": {"lat": 48.9878742, "lon": 12.1910783}, "tags": {"landuse": "industrial", "name": "Krones AG Logistik"}}, {"type": "way", "id": 79857346, "center": {"lat": 48.9815282, "lon": 12.1889703}, "tags": {"landuse": "industrial", "name": "Otto Lehmann GmbH (Oberfl\u00e4chenzentrum)"}}, {"type": "way", "id": 80497503, "center": {"lat": 48.0261343, "lon": 13.5093366}, "tags": {"landuse": "industrial", "name": "Lagerhaus Zipf"}}, {"type": "way", "id": 80497504, "center": {"lat": 48.017326, "lon": 13.5277584}, "tags": {"landuse": "industrial", "name": "Schatzdorfer Ger\u00e4tebau"}}, {"type": "way", "id": 80517026, "center": {"lat": 48.0211115, "lon": 13.5338477}, "tags": {"landuse": "industrial", "man_made": "wastewater_plant", "name": "Kl\u00e4ranlage V\u00f6ckla-Redl"}}, {"type": "way", "id": 80517899, "center": {"lat": 47.7261784, "lon": 13.650003}, "tags": {"landuse": "industrial", "name": "Lagerplatz Baumit", "source": "basemap.at Orthofoto"}}, {"type": "way", "id": 80517907, "center": {"lat": 47.6662522, "lon": 13.6079522}, "tags": {"landuse": "industrial", "man_made": "wastewater_plant", "operator": "Reinhaltungsverband Hallst\u00e4ttersee", "website": "https://www.rhv.at/"}}, {"type": "way", "id": 80517913, "center": {"lat": 47.7247103, "lon": 13.6480006}, "tags": {"addr:city": "Bad Ischl", "addr:country": "AT", "addr:housenumber": "6", "addr:postcode": "4820", "addr:street": "Linzerstra\u00dfe", "landuse": "industrial", "man_made": "wastewater_plant", "name": "Kl\u00e4ranlage Bad Ischl", "operator": "RHV Wolfgangsee-Ischl", "phone": "+43 6132 26149", "source": "bad-ischl.ooe.gv.at/Umpostung_von_PLZ_5351_Aigen-Voglhub_auf_PLZ_4820_Bad_Ischl_ab_26_Februar_2018", "website": "https://www.reinhalteverband.at/"}}, {"type": "way", "id": 80824414, "center": {"lat": 47.9724553, "lon": 14.1706254}, "tags": {"landuse": "industrial", "name": "Nussbach Gewerbe"}}, {"type": "way", "id": 81009034, "center": {"lat": 48.9202883, "lon": 12.6093147}, "tags": {"landuse": "industrial", "name": "Gewerbegebiet Parkstetten"}}, {"type": "way", "id": 81089791, "center": {"lat": 48.8232228, "lon": 12.8962093}, "tags": {"landuse": "industrial", "name": "Gewerbegebiet Untere Steinfelder"}}, {"type": "way", "id": 81104978, "center": {"lat": 48.4895296, "lon": 13.9040096}, "tags": {"landuse": "industrial", "name": "Kumpfm\u00fcller Bau GmbH", "source": "Geoland.at"}}, {"type": "way", "id": 81109615, "center": {"lat": 48.5205822, "lon": 13.8738692}, "tags": {"landuse": "industrial"}}, {"type": "way", "id": 81133658, "center": {"lat": 48.0209501, "lon": 14.4036745}, "tags": {"landuse": "industrial", "name": "Berglandmilch reg.Gen. Garsten"}}, {"type": "way", "id": 81359427, "center": {"lat": 48.8230208, "lon": 12.9332965}, "tags": {"landuse": "industrial", "name": "Gewerbegebiet Gstocketwiesen"}}, {"type": "way", "id": 81359428, "center": {"lat": 48.821793, "lon": 12.9387646}, "tags": {"landuse": "industrial", "name": "Gewerbegebiet Brunnwiesen"}}, {"type": "way", "id": 81359430, "center": {"lat": 48.8242446, "lon": 12.9412107}, "tags": {"landuse": "industrial"}}, {"type": "way", "id": 81604162, "center": {"lat": 47.8118058, "lon": 13.7816201}, "tags": {"landuse": "industrial", "man_made": "wastewater_plant"}}, {"type": "way", "id": 81811940, "center": {"lat": 48.5192112, "lon": 13.8757729}, "tags": {"landuse": "industrial"}}, {"type": "way", "id": 81811943, "center": {"lat": 48.5171435, "lon": 13.8757084}, "tags": {"landuse": "industrial"}}, {"type": "way", "id": 81815735, "center": {"lat": 48.5452744, "lon": 13.9000125}, "tags": {"landuse": "industrial"}}, {"type": "way", "id": 81817801, "center": {"lat": 48.5484765, "lon": 13.8969257}, "tags": {"landuse": "industrial"}}, {"type": "way", "id": 82135761, "center": {"lat": 48.9807206, "lon": 12.196313}, "tags": {"access": "private", "fee": "no", "landuse": "industrial", "name": "Lagerfl\u00e4che KRONES AG", "operator": "KRONES AG", "operator:type": "private", "park_ride": "no", "parking": "surface", "source": "Bing"}}, {"type": "way", "id": 82149068, "center": {"lat": 47.8096366, "lon": 13.7815}, "tags": {"landuse": "industrial", "name": "Ebenseer Carbonat", "note": "ist kein Abbaugebiet! hier wird nur Bruchstein gemahlen und aufgesch\u00fcttet; Stein stammt vom Ostufer des Traunsees Steinbruch Karbach"}}, {"type": "way", "id": 82308413, "center": {"lat": 48.4982822, "lon": 13.891481}, "tags": {"landuse": "industrial"}}, {"type": "way", "id": 82308435, "center": {"lat": 48.4988481, "lon": 13.8942201}, "tags": {"landuse": "industrial", "source": "GeoImage.at"}}, {"type": "way", "id": 82804912, "center": {"lat": 48.5468472, "lon": 12.5556215}, "tags": {"industrial": "brickyard", "landuse": "industrial", "name": "Girnghuber Zieglei", "website": "https://www.gima-ziegel.de/de/"}}, {"type": "way", "id": 82996815, "center": {"lat": 49.1017524, "lon": 13.6482634}, "tags": {"landuse": "industrial"}}, {"type": "way", "id": 83179456, "center": {"lat": 48.2746078, "lon": 14.2335613}, "tags": {"landuse": "industrial", "name": "Schneider Electric", "old_name": "Areva", "website": "https://www.se.com/at/"}}, {"type": "way", "id": 83201656, "center": {"lat": 48.2730897, "lon": 14.2505759}, "tags": {"contact:email": "buero@kaindltech.at", "contact:fax": "+43 732 673595", "contact:phone": "+43 732 6717670", "contact:website": "http://www.kaindltech.at", "description": "Technischer Industriebedarf", "landuse": "industrial", "name": "Kaindl", "opening_hours": "Mo-Th 07:30-16:30;Fr 07:30-12:00", "operator": "KAINDL Technischer Industriebedarf Gesellschaft m.b.H.", "shop": "hardware", "wheelchair": "yes"}}, {"type": "way", "id": 83202355, "center": {"lat": 48.4891174, "lon": 13.8491649}, "tags": {"landuse": "industrial"}}, {"type": "way", "id": 83539367, "center": {"lat": 47.930537, "lon": 12.0745459}, "tags": {"barrier": "fence", "industrial": "gas", "landuse": "industrial", "pipeline": "substation", "substance": "gas", "substation": "distribution"}}, {"type": "way", "id": 83668821, "center": {"lat": 49.1363585, "lon": 13.5526045}, "tags": {"landuse": "industrial", "source": "cuzk:km"}}, {"type": "way", "id": 84078677, "center": {"lat": 47.8056915, "lon": 13.7681351}, "tags": {"landuse": "industrial", "old:name": "Solvay"}}, {"type": "way", "id": 84307703, "center": {"lat": 47.5196636, "lon": 12.1971908}, "tags": {"landuse": "industrial", "man_made": "wastewater_plant", "name": "Kl\u00e4ranlage S\u00f6ll"}}, {"type": "way", "id": 84357047, "center": {"lat": 47.4888509, "lon": 12.8224101}, "tags": {"addr:city": "Saalfelden am Steinernen Meer", "addr:country": "AT", "addr:housenumber": "4", "addr:postcode": "5760", "addr:street": "Hohlwegen", "landuse": "industrial", "name": "\u00d6AMTC Fahrsicherheitszentrum Saalfelden", "source": "geoimage.at", "website": "https://www.oeamtc.at/"}}, {"type": "way", "id": 84429538, "center": {"lat": 47.4014643, "lon": 13.2200952}, "tags": {"alt_name": "Liebherr-Werk Bischofshofen GmbH", "contact:email": "info.lbh@liebherr.com", "contact:phone": "+43 50809 10", "landuse": "industrial", "name": "Liebherr Werk Bischofshofen", "source": "geoimage.at", "website": "https://www.liebherr.com/de/aut/%C3%BCber-liebherr/liebherr-weltweit/%C3%B6sterreich/bischofshofen/bischofshofen.html"}}, {"type": "way", "id": 84586036, "center": {"lat": 47.9058429, "lon": 14.2465661}, "tags": {"landuse": "industrial", "name": "Bernegger GmbH"}}, {"type": "way", "id": 84686439, "center": {"lat": 47.741866, "lon": 12.1224254}, "tags": {"amenity": "recycling", "landuse": "industrial", "recycling_type": "centre", "source": "geoimage.at"}}, {"type": "way", "id": 84807146, "center": {"lat": 47.9658364, "lon": 14.0108443}, "tags": {"landuse": "industrial"}}, {"type": "way", "id": 84807158, "center": {"lat": 47.9682422, "lon": 14.0082866}, "tags": {"landuse": "industrial"}}, {"type": "way", "id": 84960251, "center": {"lat": 48.258737, "lon": 14.2575903}, "tags": {"contact:email": "info@leiner.at", "contact:phone": "+43 732 683510", "contact:website": "http://www.leiner.at", "landuse": "industrial", "name": "Lager Leiner Linz", "opening_hours": "Mo-Fr 08:00-17:30; Sa 08:00-16:30", "operator": "Rudolf Leiner Ges.m.b.H.", "shop": "furniture"}}, {"type": "way", "id": 85130819, "center": {"lat": 47.9703874, "lon": 14.1262363}, "tags": {"landuse": "industrial", "source": "geoimage.at"}}, {"type": "way", "id": 85150669, "center": {"lat": 48.2710407, "lon": 14.2485565}, "tags": {"contact:phone": "+43 732 6790", "description": "Hersteller f\u00fcr Baby- und Kinderbekleidung", "landuse": "industrial", "name": "Cr\u00e9ation Stummer", "operator": "Cr\u00e9ation Stummer Ges.m.b.H"}}, {"type": "way", "id": 85315578, "center": {"lat": 47.951734, "lon": 13.6049583}, "tags": {"landuse": "industrial"}}, {"type": "way", "id": 85331571, "center": {"lat": 48.5176312, "lon": 13.9508012}, "tags": {"landuse": "industrial"}}, {"type": "way", "id": 85429034, "center": {"lat": 47.9531198, "lon": 13.5964839}, "tags": {"landuse": "industrial", "name": "Stra\u00dfenmeisterei Seewalchen", "source": "geoimage.at"}}, {"type": "way", "id": 85765249, "center": {"lat": 48.2366818, "lon": 14.172767}, "tags": {"contact:email": "linz@schenker.at", "contact:fax": "+43 5 7686271909", "contact:phone": "+43 5 7686271900", "contact:website": "http://www.schenker.at", "landuse": "industrial", "name": "DB Schenker", "operator": "SCHENKER & CO AG"}}, {"type": "way", "id": 85883871, "center": {"lat": 48.9757689, "lon": 14.7153431}, "tags": {"landuse": "industrial", "name": "pila"}}, {"type": "way", "id": 85944497, "center": {"lat": 48.2289241, "lon": 14.1681812}, "tags": {"landuse": "industrial", "name": "Wacker Neuson Linz GmbH"}}, {"type": "way", "id": 85944508, "center": {"lat": 48.218101, "lon": 14.1863708}, "tags": {"landuse": "industrial"}}, {"type": "way", "id": 85948231, "center": {"lat": 48.2144853, "lon": 14.1815296}, "tags": {"landuse": "industrial"}}, {"type": "way", "id": 86001732, "center": {"lat": 48.9124849, "lon": 12.5961096}, "tags": {"addr:city": "Parkstetten", "addr:housenumber": "4", "addr:postcode": "94365", "addr:street": "Straubinger Stra\u00dfe", "industrial": "factory", "landuse": "industrial", "name": "Betonwerk Heller", "website": "https://www.beton-heller.de"}}, {"type": "way", "id": 86039308, "center": {"lat": 48.9890713, "lon": 14.7122858}, "tags": {"landuse": "industrial"}}, {"type": "way", "id": 86060042, "center": {"lat": 48.2480638, "lon": 14.1963485}, "tags": {"landuse": "industrial"}}, {"type": "way", "id": 86060084, "center": {"lat": 48.2474227, "lon": 14.1942402}, "tags": {"contact:email": "profile@zitta.com", "contact:fax": "+43 7221 64343-20", "contact:phone": "+43 7221 64343", "contact:website": "http://www.zitta.com", "landuse": "industrial", "name": "Zitta", "operator": "Kunststoffwerk ZITTA GmbH"}}, {"type": "way", "id": 86304780, "center": {"lat": 48.5798781, "lon": 14.5707426},