[{"type": "node", "id": 676897188, "lat": 52.2358893, "lon": 14.5885015, "tags": {"operator": "E.DIS Netz GmbH", "operator:wikidata": "Q1273411", "power": "substation", "substation": "transmission"}}, {"type": "node", "id": 11407852271, "lat": 52.4091917, "lon": 12.16351, "tags": {"building": "service", "note": "Wandbild mit Feuerwehrauto von Art-efx", "power": "substation", "substation": "transmission", "wikimedia_commons": "Category:Trafo Genthin (G-Scholl-Str)"}}, {"type": "way", "id": 22973070, "center": {"lat": 52.5358154, "lon": 13.5241298}, "tags": {"addr:city": "Berlin", "addr:country": "DE", "addr:housenumber": "378B", "addr:postcode": "12681", "addr:street": "Landsberger Allee", "addr:suburb": "Marzahn", "barrier": "fence", "location": "indoor;outdoor", "name": "Umspannwerk Marzahn", "operator": "50Hertz Transmission", "operator:wikidata": "Q241331", "operator:wikipedia": "de:50Hertz Transmission", "power": "substation", "ref": "MZA9", "short_name": "UW MZA", "source": "survey", "substation": "transmission", "voltage": "380000", "wikidata": "Q55201345"}}, {"type": "way", "id": 23161029, "center": {"lat": 51.3718112, "lon": 12.4696159}, "tags": {"access": "no", "barrier": "fence", "frequency": "50", "location": "outdoor", "name": "Umspannwerk Taucha", "operator": "50Hertz Transmission GmbH;enviaM", "power": "substation", "ref": "Ta", "source": "Yahoo;extrapolation", "substation": "transmission", "voltage": "220000;110000"}}, {"type": "way", "id": 23898262, "center": {"lat": 51.5019734, "lon": 12.1166676}, "tags": {"frequency": "50", "location": "outdoor", "name": "Umspannwerk Reu\u00dfen", "operator": "MITNETZ STROM", "power": "substation", "ref": "Re", "substation": "transmission", "voltage": "110000"}}, {"type": "way", "id": 24055189, "center": {"lat": 51.3765278, "lon": 12.3457258}, "tags": {"access": "no", "addr:city": "Leipzig", "addr:country": "DE", "addr:housenumber": "3c", "addr:postcode": "04159", "addr:street": "Wiederitzscher Weg", "barrier": "fence", "frequency": "50", "name": "Umspannwerk Leipzig Nord", "operator": "MITNETZ Strom", "operator:wikidata": "Q56199578", "power": "substation", "ref": "LzN", "substation": "transmission", "voltage": "110000"}}, {"type": "way", "id": 25526912, "center": {"lat": 51.741528, "lon": 12.2629207}, "tags": {"access": "no", "addr:city": "Raguhn-Je\u00dfnitz", "addr:country": "DE", "addr:postcode": "06779", "addr:suburb": "Marke", "frequency": "50", "location": "outdoor", "name": "Umspannwerk Marke", "operator": "MITNETZ Strom", "operator:wikidata": "Q56199578", "power": "substation", "ref": "Ma", "substation": "transmission", "voltage": "110000"}}, {"type": "way", "id": 25835623, "center": {"lat": 52.6695713, "lon": 13.5633299}, "tags": {"access": "no", "addr:city": "Bernau bei Berlin", "addr:housenumber": "103", "addr:postcode": "16321", "addr:street": "Zepernicker Chaussee", "barrier": "fence", "frequency": "50", "location": "outdoor", "management_region": "edis39", "name": "Umspannwerk Bernau", "operator": "E.DIS Netz", "operator:wikidata": "Q124377743", "power": "substation", "ref": "Bau", "substation": "transmission", "voltage": "110000"}}, {"type": "way", "id": 27149550, "center": {"lat": 52.5621636, "lon": 12.9429472}, "tags": {"addr:city": "Wustermark", "addr:street": "Am Umspannwerk", "frequency": "50", "name": "Umspannwerk Wustermark", "operator": "50Hertz Transmission", "operator:wikidata": "Q241331", "power": "substation", "ref": "Wu", "source": "survey", "substation": "transmission", "voltage": "380000"}}, {"type": "way", "id": 27527457, "center": {"lat": 52.44382, "lon": 13.3294494}, "tags": {"addr:city": "Berlin", "addr:country": "DE", "addr:housenumber": "40-44", "addr:postcode": "12167", "addr:street": "Birkbuschstra\u00dfe", "addr:suburb": "Lankwitz", "barrier": "fence", "frequency": "50", "name": "Umspannwerk Steglitz", "operator": "Stromnetz Berlin", "operator:wikidata": "Q110255475", "power": "substation", "ref": "ST", "short_name": "UW ST", "substation": "transmission", "voltage": "110000"}}, {"type": "way", "id": 27645830, "center": {"lat": 52.4597575, "lon": 12.3458245}, "tags": {"access": "no", "barrier": "fence", "frequency": "16.7", "location": "outdoor", "name": "Schaltwerk Nitzahn", "operator": "DB Energie GmbH", "operator:wikidata": "Q1152043", "power": "substation", "railway:ref": "ILNN", "substation": "transmission", "voltage": "110000"}}, {"type": "way", "id": 28729619, "center": {"lat": 51.8281903, "lon": 13.1578206}, "tags": {"access": "no", "frequency": "50", "name": "UW Sch\u00f6newalde", "operator": "50Hertz Transmission", "operator:wikidata": "Q241331", "power": "substation", "substation": "transmission", "voltage": "380000"}}, {"type": "way", "id": 29331499, "center": {"lat": 52.2307199, "lon": 13.306381}, "tags": {"access": "no", "frequency": "50", "name": "Umspannwerk Thyrow", "operator": "50Hertz Transmission", "operator:wikidata": "Q241331", "operator:wikipedia": "de:50Hertz Transmission", "power": "substation", "ref": "Thy", "source": "survey", "substation": "transmission", "voltage": "220000"}}, {"type": "way", "id": 30132758, "center": {"lat": 52.5806648, "lon": 13.2116827}, "tags": {"access": "no", "addr:city": "Berlin", "addr:country": "DE", "addr:housenumber": "60A", "addr:postcode": "13587", "addr:street": "Niederneuendorfer Allee", "addr:suburb": "Hakenfelde", "barrier": "fence", "frequency": "50", "name": "Umspannwerk Teufelsbruch", "operator": "50Hertz Transmission", "operator:wikidata": "Q241331", "power": "substation", "short_name": "UW TB", "substation": "transmission", "voltage": "380000;110000"}}, {"type": "way", "id": 30164703, "center": {"lat": 51.5536869, "lon": 14.4718998}, "tags": {"access": "no", "addr:city": "Spremberg", "addr:country": "DE", "addr:postcode": "03130", "addr:street": "Umspannwerk", "addr:suburb": "Graustein", "frequency": "50", "name": "Graustein", "operator": "50Hertz Transmission", "operator:wikidata": "Q241331", "power": "substation", "ref": "Grs", "substation": "transmission", "voltage": "380000", "wikidata": "Q53062552"}}, {"type": "way", "id": 30303506, "center": {"lat": 52.5032008, "lon": 13.3686204}, "tags": {"access": "no", "addr:city": "Berlin", "addr:housenumber": "8", "addr:postcode": "10785", "addr:street": "Bissingzeile", "barrier": "fence", "location": "indoor", "name": "Umspannwerk Mitte", "operator": "50Hertz Transmission", "operator:wikidata": "Q241331", "power": "substation", "ref": "MI", "short_name": "UW MI9", "substation": "transmission", "voltage": "380000;110000", "wikidata": "Q57786822"}}, {"type": "way", "id": 30954714, "center": {"lat": 52.5214596, "lon": 13.4564335}, "tags": {"access": "private", "addr:city": "Berlin", "addr:country": "DE", "addr:street": "Viehtrift", "barrier": "fence", "location": "indoor", "name": "Umspannwerk Friedrichshain", "operator": "50Hertz Transmission GmbH;Stromnetz Berlin GmbH", "power": "substation", "ref": "FRH", "substation": "transmission", "voltage": "380000;110000", "wikidata": "Q53053582"}}, {"type": "way", "id": 31903938, "center": {"lat": 51.4752043, "lon": 12.019118}, "tags": {"access": "no", "barrier": "fence", "frequency": "50", "location": "outdoor", "name": "Umspannwerk Halle Ost", "operator": "MITNETZ Strom", "operator:wikidata": "Q56199578", "power": "substation", "ref": "HlO", "substation": "transmission", "voltage": "110000"}}, {"type": "way", "id": 34375343, "center": {"lat": 52.5280715, "lon": 12.8759337}, "tags": {"access": "no", "barrier": "fence", "frequency": "50", "management_region": "edis5", "name": "Etzin", "power": "substation", "substation": "transmission", "voltage": "110000"}}, {"type": "way", "id": 36807566, "center": {"lat": 51.3455371, "lon": 12.3024361}, "tags": {"access": "no", "barrier": "fence", "location": "outdoor", "name": "B\u00f6hlitz-Ehrenberg", "operator": "Mitnetz Strom", "operator:wikidata": "Q56199578", "power": "substation", "ref": "Boe", "substation": "transmission", "voltage": "110000"}}, {"type": "way", "id": 39428980, "center": {"lat": 53.0960355, "lon": 14.2706568}, "tags": {"frequency": "50", "management_region": "edis37", "name": "Umspannwerk Vierraden", "power": "substation", "ref": "Vrd", "substation": "transmission", "voltage": "110000"}}, {"type": "way", "id": 40621568, "center": {"lat": 52.4054159, "lon": 12.4994125}, "tags": {"access": "no", "barrier": "fence", "name": "Brandenburg-West", "operator": "50Hertz Transmission", "operator:wikidata": "Q241331", "operator:wikipedia": "de:50Hertz Transmission", "power": "substation", "substation": "transmission", "voltage": "220000;110000"}}, {"type": "way", "id": 42874788, "center": {"lat": 51.7930857, "lon": 14.4756936}, "tags": {"barrier": "fence", "frequency": "50", "location": "outdoor", "name": "Cottbus/Halde", "operator": "envia", "power": "substation", "source": "survey", "substation": "transmission", "voltage": "110000"}}, {"type": "way", "id": 43163132, "center": {"lat": 52.5316203, "lon": 13.2489388}, "tags": {"access": "no", "addr:city": "Berlin", "addr:country": "DE", "addr:housenumber": "10", "addr:postcode": "13599", "addr:street": "Otternbuchtstra\u00dfe", "addr:suburb": "Siemensstadt", "barrier": "fence", "frequency": "50", "location": "indoor;outdoor", "name": "Umspannwerk Reuter", "operator": "50Hertz Transmission", "operator:wikidata": "Q241331", "power": "substation", "ref": "REU", "short_name": "UW RE9", "source": "survey", "substation": "transmission", "voltage": "380000;110000", "wikidata": "Q57789257"}}, {"type": "way", "id": 46615737, "center": {"lat": 52.5220201, "lon": 13.3155265}, "tags": {"addr:city": "Berlin", "addr:country": "DE", "addr:housenumber": "6-12", "addr:postcode": "10589", "addr:street": "Darwinstra\u00dfe", "addr:suburb": "Charlottenburg", "building": "electricity", "frequency": "50", "name": "Umspannwerk Charlottenburg", "operator": "50Hertz Transmission", "operator:wikidata": "Q241331", "power": "substation", "ref": "CHA", "short_name": "UW CH9", "substation": "transmission", "voltage": "380000;110000", "wikidata": "Q52777852"}}, {"type": "way", "id": 48215742, "center": {"lat": 52.6025657, "lon": 13.2367704}, "tags": {"access": "private", "addr:city": "Berlin", "addr:country": "DE", "addr:housenumber": "12", "addr:postcode": "13503", "addr:street": "Am S\u00fcdfeld", "addr:suburb": "Heiligensee", "barrier": "fence", "frequency": "50", "layer": "-1", "name": "Umspannwerk Heiligensee", "operator": "Stromnetz Berlin", "operator:wikidata": "Q110255475", "power": "substation", "ref": "HL", "short_name": "UW HL", "substation": "transmission", "voltage": "110000"}}, {"type": "way", "id": 48216209, "center": {"lat": 52.4574336, "lon": 13.1515092}, "tags": {"addr:city": "Berlin", "addr:country": "DE", "addr:housenumber": "3", "addr:postcode": "14089", "addr:street": "Friedrich-Hanisch-Stra\u00dfe", "barrier": "fence", "frequency": "50", "name": "Umspannwerk Kladow", "operator": "Stromnetz Berlin", "operator:wikidata": "Q110255475", "power": "substation", "ref": "KD", "short_name": "UW KD", "substation": "transmission", "voltage": "30000"}}, {"type": "way", "id": 51784002, "center": {"lat": 52.1515987, "lon": 13.386494}, "tags": {"access": "no", "barrier": "fence", "frequency": "50", "name": "Spremberg", "operator": "E.DIS Netz GmbH", "operator:wikidata": "Q1273411", "power": "substation", "source": "Yahoo", "substation": "transmission", "voltage": "110000"}}, {"type": "way", "id": 52983550, "center": {"lat": 52.1747958, "lon": 14.604034}, "tags": {"access": "no", "addr:city": "Eisenh\u00fcttenstadt", "addr:country": "DE", "addr:postcode": "15890", "addr:street": "Am M\u00fchlenflie\u00df", "frequency": "50", "name": "Eisenh\u00fcttenstadt", "operator": "50Hertz Transmission", "operator:wikidata": "Q241331", "power": "substation", "ref": "Eh", "substation": "transmission", "voltage": "380000"}}, {"type": "way", "id": 55696789, "center": {"lat": 52.4273268, "lon": 12.5377949}, "tags": {"access": "no", "barrier": "fence", "frequency": "50", "location": "outdoor", "management_region": "edis5", "name": "Brandenburg Nord", "operator": "E.DIS Netz GmbH", "operator:wikidata": "Q1273382", "power": "substation", "substation": "transmission", "voltage": "110000"}}, {"type": "way", "id": 57776498, "center": {"lat": 51.7894561, "lon": 14.4792915}, "tags": {"frequency": "50", "location": "outdoor", "name": "Cottbus/Nord", "power": "substation", "substation": "transmission", "voltage": "110000"}}, {"type": "way", "id": 64012765, "center": {"lat": 51.4295607, "lon": 11.9831832}, "tags": {"barrier": "fence", "frequency": "50", "name": "Umspannwerk Halle S\u00fcd", "power": "substation", "ref": "HlS", "substation": "transmission", "voltage": "110000"}}, {"type": "way", "id": 71530008, "center": {"lat": 51.2373991, "lon": 14.2952269}, "tags": {"addr:postcode": "02699", "barrier": "fence", "frequency": "50", "location": "outdoor", "name": "Umspannwerk Puschwitz-Guhra", "operator": "SachsenEnergie", "power": "substation", "substation": "transmission", "voltage": "110000", "was:operator": "ENSO Energie Sachsen Ost", "was:operator:short": "ENSO"}}, {"type": "way", "id": 78689316, "center": {"lat": 53.0266453, "lon": 13.9942086}, "tags": {"barrier": "fence", "location": "outdoor", "management_region": "edis36", "name": "Angerm\u00fcnde", "operator": "E.DIS Netz GmbH", "power": "substation", "ref": "Ang", "substation": "transmission", "voltage": "110000"}}, {"type": "way", "id": 79369858, "center": {"lat": 52.8510668, "lon": 12.4603081}, "tags": {"access": "no", "barrier": "fence", "frequency": "50", "location": "outdoor", "management_region": "edis3", "name": "Neustadt/Dosse", "operator": "EON_edis", "power": "substation", "substation": "transmission", "voltage": "110000"}}, {"type": "way", "id": 79863797, "center": {"lat": 52.7854742, "lon": 14.0087703}, "tags": {"access": "no", "barrier": "fence", "frequency": "50", "location": "outdoor", "management_region": "edis36", "name": "Bad Freienwalde", "operator": "E.DIS Netz GmbH", "operator:wikidata": "Q1273411", "power": "substation", "ref": "Frw", "substation": "transmission", "voltage": "110000"}}, {"type": "way", "id": 95421165, "center": {"lat": 52.4185507, "lon": 12.5207421}, "tags": {"access": "no", "barrier": "fence", "frequency": "50", "location": "outdoor", "name": "Umspannwerk", "operator": "E.on E", "power": "substation", "ref": "SWB", "substation": "transmission", "voltage": "110000"}}, {"type": "way", "id": 109856421, "center": {"lat": 52.1821681, "lon": 14.2552441}, "tags": {"access": "no", "barrier": "fence", "frequency": "50", "name": "Beeskow", "operator": "EON_edis", "power": "substation", "substation": "transmission", "voltage": "110000"}}, {"type": "way", "id": 110558398, "center": {"lat": 51.7350206, "lon": 14.6486651}, "tags": {"access": "no", "barrier": "fence", "fence_type": "chain_link", "frequency": "50", "location": "outdoor", "operator": "enviaM", "operator:wikidata": "Q1345871", "power": "substation", "substation": "transmission", "voltage": "110000"}}, {"type": "way", "id": 137015119, "center": {"lat": 51.8147599, "lon": 12.1941236}, "tags": {"addr:city": "Dessau-Ro\u00dflau", "addr:postcode": "06847", "addr:street": "Auenweg", "addr:suburb": "Alten", "frequency": "50", "location": "outdoor", "name": "Umspannwerk Dessau Alten", "operator": "Stadtwerke Dessau (MITNETZ Strom)", "power": "substation", "ref": "DeA", "substation": "transmission", "voltage": "110000"}}, {"type": "way", "id": 137197826, "center": {"lat": 52.5391386, "lon": 13.7097134}, "tags": {"access": "no", "addr:city": "Neuenhagen bei Berlin", "addr:country": "DE", "addr:postcode": "15366", "addr:street": "Am Umspannwerk", "frequency": "50", "location": "outdoor", "name": "Umspannwerk Neuenhagen", "operator": "50Hertz Transmission", "operator:wikidata": "Q241331", "power": "substation", "ref": "Nhg", "substation": "transmission", "voltage": "380000"}}, {"type": "way", "id": 149629927, "center": {"lat": 51.9151981, "lon": 12.7667624}, "tags": {"addr:city": "Zahna-Elster", "addr:country": "DE", "addr:postcode": "06895", "addr:street": "K\u00f6pnicker Stra\u00dfe", "addr:suburb": "Zahna", "frequency": "50", "location": "outdoor", "name": "Umspannwerk Zahna", "operator": "Mitnetz Strom", "operator:wikidata": "Q56199578", "power": "substation", "ref": "Za", "substation": "transmission", "voltage": "110000"}}, {"type": "way", "id": 156354808, "center": {"lat": 52.1550786, "lon": 13.6504094}, "tags": {"barrier": "fence", "name": "Gro\u00df K\u00f6ris", "operator": "E.DIS Netz GmbH", "power": "substation", "substation": "transmission", "voltage": "110000"}}, {"type": "way", "id": 156683994, "center": {"lat": 51.8736667, "lon": 13.9034325}, "tags": {"access": "no", "frequency": "50", "location": "outdoor", "operator": "50Hertz Transmission", "operator:wikidata": "Q241331", "power": "substation", "substation": "transmission"}}, {"type": "way", "id": 157104348, "center": {"lat": 51.6696666, "lon": 12.273492}, "tags": {"barrier": "fence", "frequency": "50", "location": "outdoor", "name": "Umspannwerk Wolfen", "power": "substation", "substation": "transmission", "voltage": "110000"}}, {"type": "way", "id": 157104351, "center": {"lat": 51.6552962, "lon": 12.2972224}, "tags": {"frequency": "50", "name": "Wolfen Ost", "operator": "MITNETZ Strom", "operator:wikidata": "Q56199578", "power": "substation", "ref": "WnO", "substation": "transmission", "voltage": "110000"}}, {"type": "way", "id": 157178597, "center": {"lat": 51.6561449, "lon": 12.2506845}, "tags": {"frequency": "50", "location": "outdoor", "power": "substation", "substation": "transmission", "voltage": "110000"}}, {"type": "way", "id": 157179500, "center": {"lat": 51.580525, "lon": 12.2347169}, "tags": {"access": "no", "addr:postcode": "06809", "barrier": "fence", "frequency": "50", "location": "outdoor", "name": "Umspannwerk Roitzsch", "operator": "Mitnetz Strom", "operator:wikidata": "Q56199578", "power": "substation", "ref": "Ro", "substation": "transmission", "voltage": "110000"}}, {"type": "way", "id": 157179630, "center": {"lat": 51.6945006, "lon": 12.7296579}, "tags": {"addr:city": "Bad Schmiedeberg", "addr:country": "DE", "addr:housenumber": "29", "addr:postcode": "06905", "addr:street": "Reinharzer Stra\u00dfe", "addr:suburb": "Bad Schmiedeberg", "frequency": "50", "location": "outdoor", "name": "Umspannwerk Schmiedeberg", "operator": "Mitnetz Strom", "operator:wikidata": "Q56199578", "power": "substation", "ref": "Schm", "substation": "transmission", "voltage": "110000"}}, {"type": "way", "id": 157328339, "center": {"lat": 51.3561476, "lon": 13.3834054}, "tags": {"access": "no", "addr:city": "W\u00fclknitz", "addr:country": "DE", "addr:postcode": "01609", "addr:street": "Am Umspannwerk", "addr:suburb": "Streumen", "frequency": "50", "location": "outdoor", "name": "Umspannwerk Streumen", "operator": "50Hertz Transmission", "operator:wikidata": "Q241331", "power": "substation", "ref": "Str", "substation": "transmission", "voltage": "380000"}}, {"type": "way", "id": 157373145, "center": {"lat": 51.799849, "lon": 14.4419044}, "tags": {"landuse": "industrial", "location": "outdoor", "name": "UW", "operator": "LEAG", "power": "substation", "substation": "transmission", "voltage": "110000"}}, {"type": "way", "id": 157806991, "center": {"lat": 51.4136565, "lon": 14.5080932}, "tags": {"access": "no", "addr:city": "Boxberg/Oberlausitz", "addr:postcode": "02943", "addr:street": "An der Schaltanlage", "addr:suburb": "B\u00e4rwalde", "designation": "380-KV Schaltanlage", "frequency": "50", "name": "Schaltwerk B\u00e4rwalde", "name:hsb": "Bjerwa\u0142dska p\u0159epinarnja", "operator": "50Hertz Transmission", "operator:wikidata": "Q241331", "power": "substation", "substation": "transmission", "voltage": "380000", "wikidata": "Q52680521"}}, {"type": "way", "id": 164950715, "center": {"lat": 52.6813186, "lon": 13.4636272}, "tags": {"barrier": "fence", "frequency": "50", "location": "outdoor", "management_region": "edis39", "name": "Sch\u00f6nwalde", "operator": "EON_edis", "power": "substation", "substation": "transmission", "voltage": "110000"}}, {"type": "way", "id": 169106857, "center": {"lat": 51.4107722, "lon": 12.0451344}, "tags": {"frequency": "50", "name": "Umspannwerk D\u00f6llnitz", "operator": "MITNETZ STROM", "power": "substation", "ref": "D\u00f6", "substation": "transmission", "voltage": "110000"}}, {"type": "way", "id": 170123812, "center": {"lat": 53.0980467, "lon": 14.268652}, "tags": {"name": "Umspannwerk Vierraden", "operator": "50Hertz Transmission", "operator:wikidata": "Q241331", "operator:wikipedia": "de:50Hertz Transmission", "power": "substation", "ref": "Vrd", "substation": "transmission", "voltage": "380000"}}, {"type": "way", "id": 172678304, "center": {"lat": 51.301435, "lon": 11.9851655}, "tags": {"barrier": "fence", "description": "Unterstation ILE Infra Leuna", "fixme": "name,operator", "frequency": "50", "name": "Schaltwerk Leuna", "power": "substation", "ref": "Leu", "source": "Bing", "substation": "transmission", "voltage": "110000"}}, {"type": "way", "id": 173538641, "center": {"lat": 51.8132531, "lon": 14.4291454}, "tags": {"barrier": "fence", "fixme": "name", "operator": "enviaM", "power": "substation", "substation": "transmission", "voltage": "110000"}}, {"type": "way", "id": 173761071, "center": {"lat": 51.3564966, "lon": 12.706645}, "tags": {"addr:city": "Bennewitz", "addr:country": "DE", "addr:postcode": "04828", "addr:street": "Parkstra\u00dfe", "frequency": "50", "location": "outdoor", "name": "Umspannwerk Bennewitz", "operator": "Mitnetz Strom", "operator:wikidata": "Q56199578", "power": "substation", "ref": "Be", "substation": "transmission", "voltage": "110000"}}, {"type": "way", "id": 173761081, "center": {"lat": 51.4635079, "lon": 12.6543644}, "tags": {"addr:city": "Eilenburg", "addr:country": "DE", "addr:housenumber": "57", "addr:postcode": "04838", "addr:street": "An der Dobritzmark", "frequency": "50", "location": "outdoor", "name": "Umspannwerk Eilenburg Ost", "operator": "Mitnetz Strom", "operator:wikidata": "Q56199578", "power": "substation", "ref": "EiO", "substation": "transmission", "voltage": "110000"}}, {"type": "way", "id": 173764855, "center": {"lat": 51.5901945, "lon": 12.6078362}, "tags": {"addr:city": "Bad D\u00fcben", "addr:country": "DE", "addr:housenumber": "13", "addr:postcode": "04849", "addr:street": "G\u00f6rschlitzer Stra\u00dfe", "frequency": "50", "location": "outdoor", "name": "Umspannwerk D\u00fcben", "operator": "Mitnetz Strom", "operator:wikidata": "Q56199578", "power": "substation", "ref": "Due", "substation": "transmission", "voltage": "110000"}}, {"type": "way", "id": 173769988, "center": {"lat": 51.4919423, "lon": 12.8976958}, "tags": {"addr:city": "Mockrehna", "addr:country": "DE", "addr:postcode": "04862", "addr:street": "Wildsch\u00fctzer Stra\u00dfe", "addr:suburb": "Langenreichenbach", "barrier": "fence", "frequency": "50", "location": "outdoor", "name": "Umspannwerk Langenreichenbach", "operator": "Mitnetz Strom", "operator:wikidata": "Q56199578", "power": "substation", "ref": "Lab", "start_date": "2012-05-23", "substation": "transmission", "voltage": "110000"}}, {"type": "way", "id": 174415137, "center": {"lat": 51.3108344, "lon": 12.0673172}, "tags": {"addr:city": "Bad D\u00fcrrenberg", "addr:country": "DE", "addr:postcode": "06231", "addr:street": "Merseburger Stra\u00dfe", "addr:suburb": "Lennewitz", "frequency": "50", "location": "outdoor", "name": "Umspannwerk Lennewitz", "operator": "MITNETZ Strom", "operator:wikidata": "Q56199578", "power": "substation", "ref": "Le", "substation": "transmission", "voltage": "110000"}}, {"type": "way", "id": 174930528, "center": {"lat": 51.8323327, "lon": 12.0833316}, "tags": {"barrier": "fence", "frequency": "50", "location": "outdoor", "name": "Umspannwerk Susigke", "operator": "MITNETZ Strom", "operator:wikidata": "Q56199578", "power": "substation", "ref": "Su", "source": "Bing", "substation": "transmission", "voltage": "110000"}}, {"type": "way", "id": 187210832, "center": {"lat": 52.2193466, "lon": 14.3479061}, "tags": {"access": "no", "barrier": "fence", "name": "UW Solarpark Mixdorf", "power": "substation", "substation": "transmission", "voltage": "110000"}}, {"type": "way", "id": 193800925, "center": {"lat": 51.8689897, "lon": 13.5276039}, "tags": {"frequency": "50", "location": "outdoor", "power": "substation", "substation": "transmission", "voltage": "110000"}}, {"type": "way", "id": 198050164, "center": {"lat": 51.2249237, "lon": 13.2599417}, "tags": {"building": "yes", "frequency": "50", "location": "indoor", "operator": "SachsenEnergie", "operator:wikidata": "Q104758900", "power": "substation", "ref": "6293", "source": "Bing", "substation": "transmission", "voltage": "20000"}}, {"type": "way", "id": 198871874, "center": {"lat": 52.3942454, "lon": 12.4163291}, "tags": {"access": "no", "frequency": "16.7", "location": "outdoor", "name": "Schaltwerk Kirchm\u00f6ser", "note": "Nur je drei Leistungsschalter und Leitungstrenner.", "operator": "DB Energie GmbH", "power": "substation", "railway:ref": "ILKM", "substation": "transmission", "voltage": "110000"}}, {"type": "way", "id": 200354261, "center": {"lat": 51.5105174, "lon": 13.9704334}, "tags": {"name": "Umspannwerk Senftenberg West", "power": "substation", "substation": "transmission", "voltage": "110000"}}, {"type": "way", "id": 200363944, "center": {"lat": 52.1902664, "lon": 14.3096059}, "tags": {"barrier": "fence", "frequency": "50", "location": "outdoor", "operator": "EON_edis", "power": "substation", "substation": "transmission", "voltage": "110000"}}, {"type": "way", "id": 202424675, "center": {"lat": 51.8827842, "lon": 14.564804}, "tags": {"frequency": "50", "location": "outdoor", "operator": "LEAG", "power": "substation", "substation": "transmission", "voltage": "110000"}}, {"type": "way", "id": 202546923, "center": {"lat": 52.9512476, "lon": 13.2392378}, "tags": {"access": "no", "frequency": "50", "location": "outdoor", "management_region": "edis39", "name": "H\u00e4sen", "operator": "E.DIS Netz GmbH", "operator:wikidata": "Q1273411", "power": "substation", "ref": "H\u00e4s", "substation": "transmission", "voltage": "110000"}}, {"type": "way", "id": 202588454, "center": {"lat": 52.4040509, "lon": 12.5194005}, "tags": {"disused": "yes", "power": "substation", "substation": "transmission"}}, {"type": "way", "id": 204718372, "center": {"lat": 51.4136817, "lon": 12.2860603}, "tags": {"barrier": "fence", "frequency": "50", "location": "outdoor", "name": "Umspannwerk L\u00fctzschena", "operator": "MITNETZ Strom", "operator:wikidata": "Q56199578", "power": "substation", "substation": "transmission", "voltage": "110000"}}, {"type": "way", "id": 207526402, "center": {"lat": 51.5664212, "lon": 14.1114972}, "tags": {"frequency": "50", "name": "Umspannstation Bahnsdorf", "power": "substation", "ref": "Ba", "substation": "transmission", "voltage": "110000"}}, {"type": "way", "id": 234155830, "center": {"lat": 51.6074699, "lon": 14.0249421}, "tags": {"addr:city": "Gro\u00dfr\u00e4schen", "addr:country": "DE", "addr:postcode": "01983", "frequency": "50", "landuse": "industrial", "location": "outdoor", "name": "Umspannwerk Gro\u00dfr\u00e4schen", "operator": "Mitnetz Strom", "operator:wikidata": "Q56199578", "power": "substation", "ref": "Gr\u00e4", "substation": "transmission", "voltage": "110000"}}, {"type": "way", "id": 246449251, "center": {"lat": 51.6278664, "lon": 12.3033485}, "tags": {"addr:housenumber": "3A", "addr:street": "Parsevalstra\u00dfe", "building": "yes", "building:levels": "2", "power": "substation", "substation": "transmission"}}, {"type": "way", "id": 257476894, "center": {"lat": 52.451786, "lon": 12.2517414}, "tags": {"barrier": "fence", "frequency": "50", "name": "Demsin", "operator": "Avacon", "power": "substation", "substation": "transmission", "voltage": "110000"}}, {"type": "way", "id": 279699938, "center": {"lat": 51.3673023, "lon": 12.3903463}, "tags": {"addr:city": "Leipzig", "addr:postcode": "04129", "addr:street": "Werkst\u00e4ttenweg", "barrier": "fence", "frequency": "50", "location": "outdoor", "name": "Umspannwerk Leipzig C", "operator": "Stadtwerke Leipzig", "operator:wikidata": "Q2328555", "power": "substation", "ref": "LzC", "substation": "transmission", "voltage": "110000"}}, {"type": "way", "id": 280435282, "center": {"lat": 51.306273, "lon": 12.2800977}, "tags": {"addr:city": "Leipzig", "addr:housenumber": "144", "addr:postcode": "04249", "addr:street": "Gerhard-Ellrodt-Stra\u00dfe", "barrier": "fence", "frequency": "50", "name": "Umspannwerk Lausen", "power": "substation", "substation": "transmission", "voltage": "110000"}}, {"type": "way", "id": 305889442, "center": {"lat": 51.6433507, "lon": 13.2273825}, "tags": {"barrier": "fence", "location": "outdoor", "name": "Umspannwerk Gr\u00e4fendorf", "power": "substation", "substation": "transmission", "voltage": "110000"}}, {"type": "way", "id": 307426821, "center": {"lat": 51.5198867, "lon": 12.3567323}, "tags": {"addr:city": "Delitzsch", "addr:country": "DE", "addr:housenumber": "65", "addr:postcode": "04509", "addr:street": "Eilenburger Chaussee", "addr:suburb": "Beerendorf", "frequency": "50", "location": "outdoor", "name": "Umspannwerk Delitzsch", "operator": "MITNETZ Strom", "operator:wikidata": "Q56199578", "power": "substation", "ref": "Del", "substation": "transmission", "voltage": "110000"}}, {"type": "way", "id": 317909715, "center": {"lat": 51.4638997, "lon": 12.5945333}, "tags": {"addr:city": "Eilenburg", "addr:country": "DE", "addr:postcode": "04838", "addr:street": "Am Schadebach", "frequency": "50", "location": "outdoor", "name": "Schaltwerk Kospa", "operator": "Mitnetz Strom", "operator:wikidata": "Q56199578", "power": "substation", "ref": "Kos", "source": "bing", "substation": "transmission", "voltage": "110000"}}, {"type": "way", "id": 374277567, "center": {"lat": 51.6740845, "lon": 13.2224228}, "tags": {"frequency": "50", "location": "outdoor", "power": "substation", "substation": "transmission", "voltage": "110000"}}, {"type": "way", "id": 398680313, "center": {"lat": 51.799971, "lon": 13.0585525}, "tags": {"addr:city": "Jessen (Elster)", "addr:country": "DE", "addr:postcode": "06917", "addr:suburb": "Schweinitz", "comment": "Inbetriebnahme 16.8.2016", "frequency": "50", "location": "outdoor", "name": "Jessen Nord (Schweinitz) 380 kV", "operator": "50Hertz Transmission", "operator:wikidata": "Q241331", "power": "substation", "ref": "JeN", "start_date": "2016-08-16", "substation": "transmission", "voltage": "380000"}}, {"type": "way", "id": 414169327, "center": {"lat": 52.4427846, "lon": 14.1332806}, "tags": {"access": "no", "addr:city": "Steinh\u00f6fel", "addr:country": "DE", "addr:postcode": "15518", "addr:street": "Buchholzer Stra\u00dfe", "addr:suburb": "Tempelberg", "frequency": "50", "location": "outdoor", "name": "Heinersdorf", "operator": "50Hertz Transmission", "operator:wikidata": "Q241331", "power": "substation", "ref": "Hnd", "start_date": "2017-07", "substation": "transmission", "voltage": "380000", "wikidata": "Q53151545"}}, {"type": "way", "id": 442199284, "center": {"lat": 51.1969579, "lon": 12.3374246}, "tags": {"access": "no", "addr:city": "Zwenkau", "addr:country": "DE", "addr:postcode": "04442", "addr:suburb": "Pulgar", "frequency": "50", "name": "Umspannwerk Pulgar", "operator": "50Hertz Transmission", "operator:wikidata": "Q241331", "power": "substation", "ref": "Pul", "substation": "transmission", "voltage": "380000"}}, {"type": "way", "id": 489431796, "center": {"lat": 51.7126657, "lon": 12.2438884}, "tags": {"fixme": "Name?;rev?", "frequency": "50", "name": "Umspannstation", "power": "substation", "substation": "transmission", "voltage": "110000"}}, {"type": "way", "id": 504542943, "center": {"lat": 52.361997, "lon": 14.8328207}, "tags": {"barrier": "fence", "location": "outdoor", "name": "Stacja elektroenergetyczna 110 kV RS Lubiechnia Wielka", "operator": "Enea Operator", "power": "substation", "substation": "transmission", "voltage": "110000"}}, {"type": "way", "id": 505331660, "center": {"lat": 51.5323556, "lon": 14.0083098}, "tags": {"addr:city": "Senftenberg", "addr:country": "DE", "addr:postcode": "01968", "addr:street": "Spremberger Stra\u00dfe", "name": "Umspannwerk Senftenberg", "operator": "Mitnetz Strom", "operator:wikidata": "Q56199578", "power": "substation", "ref": "Sen", "start_date": "2016-06", "substation": "transmission", "voltage": "110000"}}, {"type": "way", "id": 518455594, "center": {"lat": 52.9941334, "lon": 13.2634937}, "tags": {"name": "Umspannwerk Gransee", "operator": "50Hertz Transmission GmbH", "power": "substation", "substation": "transmission", "voltage": "380000", "wikidata": "Q53062098"}}, {"type": "way", "id": 579476041, "center": {"lat": 51.398092, "lon": 12.2113749}, "tags": {"addr:city": "Schkeuditz", "addr:housenumber": "29", "addr:postcode": "04435", "addr:street": "Flughafenstra\u00dfe", "frequency": "50", "name": "Umspannwerk Schkeuditz", "operator": "MITNETZ Strom", "operator:wikidata": "Q56199578", "power": "substation", "substation": "transmission", "voltage": "110000"}}, {"type": "way", "id": 628130069, "center": {"lat": 52.0792921, "lon": 12.7903874}, "tags": {"access": "no", "barrier": "fence", "location": "outdoor", "management_region": "edis6", "name": "Schaltpunkt Rietz", "operator": "E.DIS Netz GmbH", "operator:wikidata": "Q1273411", "power": "substation", "substation": "transmission", "voltage": "110000"}}, {"type": "way", "id": 656099764, "center": {"lat": 51.246174, "lon": 14.1730879}, "tags": {"power": "substation", "substation": "transmission", "voltage": "110000"}}, {"type": "way", "id": 662728528, "center": {"lat": 52.7416617, "lon": 14.6810565}, "tags": {"barrier": "fence", "location": "outdoor", "name": "Stacja elektroenergetyczna 30/110kV FW Wysoka", "power": "substation", "start_date": "2013", "substation": "transmission", "voltage": "110000;30000"}}, {"type": "way", "id": 713811131, "center": {"lat": 51.1983139, "lon": 12.2474683}, "tags": {"name": "Umspannwerk Tellsch\u00fctz", "note": "Leistung 30 Megawatt", "operator": "Mitnetz Strom", "power": "substation", "start_date": "2017", "substation": "transmission", "voltage": "110000"}}, {"type": "way", "id": 720043137, "center": {"lat": 51.4597835, "lon": 11.9908616}, "tags": {"frequency": "50", "power": "substation", "substation": "transmission", "voltage": "110000"}}, {"type": "way", "id": 742454350, "center": {"lat": 52.8199859, "lon": 14.4712999}, "tags": {"barrier": "fence", "location": "outdoor", "name": "Stacja elektroenergetyczna 110/30kV FW Kamionka", "power": "substation", "substation": "transmission", "voltage": "110000;30000"}}, {"type": "way", "id": 747804719, "center": {"lat": 52.2267753, "lon": 12.188917}, "tags": {"building": "yes", "power": "substation", "substation": "transmission"}}, {"type": "way", "id": 793408884, "center": {"lat": 51.6090339, "lon": 14.0292008}, "tags": {"frequency": "50", "name": "Umspannstation", "operator": "Umspannwerk L\u00fcbben S\u00fcd GmbH & Co. KG", "power": "substation", "ref": "Wos", "substation": "transmission", "voltage": "110000"}}, {"type": "way", "id": 793414116, "center": {"lat": 51.5707269, "lon": 13.2165486}, "tags": {"frequency": "50", "power": "substation", "substation": "transmission", "voltage": "110000"}}, {"type": "way", "id": 793431038, "center": {"lat": 51.570934, "lon": 13.1693694}, "tags": {"frequency": "50", "power": "substation", "substation": "transmission", "voltage": "110000"}}, {"type": "way", "id": 824672683, "center": {"lat": 51.3324876, "lon": 12.3794848}, "tags": {"operator": "Stadtwerke Leipzig", "operator:wikidata": "Q2328555", "power": "substation", "ref": "5188", "substation": "transmission"}}, {"type": "way", "id": 830424708, "center": {"lat": 51.8250559, "lon": 13.163357}, "tags": {"access": "no", "barrier": "fence", "frequency": "50", "landuse": "industrial", "name": "UW Sch\u00f6newalde (E.DIS)", "operator": "E.DIS Netz GmbH", "operator:wikidata": "Q1273411", "power": "substation", "substation": "transmission", "voltage": "110000"}}, {"type": "way", "id": 844050678, "center": {"lat": 51.6241261, "lon": 12.3182371}, "tags": {"frequency": "50", "name": "Umspannwerk Bitterfeld Ost", "operator": "MITNETZ Strom", "operator:wikidata": "Q56199578", "power": "substation", "ref": "BiO", "substation": "transmission", "voltage": "110000"}}, {"type": "way", "id": 879834580, "center": {"lat": 51.6408969, "lon": 12.2404938}, "tags": {"barrier": "fence", "frequency": "50", "name": "Umspannwerk Sandersdorf", "operator": "MITNETZ Strom", "operator:wikidata": "Q56199578", "power": "substation", "ref": "San", "substation": "transmission", "voltage": "110000"}}, {"type": "way", "id": 889180904, "center": {"lat": 52.3960882, "lon": 13.8215186}, "tags": {"barrier": "fence", "location": "outdoor", "name": "Umspannwerk Freienbrink", "operator": "E.DIS Netz GmbH", "operator:wikidata": "Q1273411", "operator:wikipedia": "de:E.DIS", "power": "substation", "ref": "Fbr", "substation": "transmission", "voltage": "110000"}}, {"type": "way", "id": 900388494, "center": {"lat": 51.1948116, "lon": 12.3256854}, "tags": {"addr:city": "Zwenkau", "addr:postcode": "04442", "addr:suburb": "L\u00f6bsch\u00fctz", "frequency": "50", "location": "outdoor", "name": "Schaltwerk Zwenkau", "operator": "MITNETZ Strom", "operator:wikidata": "Q56199578", "power": "substation", "ref": "Zwe", "substation": "transmission", "voltage": "110000"}}, {"type": "way", "id": 912842670, "center": {"lat": 52.7668101, "lon": 15.0386397}, "tags": {"barrier": "fence", "location": "outdoor", "name": "Stacja elektroenergetyczna 400/220/110 kV Baczyna", "opening_date": "2022", "operator": "PSE Operator", "power": "substation", "ref": "BCS", "substation": "transmission", "voltage": "400000;220000;110000"}}, {"type": "way", "id": 918863069, "center": {"lat": 52.6570232, "lon": 14.8932969}, "tags": {"operator": "Alternus Energy Group", "power": "substation", "substation": "transmission", "voltage": "110000;30000"}}, {"type": "way", "id": 921056950, "center": {"lat": 51.6826437, "lon": 14.3349846}, "tags": {"building": "yes", "name": "LEAG Zentrale Stromversorgung", "operator": "LEAG", "power": "substation", "substation": "transmission", "voltage": "30000"}}, {"type": "way", "id": 940470388, "center": {"lat": 52.2316626, "lon": 13.3043621}, "tags": {"access": "no", "frequency": "50", "name": "Umspannwerk Thyrow", "operator": "50Hertz Transmission GmbH", "power": "substation", "ref": "Thy", "source": "survey", "substation": "transmission", "voltage": "110000"}}, {"type": "way", "id": 940470389, "center": {"lat": 52.2292738, "lon": 13.3065113}, "tags": {"access": "no", "frequency": "50", "name": "Umspannwerk Thyrow", "operator": "50Hertz Transmission", "operator:wikidata": "Q241331", "operator:wikipedia": "de:50Hertz Transmission", "power": "substation", "ref": "Thy", "source": "survey", "substation": "transmission", "voltage": "380000"}}, {"type": "way", "id": 940635545, "center": {"lat": 52.5635507, "lon": 12.9407163}, "tags": {"addr:city": "Wustermark", "addr:street": "Am Umspannwerk", "frequency": "50", "name": "Umspannwerk Wustermark", "operator": "50Hertz Transmission", "operator:wikidata": "Q241331", "power": "substation", "ref": "Wu", "source": "survey", "substation": "transmission", "voltage": "220000"}}, {"type": "way", "id": 940635546, "center": {"lat": 52.5610175, "lon": 12.9405892}, "tags": {"addr:city": "Wustermark", "addr:country": "DE", "addr:street": "Am Umspannwerk", "management_region": "edis7", "name": "Umspannwerk Wustermark", "operator": ";E.ON edis AG", "power": "substation", "ref": "Wu", "source": "survey", "substation": "transmission", "voltage": "110000"}}, {"type": "way", "id": 940636813, "center": {"lat": 52.5902334, "lon": 13.4956109}, "tags": {"access": "no", "addr:city": "Berlin", "addr:country": "DE", "addr:housenumber": "20", "addr:postcode": "13051", "addr:street": "Bundesstra\u00dfe 2", "addr:suburb": "Wartenberg", "frequency": "50", "location": "outdoor", "name": "Umspannwerk Malchow", "operator": "50Hertz;Stromnetz Berlin", "power": "substation", "ref": "MOW", "short_name": "UW MOW", "substation": "transmission", "voltage": "380000", "wikidata": "Q55198986"}}, {"type": "way", "id": 940922557, "center": {"lat": 51.8759475, "lon": 13.9013679}, "tags": {"access": "no", "frequency": "50", "location": "outdoor", "name": "Umspannwerk Ragow", "operator": "50Hertz Transmission", "operator:wikidata": "Q241331", "operator:wikipedia": "de:50Hertz Transmission", "power": "substation", "ref": "Rag", "substation": "transmission", "voltage": "380000"}}, {"type": "way", "id": 941196088, "center": {"lat": 51.8282121, "lon": 13.1563155}, "tags": {"access": "no", "frequency": "50", "name": "UW Sch\u00f6newalde (Energiequelle)", "operator": "Energiequelle", "power": "substation", "substation": "transmission", "voltage": "110000"}}, {"type": "way", "id": 941198517, "center": {"lat": 51.888923, "lon": 14.4282757}, "tags": {"access": "no", "addr:city": "Turnow-Preilack", "addr:country": "DE", "addr:postcode": "03185", "addr:street": "An der Chaussee", "addr:suburb": "Preilack", "frequency": "50", "name": "Umspannwerk Preilack", "operator": "50Hertz Transmission", "operator:wikidata": "Q241331", "operator:wikipedia": "de:50Hertz Transmission", "power": "substation", "ref": "Prl", "substation": "transmission", "voltage": "380000", "wikidata": "Q58171758"}}, {"type": "way", "id": 941443168, "center": {"lat": 52.1740913, "lon": 14.6050783}, "tags": {"access": "no", "addr:city": "Eisenh\u00fcttenstadt", "addr:country": "DE", "addr:postcode": "15890", "addr:street": "Am M\u00fchlenflie\u00df", "frequency": "50", "name": "Eisenh\u00fcttenstadt Pohlitz", "power": "substation", "ref": "EhsP", "substation": "transmission", "voltage": "110000"}}, {"type": "way", "id": 942448205, "center": {"lat": 52.5403575, "lon": 13.7070053}, "tags": {"access": "no", "addr:city": "Neuenhagen bei Berlin", "addr:country": "DE", "addr:postcode": "15366", "addr:street": "Am Umspannwerk", "frequency": "50", "location": "outdoor", "management_region": "edis39", "name": "Umspannwerk Neuenhagen", "operator": "E.DIS Netz GmbH", "operator:wikidata": "Q1273411", "power": "substation", "ref": "Nhg", "substation": "transmission", "voltage": "110000"}}, {"type": "way", "id": 942448206, "center": {"lat": 52.5416003, "lon": 13.7101914}, "tags": {"access": "no", "addr:city": "Neuenhagen bei Berlin", "addr:country": "DE", "addr:postcode": "15366", "addr:street": "Am Umspannwerk", "frequency": "50", "location": "outdoor", "name": "Umspannwerk Neuenhagen", "operator": "50Hertz Transmission", "operator:wikidata": "Q241331", "power": "substation", "ref": "Nhg", "substation": "transmission", "voltage": "220000"}}, {"type": "way", "id": 942770518, "center": {"lat": 51.5533281, "lon": 14.4710942}, "tags": {"access": "no", "addr:city": "Spremberg", "addr:country": "DE", "addr:postcode": "03130", "addr:street": "Umspannwerk", "addr:suburb": "Graustein", "frequency": "50", "name": "Graustein", "operator": "MITNETZ Strom", "operator:wikidata": "Q56199578", "power": "substation", "ref": "Grs", "substation": "transmission", "voltage": "110000"}}, {"type": "way", "id": 944119480, "center": {"lat": 51.3563943, "lon": 13.3803461}, "tags": {"access": "no", "addr:city": "W\u00fclknitz", "addr:country": "DE", "addr:postcode": "01609", "addr:street": "Neudorfer Stra\u00dfe", "addr:suburb": "Streumen", "frequency": "50", "location": "outdoor", "name": "Umspannwerk Streumen", "operator": "SachsenEnergie", "operator:wikidata": "Q104758900", "power": "substation", "ref": "Str", "substation": "transmission", "voltage": "110000"}}, {"type": "way", "id": 946025110, "center": {"lat": 51.7411202, "lon": 12.2622268}, "tags": {"access": "no", "addr:city": "Raguhn-Je\u00dfnitz", "addr:country": "DE", "addr:postcode": "06779", "addr:street": "Am Umspannwerk", "addr:suburb": "Marke", "frequency": "50", "location": "outdoor", "name": "Umspannwerk Marke", "operator": "50Hertz Transmission", "operator:wikidata": "Q241331", "operator:wikipedia": "de:50Hertz Transmission", "power": "substation", "ref": "Ma", "substation": "transmission", "voltage": "380000"}}, {"type": "way", "id": 947310960, "center": {"lat": 52.2307717, "lon": 13.3056737}, "tags": {"power": "substation", "substation": "transmission"}}, {"type": "way", "id": 988264915, "center": {"lat": 51.5502087, "lon": 14.2515145}, "tags": {"name": "UW Terpe", "operator": "LEAG", "power": "substation", "ref": "UW Terpe", "substation": "transmission", "voltage": "110000"}}, {"type": "way", "id": 995977679, "center": {"lat": 51.7474824, "lon": 12.5153289}, "tags": {"addr:city": "Kemberg", "addr:country": "DE", "addr:postcode": "06901", "addr:street": "Ochsenkopfstra\u00dfe", "addr:suburb": "Radis", "frequency": "50", "name": "Umspannwerk Radis", "operator": "MITNETZ Strom", "operator:wikidata": "Q56199578", "power": "substation", "ref": "Rd", "substation": "transmission", "voltage": "110000"}}, {"type": "way", "id": 1009649345, "center": {"lat": 52.4312505, "lon": 14.6523408}, "tags": {"barrier": "fence", "location": "outdoor", "name": "Stacja elektroenergetyczna 110kV FW Golice", "power": "substation", "substation": "transmission", "voltage": "110000"}}, {"type": "way", "id": 1021469988, "center": {"lat": 51.2530607, "lon": 11.9905842}, "tags": {"fixme": "Name?;operator?;ref?", "frequency": "50", "name": "Umspannstation", "power": "substation", "substation": "transmission", "voltage": "110000"}}, {"type": "way", "id": 1068350839, "center": {"lat": 51.6403209, "lon": 14.0000117}, "tags": {"addr:city": "Altd\u00f6bern", "addr:country": "DE", "addr:postcode": "03229", "frequency": "50", "name": "Umspannwerk Altd\u00f6bern", "operator": "50Hertz Transmission", "operator:wikidata": "Q241331", "power": "substation", "ref": "Adb", "start_date": "2021-07-23", "substation": "transmission", "voltage": "380000"}}, {"type": "way", "id": 1086564587, "center": {"lat": 51.874667, "lon": 13.9042634}, "tags": {"access": "no", "frequency": "50", "location": "outdoor", "name": "Umspannwerk Ragow", "operator": "MITNETZ Strom", "operator:wikidata": "Q56199578", "power": "substation", "ref": "Rag", "substation": "transmission", "voltage": "110000"}}, {"type": "way", "id": 1090618322, "center": {"lat": 52.4437451, "lon": 14.1321076}, "tags": {"access": "no", "addr:city": "Steinh\u00f6fel", "addr:country": "DE", "addr:postcode": "15518", "addr:street": "Buchholzer Stra\u00dfe", "addr:suburb": "Tempelberg", "frequency": "50", "location": "outdoor", "name": "Umspannwerk Heinersdorf", "operator": "E.DIS Netz GmbH", "operator:wikidata": "Q1273411", "power": "substation", "ref": "Hnd", "start_date": "2017-07", "substation": "transmission", "voltage": "110000", "wikidata": "Q53151545"}}, {"type": "way", "id": 1096446150, "center": {"lat": 51.7995483, "lon": 13.0566324}, "tags": {"addr:city": "Jessen (Elster)", "addr:country": "DE", "addr:postcode": "06917", "addr:suburb": "Schweinitz", "area": "yes", "comment": "Inbetriebnahme 16.8.2016", "frequency": "50", "location": "outdoor", "name": "Jessen Nord (Schweinitz) 110 kV", "operator": "MITNETZ Strom", "operator:wikidata": "Q56199578", "power": "substation", "ref": "JeN", "start_date": "2016-08-16", "substation": "transmission", "voltage": "110000"}}, {"type": "way", "id": 1121141326, "center": {"lat": 52.5595889, "lon": 12.9429133}, "tags": {"building": "service", "name": "Am Umspannwerk", "power": "substation", "substation": "transmission"}}, {"type": "way", "id": 1135968591, "center": {"lat": 51.6826048, "lon": 14.3349484}, "tags": {"building": "yes", "name": "LEAG Zentrale Stromversorgung", "operator": "LEAG", "power": "substation", "substation": "transmission", "voltage": "30000"}}, {"type": "way", "id": 1137859645, "center": {"lat": 51.6826162, "lon": 14.3349749}, "tags": {"building": "yes", "name": "LEAG Zentrale Stromversorgung", "noaddress": "yes", "operator": "LEAG", "power": "substation", "substation": "transmission", "voltage": "30000"}}, {"type": "way", "id": 1194777110, "center": {"lat": 52.3803146, "lon": 11.9893937}, "tags": {"building": "service", "power": "substation", "substation": "transmission", "wikimedia_commons": "File:Parey, Lustgarten 03.jpg"}}, {"type": "way", "id": 1201114029, "center": {"lat": 51.3452561, "lon": 13.3535299}, "tags": {"name": "Umspannwerk Zeithain-Ehrenhain", "power": "substation", "substation": "transmission", "voltage": "110000"}}, {"type": "way", "id": 1202427908, "center": {"lat": 52.3706717, "lon": 12.1652651}, "tags": {"building": "service", "description": "drei Wandbilder: Landwirtschaft, K\u00fcnstler: Art-efx", "name": "Schaltstation H\u00fctterm\u00fchle", "operator": "Avacon Netz", "operator:wikidata": "Q124369334", "power": "substation", "short_name": "MN13021", "substation": "transmission", "wikimedia_commons": "Category:Trafo M\u00fctzel (Genthin)"}}, {"type": "way", "id": 1253847330, "center": {"lat": 51.766565, "lon": 13.9740136}, "tags": {"addr:city": "Calau", "addr:postcode": "03205", "addr:suburb": "Sa\u00dfleben", "barrier": "fence", "location": "outdoor", "name": "Umspannwerk Calau Ost", "operator": "MITNETZ", "power": "substation", "substation": "transmission", "voltage": "110000"}}, {"type": "way", "id": 1282733005, "center": {"lat": 52.5354343, "lon": 13.5244986}, "tags": {"addr:city": "Berlin", "addr:country": "DE", "addr:housenumber": "378B", "addr:postcode": "12681", "addr:street": "Landsberger Allee", "addr:suburb": "Marzahn", "location": "outdoor", "name": "Umspannwerk Marzahn", "operator": "50Hertz Transmission", "operator:wikidata": "Q241331", "operator:wikipedia": "de:50Hertz Transmission", "power": "substation", "ref": "MZA9", "short_name": "UW MZA", "substation": "transmission", "voltage": "220000", "wikidata": "Q55201345"}}, {"type": "way", "id": 1299969990, "center": {"lat": 52.6674487, "lon": 14.8803816}, "tags": {"barrier": "fence", "location": "outdoor", "name": "Stacja Elektroenergetyczna 110/30kV GPO Witnica", "power": "substation", "start_date": "2021", "substation": "transmission", "voltage": "110000;30000"}}, {"type": "way", "id": 1394900728, "center": {"lat": 51.4589008, "lon": 14.093244}, "tags": {"building": "service", "name": "MRp3943", "operator": "enviaM", "operator:wikidata": "Q1345871", "power": "substation", "substation": "transmission"}}, {"type": "way", "id": 1415633904, "center": {"lat": 52.4972388, "lon": 14.6670098}, "tags": {"barrier": "fence", "location": "outdoor", "name": "Stacja Elektroenergetyczna 110kV GPO G\u00f3rzyca", "power": "substation", "substation": "transmission", "voltage": "110000"}}, {"type": "way", "id": 1425842555, "center": {"lat": 53.0928062, "lon": 13.5792978}, "tags": {"name": "Trafostation Petersdorf, Gro\u00dfer Eichwerder", "operator": "E.DIS Netz", "operator:wikidata": "Q124377743", "power": "substation", "substation": "transmission"}}, {"type": "way", "id": 1451404203, "center": {"lat": 51.3452634, "lon": 12.5205234}, "tags": {"name": "Althen Saxoniastra\u00dfe", "operator": "Netz Leipzig", "power": "substation", "substation": "transmission"}}, {"type": "way", "id": 1488883678, "center": {"lat": 51.3988884, "lon": 12.1887089}, "tags": {"addr:city": "Schkeuditz", "addr:postcode": "04435", "addr:street": "Am Ro\u00dfberg", "fixme": "geografische Lage ungenau", "name": "Umspannwerk Schkeuditz West", "power": "substation", "substation": "transmission", "voltage": "115000"}}, {"type": "way", "id": 1489453472, "center": {"lat": 51.6103359, "lon": 14.0332701}, "tags": {"power": "substation", "substation": "transmission", "utility": "power"}}]