[{"type": "way", "id": 4413699, "center": {"lat": 49.0007076, "lon": 8.4676047}, "tags": {"landuse": "industrial", "source": "Bing und LA-KA"}}, {"type": "way", "id": 4624963, "center": {"lat": 48.9376299, "lon": 8.4120798}, "tags": {"landuse": "industrial", "name": "AVG-Betriebsgel\u00e4nde"}}, {"type": "way", "id": 4686660, "center": {"lat": 48.9515064, "lon": 8.3931479}, "tags": {"landuse": "industrial"}}, {"type": "way", "id": 4726867, "center": {"lat": 48.9364454, "lon": 8.4212776}, "tags": {"landuse": "industrial"}}, {"type": "way", "id": 4732772, "center": {"lat": 47.6752366, "lon": 8.6029306}, "tags": {"landuse": "industrial", "name": "Rundbuck"}}, {"type": "way", "id": 4733391, "center": {"lat": 47.6780727, "lon": 8.6213548}, "tags": {"landuse": "industrial", "name": "SIG Areal"}}, {"type": "way", "id": 4809565, "center": {"lat": 48.9435531, "lon": 8.3901585}, "tags": {"landuse": "industrial", "name": "AVG (ehem. ELBA-Gel\u00e4nde)", "operator": "AVG", "planned:depot": "tram;railway"}}, {"type": "way", "id": 4842209, "center": {"lat": 49.0231538, "lon": 8.335951}, "tags": {"addr:city": "Karlsruhe", "addr:country": "DE", "addr:housenumber": "36", "addr:postcode": "76189", "addr:street": "Wikingerstra\u00dfe", "depot": "tram;light_rail", "industrial": "depot", "landuse": "industrial", "name": "VBK - Betriebshof West I", "operator": "Verkehrsbetriebe Karlsruhe GmbH", "operator:wikidata": "Q644958", "operator:wikipedia": "https://de.wikipedia.org/wiki/Verkehrsbetriebe_Karlsruhe", "railway:ref": "BHW", "railway:ref:DBAG": "RKS 1", "ref": "BHW I", "wikidata": "Q125213870"}}, {"type": "way", "id": 5053726, "center": {"lat": 48.8642595, "lon": 8.2359831}, "tags": {"landuse": "industrial"}}, {"type": "way", "id": 5213981, "center": {"lat": 48.6524584, "lon": 8.9274183}, "tags": {"landuse": "industrial", "name": "Letten"}}, {"type": "way", "id": 5214017, "center": {"lat": 48.6610548, "lon": 8.9254913}, "tags": {"landuse": "industrial", "name": "Holzwerk Keck", "website": "https://www.keck-holz.de/"}}, {"type": "way", "id": 5300648, "center": {"lat": 48.6227468, "lon": 8.8958218}, "tags": {"landuse": "industrial"}}, {"type": "way", "id": 5300704, "center": {"lat": 48.6212173, "lon": 8.9054966}, "tags": {"landuse": "industrial", "name": "Buchen"}}, {"type": "way", "id": 5300809, "center": {"lat": 48.6299858, "lon": 8.8983123}, "tags": {"landuse": "industrial", "name": "Gr\u00fcnden"}}, {"type": "way", "id": 5467757, "center": {"lat": 48.5802205, "lon": 8.9021719}, "tags": {"addr:city": "Herrenberg", "addr:housenumber": "4", "addr:postcode": "71083", "addr:street": "Br\u00fcckles\u00e4cker", "landuse": "industrial", "name": "Autobahnmeisterei Herrenberg", "operator": "Autobahn GmbH", "phone": "+49 7032 78820"}}, {"type": "way", "id": 5574866, "center": {"lat": 48.777584, "lon": 8.9289875}, "tags": {"alt_name": "Gewerbegebiet Renneningen Raite/Wolf\u00e4cker", "landuse": "industrial", "name": "Gewerbegebiet Renningen"}}, {"type": "way", "id": 5575728, "center": {"lat": 48.7788001, "lon": 8.9067736}, "tags": {"landuse": "industrial"}}, {"type": "way", "id": 7854538, "center": {"lat": 48.8174861, "lon": 8.1613451}, "tags": {"landuse": "industrial"}}, {"type": "way", "id": 8059996, "center": {"lat": 48.9628264, "lon": 8.2017873}, "tags": {"landuse": "industrial", "name": "Rohm and Haas"}}, {"type": "way", "id": 8166764, "center": {"lat": 48.8614373, "lon": 8.1784761}, "tags": {"description": "Aktuelles Produktportfolio: A-Klasse, B-Klasse, GLA, EQA Jahresproduktionszahl (31.12.2017): >330.000 Anzahl der Mitarbeiter (31.12.2017): >6.500 Anzahl der Auszubildende (31.12.2017): 213", "industrial": "factory", "landuse": "industrial", "name": "Mercedes-Benz AG Werk Rastatt", "name:en": "Mercedes-Benz AG Rastatt plant", "operator": "Mercedes-Benz AG", "start_date": "1992", "website": "https://group.mercedes-benz.com/karriere/ueber-uns/standorte/standort-detailseite-5203.html"}}, {"type": "way", "id": 9703285, "center": {"lat": 49.0862068, "lon": 8.3668931}, "tags": {"addr:housenumber": "12", "addr:street": "Kopfweg", "landuse": "industrial", "man_made": "works", "name": "Lithonplus"}}, {"type": "way", "id": 9991745, "center": {"lat": 47.6511742, "lon": 8.8504696}, "tags": {"landuse": "industrial", "name": "Egelsee", "place": "neighbourhood"}}, {"type": "way", "id": 10267181, "center": {"lat": 48.4656002, "lon": 7.8822642}, "tags": {"landuse": "industrial", "source": "yahoo,ywms"}}, {"type": "way", "id": 10276163, "center": {"lat": 48.4552049, "lon": 7.900587}, "tags": {"landuse": "industrial"}}, {"type": "way", "id": 10276363, "center": {"lat": 48.5402748, "lon": 7.8830526}, "tags": {"landuse": "industrial"}}, {"type": "way", "id": 10634209, "center": {"lat": 47.4365553, "lon": 8.6238872}, "tags": {"landuse": "industrial"}}, {"type": "way", "id": 10638614, "center": {"lat": 48.5303739, "lon": 7.8617587}, "tags": {"landuse": "industrial"}}, {"type": "way", "id": 10638616, "center": {"lat": 48.5329932, "lon": 7.8600022}, "tags": {"landuse": "industrial"}}, {"type": "way", "id": 10638618, "center": {"lat": 48.5328928, "lon": 7.8574304}, "tags": {"landuse": "industrial"}}, {"type": "way", "id": 10638619, "center": {"lat": 48.5319451, "lon": 7.8575466}, "tags": {"landuse": "industrial"}}, {"type": "way", "id": 10996957, "center": {"lat": 47.3769568, "lon": 8.6426057}, "tags": {"landuse": "industrial"}}, {"type": "way", "id": 11338800, "center": {"lat": 47.5746517, "lon": 8.511828}, "tags": {"landuse": "industrial"}}, {"type": "way", "id": 11646448, "center": {"lat": 47.6015297, "lon": 8.5434922}, "tags": {"landuse": "industrial"}}, {"type": "way", "id": 13220062, "center": {"lat": 48.8468077, "lon": 8.2038007}, "tags": {"addr:city": "Rastatt", "addr:country": "DE", "addr:housenumber": "31", "addr:postcode": "76437", "addr:street": "Kehler Stra\u00dfe", "landuse": "industrial", "name": "Getinge Deutschland GmbH", "source": "https://www2.getinge.com/de/kontakt/"}}, {"type": "way", "id": 13872095, "center": {"lat": 48.6398424, "lon": 8.9191796}, "tags": {"landuse": "industrial"}}, {"type": "way", "id": 14357048, "center": {"lat": 47.4009248, "lon": 8.4803354}, "tags": {"barrier": "fence", "image": "https://commons.wikimedia.org/wiki/File:Kl%C3%A4rwerk_Werdh%C3%B6lzli_Com_FC24-8009-0270_(cropped).jpg", "landuse": "industrial", "man_made": "wastewater_plant", "name": "Kl\u00e4rwerk Werdh\u00f6lzli", "operator": "ERZ", "wikidata": "Q104897193"}}, {"type": "way", "id": 14390488, "center": {"lat": 47.3846651, "lon": 8.5056715}, "tags": {"landuse": "industrial", "name": "Schlachthofareal"}}, {"type": "way", "id": 14693175, "center": {"lat": 49.0557612, "lon": 8.344677}, "tags": {"addr:city": "Karlsruhe", "addr:country": "DE", "addr:housenumber": "1", "addr:street": "An der W\u00e4sserung", "industrial": "oil", "landuse": "industrial", "man_made": "works", "name": "MiRO Mineral\u00f6lraffinerie Oberrhein - Werk 2", "product": "fuel", "source:name": "http://www.openstreetmap.org/note/99575", "website": "https://www.miro-ka.de/", "wikidata": "Q1761694", "wikipedia": "de:MiRO", "works": "oil_refinery"}}, {"type": "way", "id": 15139858, "center": {"lat": 49.0570536, "lon": 8.0923701}, "tags": {"landuse": "industrial", "name": "Webasto Mechatronics GmbH"}}, {"type": "way", "id": 15220883, "center": {"lat": 48.7571803, "lon": 8.8740261}, "tags": {"landuse": "industrial", "name": "Gewerbegebiet Hochstra\u00dfe"}}, {"type": "way", "id": 16642281, "center": {"lat": 48.7501375, "lon": 8.3468681}, "tags": {"contact:email": "info.gernsbach@roechling-automotive.de", "contact:website": "http://www.roechling.com", "landuse": "industrial", "man_made": "works", "name": "R\u00f6chling Automotive", "operator": "R\u00f6chling Automotive KG"}}, {"type": "way", "id": 20438423, "center": {"lat": 48.7548143, "lon": 8.0165235}, "tags": {"industrial": "factory", "landuse": "industrial", "name": "Chemiepark Rheinm\u00fcnster (Trinseo, Evonik, Olin)", "website": "https://www.trinseo.com/Das-Unternehmen-Stade/Chemiepark-Rheinmuenster"}}, {"type": "way", "id": 22723844, "center": {"lat": 48.6037651, "lon": 7.7591306}, "tags": {"landuse": "industrial", "layer": "-1", "name": "CERP Rhin Rh\u00f4ne M\u00e9diterran\u00e9e & Pharmat", "source": "cadastre-dgi-fr source : Direction G\u00e9n\u00e9rale des Imp\u00f4ts - Cadastre ; mise \u00e0 jour : 2009"}}, {"type": "way", "id": 22724276, "center": {"lat": 48.8283237, "lon": 8.5785925}, "tags": {"landuse": "industrial", "name": "Industriegebiet Rotenbach"}}, {"type": "way", "id": 22928443, "center": {"lat": 47.6507405, "lon": 8.8494049}, "tags": {"landuse": "industrial"}}, {"type": "way", "id": 22940262, "center": {"lat": 47.6520485, "lon": 8.8457154}, "tags": {"landuse": "industrial"}}, {"type": "way", "id": 22940673, "center": {"lat": 47.6542456, "lon": 8.8429862}, "tags": {"landuse": "industrial"}}, {"type": "way", "id": 22940766, "center": {"lat": 47.655775, "lon": 8.845642}, "tags": {"landuse": "industrial"}}, {"type": "way", "id": 22940819, "center": {"lat": 47.6565152, "lon": 8.8444214}, "tags": {"landuse": "industrial"}}, {"type": "way", "id": 22941705, "center": {"lat": 47.6605752, "lon": 8.8641699}, "tags": {"landuse": "industrial", "name": "Chlosterwis", "name:de": "Klosterwiese", "name:gsw": "Chloosterwis"}}, {"type": "way", "id": 22952962, "center": {"lat": 47.6589783, "lon": 8.8546927}, "tags": {"landuse": "industrial"}}, {"type": "way", "id": 22953121, "center": {"lat": 47.6574784, "lon": 8.852863}, "tags": {"addr:city": "Stein am Rhein", "addr:postcode": "8260", "landuse": "industrial", "name": "Beckewis"}}, {"type": "way", "id": 22953126, "center": {"lat": 47.6558463, "lon": 8.857506}, "tags": {"landuse": "industrial", "name": "Keusch"}}, {"type": "way", "id": 22962196, "center": {"lat": 48.8452258, "lon": 8.1756209}, "tags": {"landuse": "industrial", "name": "Kieswerk Kaltenbach"}}, {"type": "way", "id": 22970388, "center": {"lat": 47.7734683, "lon": 8.6745557}, "tags": {"landuse": "industrial", "name": "S\u00e4gi Bibern", "place": "neighbourhood"}}, {"type": "way", "id": 22970619, "center": {"lat": 47.6118481, "lon": 8.7342018}, "tags": {"landuse": "industrial"}}, {"type": "way", "id": 22970620, "center": {"lat": 47.6104198, "lon": 8.7191021}, "tags": {"landuse": "industrial", "name": "Kl\u00e4ranlage (ARA)"}}, {"type": "way", "id": 22970622, "center": {"lat": 47.6093625, "lon": 8.7267159}, "tags": {"landuse": "industrial"}}, {"type": "way", "id": 22970774, "center": {"lat": 47.6797274, "lon": 8.4607819}, "tags": {"landuse": "industrial"}}, {"type": "way", "id": 22970793, "center": {"lat": 47.6641064, "lon": 8.434322}, "tags": {"landuse": "industrial"}}, {"type": "way", "id": 22978899, "center": {"lat": 47.6537926, "lon": 8.8565994}, "tags": {"landuse": "industrial", "name": "Hofwis", "name:gsw": "Hoofwis"}}, {"type": "way", "id": 22996460, "center": {"lat": 49.0090399, "lon": 8.3491007}, "tags": {"landuse": "industrial"}}, {"type": "way", "id": 22996461, "center": {"lat": 49.0137297, "lon": 8.3488929}, "tags": {"barrier": "fence", "landuse": "industrial"}}, {"type": "way", "id": 22996734, "center": {"lat": 49.0126952, "lon": 8.3425453}, "tags": {"landuse": "industrial"}}, {"type": "way", "id": 22998987, "center": {"lat": 49.0181106, "lon": 8.3173656}, "tags": {"industrial": "construction_company", "landuse": "industrial", "name": "Joos"}}, {"type": "way", "id": 23006499, "center": {"lat": 48.593974, "lon": 7.735865}, "tags": {"landuse": "industrial", "name": "D\u00e9p\u00f4t CTS de Cronenbourg", "source": "cadastre-dgi-fr source : Direction G\u00e9n\u00e9rale des Imp\u00f4ts - Cadastre ; mise \u00e0 jour : 2009"}}, {"type": "way", "id": 23035281, "center": {"lat": 49.0980472, "lon": 8.8608596}, "tags": {"landuse": "industrial", "name": "Gewerbepark \"Unter der Ravensburg\""}}, {"type": "way", "id": 23188546, "center": {"lat": 48.2656836, "lon": 7.5289985}, "tags": {"craft": "joiner", "landuse": "industrial", "note": "selon informations du plan cadastral dat\u00e9 du 08/11/2007 et recoupage divers", "source_ref": "cadastre"}}, {"type": "way", "id": 23365040, "center": {"lat": 48.630938, "lon": 8.5094362}, "tags": {"landuse": "industrial", "name": "Interkom"}}, {"type": "way", "id": 23368270, "center": {"lat": 49.1545886, "lon": 8.1484296}, "tags": {"landuse": "industrial"}}, {"type": "way", "id": 23455678, "center": {"lat": 48.5878178, "lon": 8.6207596}, "tags": {"landuse": "industrial"}}, {"type": "way", "id": 23484066, "center": {"lat": 48.1095917, "lon": 7.8775755}, "tags": {"landuse": "industrial", "name": "BAREG"}}, {"type": "way", "id": 23496168, "center": {"lat": 48.8711539, "lon": 8.8018721}, "tags": {"landuse": "industrial", "name": "Gewerbegebiet Dachstein", "url": "http://dachstein.wurmberg.de/"}}, {"type": "way", "id": 23546467, "center": {"lat": 48.5807284, "lon": 8.5914969}, "tags": {"landuse": "industrial", "name": "Turmfeld"}}, {"type": "way", "id": 23549640, "center": {"lat": 49.0961474, "lon": 8.8574664}, "tags": {"landuse": "industrial"}}, {"type": "way", "id": 23624983, "center": {"lat": 48.4820063, "lon": 8.8749621}, "tags": {"landuse": "industrial"}}, {"type": "way", "id": 23705572, "center": {"lat": 47.9525567, "lon": 8.5258891}, "tags": {"landuse": "industrial"}}, {"type": "way", "id": 23749182, "center": {"lat": 48.4193308, "lon": 8.634659}, "tags": {"landuse": "industrial"}}, {"type": "way", "id": 23778312, "center": {"lat": 48.6650228, "lon": 8.6049375}, "tags": {"landuse": "industrial"}}, {"type": "way", "id": 23894005, "center": {"lat": 48.6292143, "lon": 8.9246379}, "tags": {"landuse": "industrial"}}, {"type": "way", "id": 23945322, "center": {"lat": 48.5924579, "lon": 8.6223298}, "tags": {"landuse": "industrial"}}, {"type": "way", "id": 23976734, "center": {"lat": 48.6633192, "lon": 8.9186792}, "tags": {"barrier": "fence", "landuse": "industrial", "man_made": "wastewater_plant", "name": "Kl\u00e4ranlage Ehningen"}}, {"type": "way", "id": 23998522, "center": {"lat": 48.3575701, "lon": 7.7730615}, "tags": {"landuse": "industrial", "name": "Herrenknecht AG"}}, {"type": "way", "id": 24010609, "center": {"lat": 47.7564034, "lon": 8.8441099}, "tags": {"barrier": "fence", "landuse": "industrial", "name": "Maggi / Nestl\u00e9"}}, {"type": "way", "id": 24012606, "center": {"lat": 48.7140642, "lon": 8.9221363}, "tags": {"landuse": "industrial", "name": "R\u00f6te", "wikidata": "Q108940804"}}, {"type": "way", "id": 24034534, "center": {"lat": 49.1727365, "lon": 5.9819939}, "tags": {"email": "communication.sovab@renault.com", "industrial": "factory", "landuse": "industrial", "name": "Usine S.O.V.A.B. (Soci\u00e9t\u00e9 des V\u00e9hicules Automobiles de Batilly)", "phone": "+33 1 76 89 34 99", "short_name": "SOVAB", "website": "https://www.sovab-renault-batilly.fr/"}}, {"type": "way", "id": 24181992, "center": {"lat": 48.7143451, "lon": 8.120505}, "tags": {"landuse": "industrial", "name": "Vimbuch"}}, {"type": "way", "id": 24183145, "center": {"lat": 48.4069654, "lon": 7.7667936}, "tags": {"landuse": "industrial", "name": "Oberried"}}, {"type": "way", "id": 24187401, "center": {"lat": 48.3308171, "lon": 7.8260754}, "tags": {"landuse": "industrial", "name": "Gewerbegebiet Lahr-Langenwinkel"}}, {"type": "way", "id": 24187595, "center": {"lat": 48.354401, "lon": 7.8253482}, "tags": {"landuse": "industrial", "name": "Rheinstra\u00dfe Nord"}}, {"type": "way", "id": 24288790, "center": {"lat": 47.3507836, "lon": 8.6923643}, "tags": {"landuse": "industrial", "man_made": "wastewater_plant", "name": "ARA Uster"}}, {"type": "way", "id": 24417424, "center": {"lat": 49.0249628, "lon": 7.9901267}, "tags": {"landuse": "industrial"}}, {"type": "way", "id": 24418121, "center": {"lat": 47.4212143, "lon": 8.6235746}, "tags": {"landuse": "industrial", "name": "Coca-Cola HBC Schweiz"}}, {"type": "way", "id": 24418219, "center": {"lat": 47.4257854, "lon": 8.6222412}, "tags": {"landuse": "industrial", "name": "Bruno Piatti AG"}}, {"type": "way", "id": 24422370, "center": {"lat": 47.9590831, "lon": 8.7820278}, "tags": {"landuse": "industrial", "name": "G\u00e4ns\u00e4cker"}}, {"type": "way", "id": 24428862, "center": {"lat": 47.4160516, "lon": 8.6238889}, "tags": {"landuse": "industrial"}}, {"type": "way", "id": 24428864, "center": {"lat": 47.415034, "lon": 8.6246813}, "tags": {"landuse": "industrial"}}, {"type": "way", "id": 24428866, "center": {"lat": 47.413973, "lon": 8.6200668}, "tags": {"landuse": "industrial"}}, {"type": "way", "id": 24428868, "center": {"lat": 47.4146536, "lon": 8.6179206}, "tags": {"landuse": "industrial"}}, {"type": "way", "id": 24428873, "center": {"lat": 47.4129154, "lon": 8.624857}, "tags": {"alt_name": "Industrie Aegert", "landuse": "industrial", "name": "Industrie \u00c4gert"}}, {"type": "way", "id": 24428891, "center": {"lat": 47.4194547, "lon": 8.624605}, "tags": {"landuse": "industrial"}}, {"type": "way", "id": 24428894, "center": {"lat": 47.4108665, "lon": 8.6140215}, "tags": {"landuse": "industrial"}}, {"type": "way", "id": 24436058, "center": {"lat": 47.5224365, "lon": 7.6776311}, "tags": {"landuse": "industrial", "name": "Industriepark Pratteln West"}}, {"type": "way", "id": 24492257, "center": {"lat": 48.6131489, "lon": 8.8489956}, "tags": {"landuse": "industrial"}}, {"type": "way", "id": 24500941, "center": {"lat": 49.0540912, "lon": 8.084403}, "tags": {"landuse": "industrial", "name": "Forsthof Schaidt"}}, {"type": "way", "id": 24778886, "center": {"lat": 49.2145144, "lon": 6.8323931}, "tags": {"landuse": "industrial", "name": "M\u00fcllverbrennungsanlage Velsen"}}, {"type": "way", "id": 24797688, "center": {"lat": 47.3579928, "lon": 8.729608}, "tags": {"landuse": "industrial"}}, {"type": "way", "id": 24845117, "center": {"lat": 49.1195085, "lon": 8.5781096}, "tags": {"landuse": "industrial", "name": "West I"}}, {"type": "way", "id": 24858763, "center": {"lat": 47.8324121, "lon": 7.6186925}, "tags": {"landuse": "industrial", "name": "SCHOTT Pharma AG & Co.KGaA"}}, {"type": "way", "id": 24883781, "center": {"lat": 49.002042, "lon": 8.4659668}, "tags": {"landuse": "industrial", "source": "Bing"}}, {"type": "way", "id": 24911762, "center": {"lat": 48.1765618, "lon": 8.1863188}, "tags": {"craft": "sawmill", "landuse": "industrial", "name": "Rombach Holzwerk", "website": "https://www.rombach-saege.de"}}, {"type": "way", "id": 24934594, "center": {"lat": 47.8538337, "lon": 8.7926874}, "tags": {"landuse": "industrial", "name": "Gewerbegebiet Grub"}}, {"type": "way", "id": 24952753, "center": {"lat": 49.169548, "lon": 8.623653}, "tags": {"landuse": "industrial", "name": "Zentrales Gewerbegebiet Ubstadt-Weiher"}}, {"type": "way", "id": 24952885, "center": {"lat": 49.1687905, "lon": 8.6255142}, "tags": {"landuse": "industrial"}}, {"type": "way", "id": 24978496, "center": {"lat": 49.0710253, "lon": 8.5294148}, "tags": {"landuse": "industrial", "name": "Kieswerk Weingarten"}}, {"type": "way", "id": 25021734, "center": {"lat": 48.5629384, "lon": 8.9038038}, "tags": {"landuse": "industrial"}}, {"type": "way", "id": 25138667, "center": {"lat": 49.00417, "lon": 8.5359566}, "tags": {"landuse": "industrial", "name": "Gewerbepark T.I.P.P. - Technologie-und Innovationspark Pfinztal"}}, {"type": "way", "id": 25217221, "center": {"lat": 48.5716413, "lon": 8.9145099}, "tags": {"landuse": "industrial", "name": "Gipswerk Kayh"}}, {"type": "way", "id": 25334700, "center": {"lat": 48.064154, "lon": 7.7193458}, "tags": {"landuse": "industrial"}}, {"type": "way", "id": 25358944, "center": {"lat": 49.2034431, "lon": 8.6316386}, "tags": {"landuse": "industrial", "name": "Industriegebiet \"Im Sand\""}}, {"type": "way", "id": 25360670, "center": {"lat": 48.2867461, "lon": 8.1875348}, "tags": {"landuse": "industrial"}}, {"type": "way", "id": 25380014, "center": {"lat": 48.0503624, "lon": 7.5641031}, "tags": {"landuse": "industrial", "name": "Constellium", "source": "cadastre"}}, {"type": "way", "id": 25430445, "center": {"lat": 48.0948362, "lon": 8.6858212}, "tags": {"landuse": "industrial"}}, {"type": "way", "id": 25430446, "center": {"lat": 48.0916901, "lon": 8.6986282}, "tags": {"landuse": "industrial"}}, {"type": "way", "id": 25493004, "center": {"lat": 48.9098243, "lon": 8.5628199}, "tags": {"landuse": "industrial", "name": "Unter Bruch", "source": "yahoo sat"}}, {"type": "way", "id": 25532988, "center": {"lat": 49.1836125, "lon": 8.6333715}, "tags": {"landuse": "industrial"}}, {"type": "way", "id": 25536247, "center": {"lat": 49.2213644, "lon": 8.4573119}, "tags": {"landuse": "industrial", "name": "Industriegebiet Oberfeldweg"}}, {"type": "way", "id": 25548475, "center": {"lat": 48.5589386, "lon": 8.8542183}, "tags": {"landuse": "industrial", "name": "B\u00f6den"}}, {"type": "way", "id": 25557634, "center": {"lat": 49.2141673, "lon": 6.9256699}, "tags": {"landuse": "industrial", "name": "ZI du Puits Simon IV"}}, {"type": "way", "id": 25616439, "center": {"lat": 48.505184, "lon": 8.6291735}, "tags": {"landuse": "industrial", "name": "Lange \u00c4cker"}}, {"type": "way", "id": 25674455, "center": {"lat": 48.0681465, "lon": 7.5622248}, "tags": {"landuse": "industrial", "name": "Georgia Pacific France", "source": "cadastre-dgi-fr source : Direction G\u00e9n\u00e9rale des Imp\u00f4ts - Cadastre ; mise \u00e0 jour : 2008"}}, {"type": "way", "id": 25681692, "center": {"lat": 48.2890381, "lon": 8.5794691}, "tags": {"landuse": "industrial"}}, {"type": "way", "id": 25749119, "center": {"lat": 49.1878225, "lon": 8.553783}, "tags": {"landuse": "industrial", "layer": "-5"}}, {"type": "way", "id": 25767144, "center": {"lat": 47.5101997, "lon": 6.8209323}, "tags": {"industrial": "automotive_industry", "landuse": "industrial", "name": "Usine Stellantis de Sochaux", "name:en": "Stellantis Sochaux Plant", "old_name": "PSA;Peugeot Citro\u00ebn-Site de Sochaux", "ref:FR:SIREN": "542 065 479 00140", "source": "SIREN 2017", "wikidata": "Q3552623", "wikipedia": "fr:Usine Stellantis de Sochaux"}}, {"type": "way", "id": 25822258, "center": {"lat": 48.5614826, "lon": 8.7752048}, "tags": {"landuse": "industrial"}}, {"type": "way", "id": 25841989, "center": {"lat": 48.8892175, "lon": 8.3114023}, "tags": {"landuse": "industrial"}}, {"type": "way", "id": 25849308, "center": {"lat": 49.1088567, "lon": 8.5260391}, "tags": {"landuse": "industrial", "name": "Heck"}}, {"type": "way", "id": 25849571, "center": {"lat": 49.096464, "lon": 8.5605725}, "tags": {"landuse": "industrial", "name": "Schollengarten"}}, {"type": "way", "id": 25861824, "center": {"lat": 49.185534, "lon": 8.6394066}, "tags": {"landuse": "industrial", "name": "Aue-Br\u00fchl"}}, {"type": "way", "id": 25883574, "center": {"lat": 48.822759, "lon": 8.2188337}, "tags": {"barrier": "fence", "landuse": "industrial", "man_made": "water_works", "operator": "Wasserversorgungsverband Vorderes Murgtal"}}, {"type": "way", "id": 25899253, "center": {"lat": 47.9069194, "lon": 7.5626504}, "tags": {"barrier": "fence", "disused:plant:output:electricity": "900 MW", "disused:plant:source": "nuclear", "disused:power": "plant", "end_date": "2020-06-30", "landuse": "industrial", "name": "Centrale nucl\u00e9aire de Fessenheim", "name:de": "Kernkraftwerk Fessenheim", "name:it": "Centrale_nucleare_di_Fessenheim", "operator": "EDF", "operator:wikidata": "Q274591", "start_date": "1978", "wikidata": "Q676411", "wikipedia": "fr:Centrale nucl\u00e9aire de Fessenheim"}}, {"type": "way", "id": 25904106, "center": {"lat": 47.7556224, "lon": 8.8739237}, "tags": {"landuse": "industrial"}}, {"type": "way", "id": 25904729, "center": {"lat": 47.7621343, "lon": 8.8645084}, "tags": {"industrial": "aluminium_smelting", "landuse": "industrial", "name": "Constellium", "website": "https://www.constellium.com/"}}, {"type": "way", "id": 25905095, "center": {"lat": 47.7588853, "lon": 8.8601468}, "tags": {"landuse": "industrial", "name": "G\u00fcterbahnhof"}}, {"type": "way", "id": 25928337, "center": {"lat": 48.62953, "lon": 7.7682153}, "tags": {"landuse": "industrial", "name": "Zone Industrielle de Bischheim-Hoenheim"}}, {"type": "way", "id": 25939379, "center": {"lat": 49.1600235, "lon": 8.5748127}, "tags": {"landuse": "industrial", "name": "Gewerbegebiet Forst"}}, {"type": "way", "id": 25947857, "center": {"lat": 48.082795, "lon": 8.447155}, "tags": {"landuse": "industrial", "name": "Gewerbegebiet Vockenhausen"}}, {"type": "way", "id": 25951322, "center": {"lat": 48.6182435, "lon": 7.8414361}, "tags": {"landuse": "industrial", "man_made": "wastewater_plant", "name": "Kl\u00e4ranlage Kehl"}}, {"type": "way", "id": 26172625, "center": {"lat": 48.542228, "lon": 8.0209938}, "tags": {"landuse": "industrial", "name": "Ernst Umformtechnik"}}, {"type": "way", "id": 26172732, "center": {"lat": 48.5432, "lon": 8.0220033}, "tags": {"landuse": "industrial"}}, {"type": "way", "id": 26172741, "center": {"lat": 48.5380301, "lon": 8.0246436}, "tags": {"landuse": "industrial", "name": "In der Au"}}, {"type": "way", "id": 26188737, "center": {"lat": 49.1079125, "lon": 8.4852936}, "tags": {"addr:city": "Stutensee", "addr:housenumber": "4", "addr:postcode": "76297", "addr:street": "Rheinstra\u00dfe", "contact:email": "info@rheintal-muehlen.de", "contact:fax": "+49 7249 944420", "contact:phone": "+49 7249 94440", "contact:website": "https://www.rheintal-muehlen.de/", "landuse": "industrial", "man_made": "works", "name": "Rheintal M\u00fchlen", "operator": "Rheintal M\u00fchlen GmbH", "product": "flour", "ref:vatin": "DE148514972"}}, {"type": "way", "id": 26198419, "center": {"lat": 49.0310011, "lon": 7.9525611}, "tags": {"industrial": "distillery", "landuse": "industrial", "name": "Les Caves de Wissembourg"}}, {"type": "way", "id": 26213443, "center": {"lat": 47.3949655, "lon": 7.5352078}, "tags": {"landuse": "industrial"}}, {"type": "way", "id": 26213457, "center": {"lat": 47.3986201, "lon": 7.5371087}, "tags": {"landuse": "industrial"}}, {"type": "way", "id": 26241433, "center": {"lat": 47.9699505, "lon": 8.7905449}, "tags": {"landuse": "industrial"}}, {"type": "way", "id": 26319689, "center": {"lat": 48.533653, "lon": 7.5618413}, "tags": {"landuse": "industrial"}}, {"type": "way", "id": 26337480, "center": {"lat": 48.2830261, "lon": 8.1837719}, "tags": {"landuse": "industrial"}}, {"type": "way", "id": 26376637, "center": {"lat": 48.5390443, "lon": 7.5894324}, "tags": {"landuse": "industrial"}}, {"type": "way", "id": 26386970, "center": {"lat": 48.5442063, "lon": 7.5786472}, "tags": {"landuse": "industrial", "name": "Parc d'activit\u00e9 \u00e9conomique de la Plaine de la Bruche", "source": "Bing"}}, {"type": "way", "id": 26386972, "center": {"lat": 48.5418949, "lon": 7.5608771}, "tags": {"alt_name": "ZA L'activeum", "landuse": "industrial", "level": "-1", "name": "Zone d'Activit\u00e9 L'Activeum"}}, {"type": "way", "id": 26401688, "center": {"lat": 48.5781527, "lon": 8.7683555}, "tags": {"landuse": "industrial"}}, {"type": "way", "id": 26442788, "center": {"lat": 48.6756359, "lon": 7.9120409}, "tags": {"addr:city": "Rheinau", "addr:housenumber": "1", "addr:postcode": "77866", "addr:street": "Werftstra\u00dfe", "addr:suburb": "Freistett", "contact:facebook": "Schiffswerft-Karcher-GmbH-1648669068679021", "email": "info@schiffswerft-karcher.com", "landuse": "industrial", "name": "Schiffswerft Karcher", "phone": "+49 7844 1250", "waterway": "boatyard", "website": "https://schiffswerft-karcher.com/", "wikidata": "Q111541364", "wikipedia": "de:Schiffswerft Karcher"}}, {"type": "way", "id": 26466605, "center": {"lat": 48.9448448, "lon": 8.9157745}, "tags": {"landuse": "industrial", "note": "H\u00e4uschen mit dicken Stromzuleitungen und 2 antennenbest\u00fcckten Masten a ca. 5m H\u00f6he"}}, {"type": "way", "id": 26541698, "center": {"lat": 48.6586799, "lon": 8.7504905}, "tags": {"landuse": "industrial"}}, {"type": "way", "id": 26546636, "center": {"lat": 48.5925247, "lon": 8.1141113}, "tags": {"email": "vertrieb@wimmer-buersten.de", "fax": "+49 7842 3622", "landuse": "industrial", "name": "Piassavawerke Hermann Wimmer e.K. - B\u00fcrstenfabrik", "phone": "+49 7842 94790", "website": "https://www.wimmer-buersten.de"}}, {"type": "way", "id": 26565991, "center": {"lat": 48.5963125, "lon": 8.115768}, "tags": {"addr:city": "Kappelrodeck", "addr:housenumber": "19-23", "addr:postcode": "77876", "addr:street": "Richard-Lenk-Stra\u00dfe", "landuse": "industrial", "name": "Papierwerke Lenk AG", "website": "https://www.lenk.de/"}}, {"type": "way", "id": 26566390, "center": {"lat": 48.5993388, "lon": 8.1093161}, "tags": {"landuse": "industrial"}}, {"type": "way", "id": 26614043, "center": {"lat": 49.1561124, "lon": 8.4994094}, "tags": {"landuse": "industrial"}}, {"type": "way", "id": 26617492, "center": {"lat": 48.9167518, "lon": 8.9154829}, "tags": {"landuse": "industrial"}}, {"type": "way", "id": 26636825, "center": {"lat": 48.6811734, "lon": 7.931683}, "tags": {"barrier": "fence", "landuse": "industrial", "man_made": "works", "name": "Hermann Peter KG Freistett", "source": "knowledge,LandSat"}}, {"type": "way", "id": 26637712, "center": {"lat": 47.5794909, "lon": 7.5891507}, "tags": {"landuse": "industrial"}}, {"type": "way", "id": 26646931, "center": {"lat": 48.0759263, "lon": 7.4021242}, "tags": {"landuse": "industrial", "name": "Horbourg-Wihr"}}, {"type": "way", "id": 26653164, "center": {"lat": 48.0532516, "lon": 7.7366953}, "tags": {"landuse": "industrial"}}, {"type": "way", "id": 26660667, "center": {"lat": 47.6939285, "lon": 8.5874851}, "tags": {"landuse": "industrial", "man_made": "works", "name": "Syntegon Packaging", "website": "https://www.syntegon.com/"}}, {"type": "way", "id": 26680821, "center": {"lat": 47.5383153, "lon": 8.2290722}, "tags": {"amenity": "research_institute", "check_date": "2026-03-26", "contact:city": "Villigen PSI", "contact:housenumber": "111", "contact:postcode": "5232", "contact:street": "Forschungsstrasse", "landuse": "industrial", "name": "Paul Scherrer Institut", "name:ar": "\u0645\u0639\u0647\u062f \u0628\u0648\u0644 \u0634\u064a\u0631\u064a\u0631", "name:en": "Paul Scherrer Institute", "name:fr": "Institut Paul Scherrer", "name:it": "Istituto Paul Scherrer", "website": "https://www.psi.ch/", "wikidata": "Q351857", "wikipedia": "de:Paul Scherrer Institut"}}, {"type": "way", "id": 26680824, "center": {"lat": 47.5391557, "lon": 8.2232657}, "tags": {"amenity": "research_institute", "check_date": "2026-03-26", "landuse": "industrial", "name": "Paul Scherrer Institut", "name:ar": "\u0645\u0639\u0647\u062f \u0628\u0648\u0644 \u0634\u064a\u0631\u064a\u0631", "name:en": "Paul Scherrer Institute", "name:fr": "Institut Paul Scherrer", "name:it": "Istituto Paul Scherrer", "website": "https://www.psi.ch/", "wikidata": "Q351857", "wikipedia": "de:Paul Scherrer Institut"}}, {"type": "way", "id": 26689036, "center": {"lat": 49.1588669, "lon": 8.4970494}, "tags": {"landuse": "industrial"}}, {"type": "way", "id": 26697445, "center": {"lat": 48.5992521, "lon": 7.8216639}, "tags": {"addr:city": "Kehl", "addr:housenumber": "45", "addr:postcode": "77694", "addr:street": "Graudenzer Stra\u00dfe", "email": "info@bsw-kehl.de", "fax": "+49 7851 83-496", "industrial": "steelmaking", "landuse": "industrial", "man_made": "works", "name": "Badische Stahlwerke GmbH", "phone": "+49 7851 830", "ref:vatin": "DE:811560314", "short_name": "BSW", "website": "https://bsw-kehl.de/", "wikidata": "Q799100", "wikipedia": "de:Badische Stahlwerke"}}, {"type": "way", "id": 26710932, "center": {"lat": 48.9855794, "lon": 8.7783846}, "tags": {"landuse": "industrial", "name": "Erlen"}}, {"type": "way", "id": 26739015, "center": {"lat": 48.27555, "lon": 6.9512706}, "tags": {"landuse": "industrial", "source": "cadastre-dgi-fr source : Direction G\u00e9n\u00e9rale des Imp\u00f4ts - Cadastre. Mise \u00e0 jour : 2009"}}, {"type": "way", "id": 26753796, "center": {"lat": 47.3948422, "lon": 8.0356461}, "tags": {"building": "yes", "generator:method": "run-of-the-river", "generator:type": "kaplan_turbine", "landuse": "industrial", "layer": "1", "name": "Kraftwerk Aarau", "operator": "Eniwa", "plant:method": "run-of-the-river", "plant:output:electricity": "16.08 MW", "plant:source": "hydro", "power": "plant", "start_date": "1894-08-15", "waterway": "weir", "wikidata": "Q96288791", "wikipedia": "de:Kraftwerk Aarau"}}, {"type": "way", "id": 26761721, "center": {"lat": 49.1830933, "lon": 8.6502058}, "tags": {"landuse": "industrial"}}, {"type": "way", "id": 26802141, "center": {"lat": 48.9539441, "lon": 8.7443936}, "tags": {"landuse": "industrial", "name": "Gewerbegebiet D\u00fcrrn-West"}}, {"type": "way", "id": 26808488, "center": {"lat": 47.5596545, "lon": 7.607339}, "tags": {"landuse": "industrial", "name": "Roche"}}, {"type": "way", "id": 26952610, "center": {"lat": 49.2127125, "lon": 7.1183553}, "tags": {"landuse": "industrial", "name": "Solarkraftwerk", "operator": "Conergy", "plant:method": "photovoltaic", "plant:output:electricity": "4.2 MW", "plant:source": "solar", "power": "plant"}}, {"type": "way", "id": 27001752, "center": {"lat": 49.0466653, "lon": 8.3913746}, "tags": {"addr:city": "Karlsruhe", "addr:country": "DE", "addr:housenumber": "133", "addr:postcode": "76149", "addr:street": "Linkenheimer Landstra\u00dfe", "landuse": "industrial", "man_made": "works", "name": "Badische Neueste Nachrichten", "operator": "Badische Neueste Nachrichten Badendruck GmbH", "product": "newspapers", "short_name": "BNN", "website": "https://bnn.de/", "wikidata": "Q799092", "wikipedia": "de:Badische_Neueste_Nachrichten"}}, {"type": "way", "id": 27022122, "center": {"lat": 48.0273604, "lon": 7.8511227}, "tags": {"addr:city": "Freiburg im Breisgau", "addr:housenumber": "1", "addr:postcode": "79108", "addr:street": "Robert-Bunsen-Stra\u00dfe", "building": "industrial", "depot": "bus", "industrial": "depot", "landuse": "industrial", "name": "S\u00fcdbadenbus Betriebshof Freiburg", "operator": "SBG S\u00fcdbadenbus GmbH", "source": "maps4bw, LGL, www.lgl-bw.de", "website": "http://www.s\u00fcdbadenbus.de", "wikipedia": "de:S\u00fcdbadenbus"}}, {"type": "way", "id": 27049804, "center": {"lat": 47.8097541, "lon": 7.5308888}, "tags": {"landuse": "industrial", "name": "Alsachimie-Butachimie"}}, {"type": "way", "id": 27069890, "center": {"lat": 48.9119188, "lon": 8.8423383}, "tags": {"landuse": "industrial"}}, {"type": "way", "id": 27071841, "center": {"lat": 49.1965287, "lon": 8.4589449}, "tags": {"landuse": "industrial", "name": "Gewerbegebiet Nr. 6 K\u00fchweid", "ref": "6"}}, {"type": "way", "id": 27073751, "center": {"lat": 49.1768531, "lon": 8.6824737}, "tags": {"landuse": "industrial", "name": "Lutz Michaela Getreidem\u00fchle"}}, {"type": "way", "id": 27073759, "center": {"lat": 49.1757941, "lon": 8.6908345}, "tags": {"landuse": "industrial", "name": "Fleisch"}}, {"type": "way", "id": 27096501, "center": {"lat": 47.562433, "lon": 7.5510623}, "tags": {"landuse": "industrial"}}, {"type": "way", "id": 27148602, "center": {"lat": 48.8295477, "lon": 8.6549796}, "tags": {"landuse": "industrial", "name": "Engelsbrand"}}, {"type": "way", "id": 27201008, "center": {"lat": 47.5575269, "lon": 7.9567921}, "tags": {"addr:city": "Bad S\u00e4ckingen", "addr:country": "DE", "addr:housenumber": "2", "addr:postcode": "79713", "addr:street": "Murger Weg", "building": "industrial", "landuse": "industrial", "layer": "1", "man_made": "weir", "name": "Rheinkraftwerk S\u00e4ckingen", "plant:method": "run-of-the-river", "plant:output:electricity": "73.6 MW", "plant:source": "hydro", "power": "plant", "wikidata": "Q2147856"}}, {"type": "way", "id": 27224882, "center": {"lat": 48.3914689, "lon": 8.7257556}, "tags": {"landuse": "industrial", "name": "Gewerbegebiet Autobahnkreuz"}}, {"type": "way", "id": 27308027, "center": {"lat": 47.7595682, "lon": 8.8855339}, "tags": {"landuse": "industrial"}}, {"type": "way", "id": 27361837, "center": {"lat": 48.0826927, "lon": 7.4133617}, "tags": {"landuse": "industrial", "name": "Horbourg-Wihr"}}, {"type": "way", "id": 27391058, "center": {"lat": 49.2027827, "lon": 8.4550575}, "tags": {"landuse": "industrial", "name": "Gewerbegebiet Nr. 7 Schorrenfeld"}}, {"type": "way", "id": 27392648, "center": {"lat": 47.3932747, "lon": 8.739276}, "tags": {"landuse": "industrial"}}, {"type": "way", "id": 27396285, "center": {"lat": 48.5353698, "lon": 7.4162038}, "tags": {"landuse": "industrial"}}, {"type": "way", "id": 27443585, "center": {"lat": 49.214405, "lon": 7.9840635}, "tags": {"landuse": "industrial", "name": "In den Bruchwiesen"}}, {"type": "way", "id": 27507738, "center": {"lat": 47.3450159, "lon": 8.7412485}, "tags": {"landuse": "industrial", "name": "Tr\u00fcmplerareal"}}, {"type": "way", "id": 27514091, "center": {"lat": 48.4582422, "lon": 8.5609448}, "tags": {"landuse": "industrial"}}, {"type": "way", "id": 27517496, "center": {"lat": 47.8761223, "lon": 7.3184614}, "tags": {"landuse": "industrial", "name": "Ungersheim"}}, {"type": "way", "id": 27528981, "center": {"lat": 47.9092739, "lon": 7.2745152}, "tags": {"landuse": "industrial"}}, {"type": "way", "id": 27537140, "center": {"lat": 47.961871, "lon": 7.7585472}, "tags": {"amenity": "parking", "landuse": "industrial"}}, {"type": "way", "id": 27572004, "center": {"lat": 47.8817128, "lon": 7.5882955}, "tags": {"landuse": "industrial", "name": "Kl\u00e4ranlage Gri\u00dfheim"}}, {"type": "way", "id": 27633130, "center": {"lat": 48.4785316, "lon": 8.4946322}, "tags": {"landuse": "industrial", "name": "Alte Poststra\u00dfe Ost"}}, {"type": "way", "id": 27646534, "center": {"lat": 47.9156754, "lon": 7.7473975}, "tags": {"landuse": "industrial", "name": "Holzhandlung"}}, {"type": "way", "id": 27654477, "center": {"lat": 47.3984475, "lon": 8.0655367}, "tags": {"landuse": "industrial", "name": "Industriezone Neumattstrasse"}}, {"type": "way", "id": 27688502, "center": {"lat": 47.9926341, "lon": 7.6503609}, "tags": {"landuse": "industrial"}}, {"type": "way", "id": 27730182, "center": {"lat": 48.8836982, "lon": 8.1998888}, "tags": {"landuse": "industrial", "man_made": "wastewater_plant", "name": "Abwasserverband Murg Gruppenkl\u00e4rwerk Rastatt"}}, {"type": "way", "id": 27765619, "center": {"lat": 47.9939696, "lon": 7.7963176}, "tags": {"addr:city": "Freiburg im Breisgau", "addr:housenumber": "99", "addr:postcode": "79111", "addr:street": "Besan\u00e7onallee", "building": "industrial", "contact:website": "http://www.vag-freiburg.de/", "depot": "tram", "industrial": "depot", "landuse": "industrial", "wikipedia": "de:Freiburger Verkehrs AG"}}, {"type": "way", "id": 27823190, "center": {"lat": 48.5613972, "lon": 8.1701322}, "tags": {"addr:city": "Ottenh\u00f6fen im Schwarzwald", "addr:country": "DE", "addr:housenumber": "39", "addr:postcode": "77883", "addr:street": "Edelfrauengrab", "landuse": "industrial", "name": "WIBO Schotter- und Edelsplittwerk", "operator": "Wilhelm Bohnert GmbH & Co. KG", "phone": "+49 7842 947 0", "website": "https://www.wibo-web.de/"}}, {"type": "way", "id": 27832389, "center": {"lat": 47.8739333, "lon": 7.6463087}, "tags": {"landuse": "industrial"}}, {"type": "way", "id": 27837323, "center": {"lat": 48.0796421, "lon": 8.5050541}, "tags": {"landuse": "industrial", "name": "Gewerbegebiet Herdenen"}}, {"type": "way", "id": 27883694, "center": {"lat": 48.6134512, "lon": 8.363959}, "tags": {"landuse": "industrial", "man_made": "wastewater_plant", "name": "Kl\u00e4rwerk Murgtal"}}, {"type": "way", "id": 27926749, "center": {"lat": 48.8815595, "lon": 8.1336839}, "tags": {"landuse": "industrial"}}, {"type": "way", "id": 27955734, "center": {"lat": 48.1240564, "lon": 8.3403246}, "tags": {"landuse": "industrial"}}, {"type": "way", "id": 28000752, "center": {"lat": 49.1385608, "lon": 8.5960048}, "tags": {"landuse": "industrial"}}, {"type": "way", "id": 28000762, "center": {"lat": 49.1380892, "lon": 8.5853321}, "tags": {"landuse": "industrial", "name": "Technologiedorf"}}, {"type": "way", "id": 28000763, "center": {"lat": 49.1360765, "lon": 8.5929366}, "tags": {"landuse": "industrial", "name": "Stegwiesen"}}, {"type": "way", "id": 28002198, "center": {"lat": 47.3973235, "lon": 8.7794434}, "tags": {"landuse": "industrial"}}, {"type": "way", "id": 28002220, "center": {"lat": 49.1413378, "lon": 8.5954813}, "tags": {"landuse": "industrial", "man_made": "wastewater_plant", "name": "Kl\u00e4ranlage Bruchsal"}}, {"type": "way", "id": 28018196, "center": {"lat": 48.0677641, "lon": 8.5638107}, "tags": {"landuse": "industrial", "name": "Industriegebiet Ost"}}, {"type": "way", "id": 28028409, "center": {"lat": 47.5357853, "lon": 8.2218569}, "tags": {"addr:housenumber": "111", "addr:street": "Forschungsstrasse", "amenity": "research_institute", "check_date": "2026-03-26", "landuse": "industrial", "name": "Paul Scherrer Institut", "name:ar": "\u0645\u0639\u0647\u062f \u0628\u0648\u0644 \u0634\u064a\u0631\u064a\u0631", "name:en": "Paul Scherrer Institute", "name:fr": "Institut Paul Scherrer", "name:it": "Istituto Paul Scherrer", "website": "https://www.psi.ch/", "wheelchair": "yes", "wikidata": "Q351857", "wikipedia": "de:Paul Scherrer Institut"}}, {"type": "way", "id": 28055049, "center": {"lat": 47.386851, "lon": 8.5216541}, "tags": {"disused:man_made": "waste_incineration_plant", "end_date": "2021-03-31", "landuse": "industrial", "name": "Kehrichtheizkraftwerk Josefstrasse", "operator": "Fernw\u00e4rme Z\u00fcrich AG", "owner": "ERZ", "start_date": "1904"}}, {"type": "way", "id": 28055306, "center": {"lat": 47.3878522, "lon": 8.516603}, "tags": {"landuse": "industrial"}}, {"type": "way", "id": 28080569, "center": {"lat": 48.8514993, "lon": 8.5494018}, "tags": {"description": "Regenr\u00fcckhaltebecken", "landuse": "industrial"}}, {"type": "way", "id": 28125951, "center": {"lat": 47.5101193, "lon": 7.6132506}, "tags": {"landuse": "industrial"}}, {"type": "way", "id": 28143810, "center": {"lat": 49.1720159, "lon": 8.4037437}, "tags": {"barrier": "fence", "landuse": "industrial", "man_made": "wastewater_plant", "name": "Kl\u00e4rwerk Dettenheim/Graben-Neudorf"}}, {"type": "way", "id": 28177209, "center": {"lat": 48.8635833, "lon": 8.5795847}, "tags": {"landuse": "industrial", "name": "West"}}, {"type": "way", "id": 28177683, "center": {"lat": 49.1496308, "lon": 8.7176629}, "tags": {"landuse": "industrial"}}, {"type": "way", "id": 28193060, "center": {"lat": 47.4182389, "lon": 8.5665048}, "tags": {"addr:city": "Glattpark", "addr:housenumber": "6", "addr:postcode": "8152", "addr:street": "Orion-Strasse", "alt_name": "\u00dcbungsgel\u00e4nde Bildungszentrum Blaulicht", "amenity": "school", "contact:phone": "+41 444 11 23 33", "landuse": "industrial", "name": "H\u00f6here Fachschule f\u00fcr Rettungsberufe", "official_name": "Bildungszentrum Blaulicht", "operator": "Schutz & Rettung Z\u00fcrich", "reg_name": "Ausbildungszentrum Rohwiesen", "short_name": "BZB", "wheelchair": "limited"}}, {"type": "way", "id": 28200573, "center": {"lat": 48.8738423, "lon": 8.6478871}, "tags": {"landuse": "industrial", "name": "Gewerbegebiet Ost"}}, {"type": "way", "id": 28263043, "center": {"lat": 48.0708157, "lon": 8.4667643}, "tags": {"landuse": "industrial", "name": "Gewerbegebiet Vorderer Eckweg"}}, {"type": "way", "id": 28290527, "center": {"lat": 48.9633877, "lon": 8.5953533}, "tags": {"landuse": "industrial", "name": "Allmendwiesen"}}, {"type": "way", "id": 28306715, "center": {"lat": 48.9607303, "lon": 8.6291748}, "tags": {"landuse": "industrial", "name": "Mitteltal"}}, {"type": "way", "id": 28306726, "center": {"lat": 48.9631023, "lon": 8.6065782}, "tags": {"landuse": "industrial"}}, {"type": "way", "id": 28323489, "center": {"lat": 48.9666005, "lon": 8.60271}, "tags": {"landuse": "industrial"}}, {"type": "way", "id": 28333321, "center": {"lat": 48.9602196, "lon": 8.6345203}, "tags": {"landuse": "industrial"}}, {"type": "way", "id": 28336497, "center": {"lat": 48.8482925, "lon": 8.5187154}, "tags": {"landuse": "industrial", "name": "Hasenstock"}}, {"type": "way", "id": 28343542, "center": {"lat": 48.54106, "lon": 7.4354328}, "tags": {"contact:phone": "+33 3 88 49 49 84", "landuse": "industrial", "name": "Voltec Solar", "produce": "Photovoltaic pannels", "ref:FR:NAF": "2611Z", "ref:FR:SIRET": "51870696500010", "website": "https://www.voltec-solar.com/"}}, {"type": "way", "id": 28345342, "center": {"lat": 48.9589723, "lon": 8.5620106}, "tags": {"landuse": "industrial", "name": "Meilwiesen"}}, {"type": "way", "id": 28385209, "center": {"lat": 48.9434866, "lon": 8.6257133}, "tags": {"landuse": "industrial"}}, {"type": "way", "id": 28447219, "center": {"lat": 48.5916555, "lon": 7.8122122}, "tags": {"landuse": "industrial"}}, {"type": "way", "id": 28450772, "center": {"lat": 49.1469018, "lon": 8.6677819}, "tags": {"landuse": "industrial"}}, {"type": "way", "id": 28453108, "center": {"lat": 47.3619599, "lon": 8.5131886}, "tags": {"landuse": "industrial"}}, {"type": "way", "id": 28492335, "center": {"lat": 47.56241, "lon": 8.8981904}, "tags": {"landuse": "industrial"}}, {"type": "way", "id": 28560535, "center": {"lat": 48.9400261, "lon": 8.6769321}, "tags": {"landuse": "industrial", "name": "Gewerbegebiet Mulde"}}, {"type": "way", "id": 28572630, "center": {"lat": 49.1263961, "lon": 8.7130108}, "tags": {"landuse": "industrial"}}, {"type": "way", "id": 28583456, "center": {"lat": 49.1205305, "lon": 8.7247207}, "tags": {"landuse": "industrial"}}, {"type": "way", "id": 28689446, "center": {"lat": 49.2082801, "lon": 7.9310944}, "tags": {"landuse": "industrial", "man_made": "works", "name": "Buchmann Karton HAPA GmbH", "product": "packaging"}}, {"type": "way", "id": 28689913, "center": {"lat": 49.2011537, "lon": 7.8218659}, "tags": {"landuse": "industrial"}}, {"type": "way", "id": 28704611, "center": {"lat": 47.4494129, "lon": 8.2099064}, "tags": {"landuse": "industrial", "name": "AMAG Auslieferung", "operator": "AMAG", "shop": "car"}}, {"type": "way", "id": 28710308, "center": {"lat": 48.0412518, "lon": 8.1697249}, "tags": {"landuse": "industrial", "name": "Ob der Eck"}}, {"type": "way", "id": 28717047, "center": {"lat": 47.5005998, "lon": 8.494739}, "tags": {"addr:city": "Niederglatt", "addr:housenumber": "40", "addr:postcode": "8172", "addr:street": "Brunnenwiesenstrasse", "barrier": "fence", "landuse": "industrial", "man_made": "wastewater_plant", "name": "Abwasserreinigung Fischbach-Glatt", "operator": "ARA Niederglatt"}}, {"type": "way", "id": 28722280, "center": {"lat": 47.7206547, "lon": 8.8920351}, "tags": {"landuse": "industrial", "man_made": "works", "name": "Holzwerke Riedlinger", "product": "lumber"}}, {"type": "way", "id": 28837414, "center": {"lat": 47.5416402, "lon": 7.5081336}, "tags": {"landuse": "industrial"}}, {"type": "way", "id": 28936452, "center": {"lat": 48.4413785, "lon": 7.9332458}, "tags": {"landuse": "industrial", "name": "Industriegebiet Elgersweier", "website": "https://offenburg.de/html/media/dl.html?v=16320"}}, {"type": "way", "id": 28996978, "center": {"lat": 49.0690174, "lon": 8.6589197}, "tags": {"landuse": "industrial", "name": "Altenwingert"}}, {"type": "way", "id": 29117540, "center": {"lat": 47.3708525, "lon": 8.76912}, "tags": {"landuse": "industrial"}}, {"type": "way", "id": 29245156, "center": {"lat": 47.6510617, "lon": 6.8414202}, "tags": {"landuse": "industrial", "name": "Techn'hom 4", "wikipedia": "fr:Techn'hom"}}, {"type": "way", "id": 29245173, "center": {"lat": 47.6518234, "lon": 6.8340561}, "tags": {"landuse": "industrial", "name": "Techn'hom 5", "wikipedia": "fr:Techn'hom"}}, {"type": "way", "id": 29245189, "center": {"lat": 47.6501911, "lon": 6.8379073}, "tags": {"landuse": "industrial", "name": "Techn'hom 4", "wikipedia": "fr:Techn'hom"}}, {"type": "way", "id": 29254386, "center": {"lat": 48.2580825, "lon": 7.4285153}, "tags": {"landuse": "industrial"}}, {"type": "way", "id": 29296514, "center": {"lat": 48.8448772, "lon": 8.5957098}, "tags": {"landuse": "industrial", "name": "Herbstreith & Fox KG"}}, {"type": "way", "id": 29393697, "center": {"lat": 48.8078505, "lon": 8.6401938}, "tags": {"landuse": "industrial", "name": "Br\u00fccken\u00e4cker"}}, {"type": "way", "id": 29495550, "center": {"lat": 49.1876042, "lon": 8.6275193}, "tags": {"landuse": "industrial", "name": "Gewerbegebiet Sand"}}, {"type": "way", "id": 29550178, "center": {"lat": 49.2099049, "lon": 8.1229064}, "tags": {"frequency": "50", "landuse": "industrial", "name": "Landau", "operator": "Pfalzwerke Netz", "operator:wikidata": "Q124370297", "power": "substation", "voltage": "110000"}}, {"type": "way", "id": 29553805, "center": {"lat": 49.2108267, "lon": 8.1307779}, "tags": {"landuse": "industrial"}}, {"type": "way", "id": 29569508, "center": {"lat": 48.6206391, "lon": 8.0873388}, "tags": {"landuse": "industrial", "name": "Ziegelei"}}, {"type": "way", "id": 29987507, "center": {"lat": 47.4058835, "lon": 8.724839}, "tags": {"landuse": "industrial"}}, {"type": "way", "id": 30056371, "center": {"lat": 47.3646734, "lon": 8.7699297}, "tags": {"landuse": "industrial"}}, {"type": "way", "id": 30056768, "center": {"lat": 47.3651407, "lon": 8.7833837}, "tags": {"landuse": "industrial"}}, {"type": "way", "id": 30062255, "center": {"lat": 49.103065, "lon": 8.6397335}, "tags": {"landuse": "industrial", "man_made": "works", "name": "Durst Malz Malzfabrik", "operator": "Durst Malz"}}, {"type": "way", "id": 30062694, "center": {"lat": 49.1050597, "lon": 8.6435044}, "tags": {"landuse": "industrial", "name": "M\u00fchle Wachter", "operator": "M\u00fchle Wachter"}}, {"type": "way", "id": 30194557, "center": {"lat": 48.3367629, "lon": 7.857606}, "tags": {"landuse": "industrial"}}, {"type": "way", "id": 30194562, "center": {"lat": 48.3386925, "lon": 7.861743}, "tags": {"landuse": "industrial", "name": "E-Werk Mittelbaden"}}, {"type": "way", "id": 30443971, "center": {"lat": 47.5762166, "lon": 7.5741363}, "tags": {"landuse": "industrial", "name": "Novartis"}}, {"type": "way", "id": 30656785, "center": {"lat": 48.0476757, "lon": 8.2131488}, "tags": {"landuse": "industrial"}}, {"type": "way", "id": 30682070, "center": {"lat": 48.1824133, "lon": 6.7554142}, "tags": {"landuse": "industrial", "man_made": "works", "name": "Zone d'activit\u00e9s de la Vologne", "source": "cadastre-dgi-fr source : Direction G\u00e9n\u00e9rale des Imp\u00f4ts - Cadastre ; mise \u00e0 jour : 2009"}}, {"type": "way", "id": 30698017, "center": {"lat": 48.4654127, "lon": 8.4301553}, "tags": {"landuse": "industrial"}}, {"type": "way", "id": 30802030, "center": {"lat": 47.6435138, "lon": 6.8455723}, "tags": {"alt_name": "Technop\u00f4le", "landuse": "industrial", "name": "Techn'hom 1", "source": "cadastre-dgi-fr source : Direction G\u00e9n\u00e9rale des Imp\u00f4ts - Cadastre ; mise \u00e0 jour : 2009", "wikipedia": "fr:Techn'hom"}}, {"type": "way", "id": 30823559, "center": {"lat": 48.3267142, "lon": 8.4758598}, "tags": {"addr:city": "Alpirsbach", "addr:country": "DE", "addr:housenumber": "10", "addr:postcode": "72275", "addr:street": "Peterzeller Stra\u00dfe", "addr:suburb": "R\u00f6mlinsdorf", "contact:email": "packaging@robagroup.com", "contact:phone": "+49 7444 949-0", "landuse": "industrial", "source": "http://www.robagroup.com/kontakt/", "website": "http://www.robagroup.com"}}, {"type": "way", "id": 30825537, "center": {"lat": 49.2165397, "lon": 8.5199822}, "tags": {"landuse": "industrial"}}, {"type": "way", "id": 30841428, "center": {"lat": 48.9260017, "lon": 8.2324808}, "tags": {"landuse": "industrial", "man_made": "water_works", "name": "Wasserwerk Rheinwald", "operator": "Stadtwerke Karlsruhe GmbH", "start_date": "1977", "surface": "grass"}}, {"type": "way", "id": 30960775, "center": {"lat": 48.8313395, "lon": 8.5829627}, "tags": {"landuse": "industrial"}}, {"type": "way", "id": 30962127, "center": {"lat": 48.8499901, "lon": 8.605626}, "tags": {"landuse": "industrial", "name": "Untere Reute"}}, {"type": "way", "id": 31020124, "center": {"lat": 47.8420262, "lon": 7.2811344}, "tags": {"landuse": "industrial", "name": "L'Aire de la Thur"}}, {"type": "way", "id": 31047451, "center": {"lat": 48.9597958, "lon": 8.6298115}, "tags": {"landuse": "industrial"}}, {"type": "way", "id": 31050694, "center": {"lat": 48.318765, "lon": 6.0686753}, "tags": {"landuse": "industrial", "name": "A\u00e9rop\u00f4le Sud Lorraine"}}, {"type": "way", "id": 31105258, "center": {"lat": 47.7580033, "lon": 7.3191926}, "tags": {"landuse": "industrial"}}, {"type": "way", "id": 31105259, "center": {"lat": 47.7594277, "lon": 7.3221106}, "tags": {"landuse": "industrial"}}, {"type": "way", "id": 31220746, "center": {"lat": 49.134006, "lon": 8.7738449}, "tags": {"landuse": "industrial"}}, {"type": "way", "id": 31304474, "center": {"lat": 48.1236304, "lon": 8.534861}, "tags": {"landuse": "industrial"}}, {"type": "way", "id": 31305339, "center": {"lat": 49.1485349, "lon": 8.8118635}, "tags": {"landuse": "industrial"}}, {"type": "way", "id": 31307063, "center": {"lat": 49.0923927, "lon": 7.9676593}, "tags": {"landuse": "industrial"}}, {"type": "way", "id": 31548528, "center": {"lat": 48.6557789, "lon": 7.7973376}, "tags": {"landuse": "industrial"}}, {"type": "way", "id": 31662120, "center": {"lat": 48.6735464, "lon": 7.7901172}, "tags": {"landuse": "industrial"}}, {"type": "way", "id": 31681753, "center": {"lat": 49.1341601, "lon": 8.775806}, "tags": {"landuse": "industrial", "name": "AVG"}}, {"type": "way", "id": 31692357, "center": {"lat": 48.8386025, "lon": 8.5549629}, "tags": {"barrier": "fence", "landuse": "industrial", "name": "Umspannwerk Schwann", "operator": "Netze BW", "operator:wikidata": "Q16854888", "operator:wikipedia": "de:Netze BW", "power": "substation", "substation": "transmission", "voltage": "110000"}}, {"type": "way", "id": 31692427, "center": {"lat": 48.8833008, "lon": 8.848504}, "tags": {"barrier": "fence", "fence_type": "chain_link", "landuse": "industrial"}}, {"type": "way", "id": 31783026, "center": {"lat": 47.4930109, "lon": 8.2760717}, "tags": {"landuse": "industrial"}}, {"type": "way", "id": 31857985, "center": {"lat": 47.7495224, "lon": 7.3142323}, "tags": {"landuse": "industrial", "name": "D.M.C."}}, {"type": "way", "id": 31887675, "center": {"lat": 48.3147314, "lon": 8.3797996}, "tags": {"landuse": "industrial", "name": "Duravit"}}, {"type": "way", "id": 31889261, "center": {"lat": 48.3408106, "lon": 8.3959779}, "tags": {"industrial": "brewery", "landuse": "industrial", "name": "Alpirsbacher Klosterbr\u00e4u (Abf\u00fcllbetrieb)", "website": "https://www.alpirsbacher.de/"}}, {"type": "way", "id": 31971676, "center": {"lat": 49.2084689, "lon": 8.1374924}, "tags": {"landuse": "industrial", "name": "Im Horst"}}, {"type": "way", "id": 32035286, "center": {"lat": 48.5502168, "lon": 7.9724758}, "tags": {"landuse": "industrial", "name": "Urloffen"}}, {"type": "way", "id": 32060522, "center": {"lat": 47.3123491, "lon": 7.8777576}, "tags": {"addr:city": "Boningen", "addr:country": "CH", "addr:housenumber": "264", "addr:postcode": "4618", "addr:street": "Aarburgerstrasse", "frequency": "50", "landuse": "industrial", "name": "Flusskraftwerk Ruppoldingen", "operator": "Alpiq", "plant:method": "run-of-the-river", "plant:output:electricity": "23 MW", "plant:source": "hydro", "power": "plant", "ref": "208100", "wikidata": "Q20012527", "wikipedia": "de:Kraftwerk Ruppoldingen"}}, {"type": "way", "id": 32116947, "center": {"lat": 47.6332446, "lon": 8.5800689}, "tags": {"landuse": "industrial"}}, {"type": "way", "id": 32121883, "center": {"lat": 49.1036713, "lon": 8.81444}, "tags": {"landuse": "industrial"}}, {"type": "way", "id": 32121886, "center": {"lat": 49.1090795, "lon": 8.8210819}, "tags": {"landuse": "industrial"}}, {"type": "way", "id": 32130803, "center": {"lat": 47.885994, "lon": 7.7232161}, "tags": {"landuse": "industrial", "name": "IKA-Werke GmbH & Co. KG"}}, {"type": "way", "id": 32132796, "center": {"lat": 48.346223, "lon": 8.4080562}, "tags": {"landuse": "industrial"}}, {"type": "way", "id": 32149718, "center": {"lat": 48.1698192, "lon": 7.7663472}, "tags": {"landuse": "industrial"}}, {"type": "way", "id": 32150099, "center": {"lat": 48.145308, "lon": 7.75814}, "tags": {"landuse": "industrial", "name": "Gewerbegebiet"}}, {"type": "way", "id": 32151621, "center": {"lat": 48.8463088, "lon": 8.2488906}, "tags": {"frequency": "50", "landuse": "industrial", "name": "220-kV-Umspannwerk Kuppenheim", "operator": "Netze BW", "operator:wikidata": "Q16854888", "operator:wikipedia": "de:Netze BW", "power": "substation", "substation": "transmission", "voltage": "220000;110000"}}, {"type": "way", "id": 32399179, "center": {"lat": 47.7402929, "lon": 7.3284411}, "tags": {"landuse": "industrial"}}, {"type": "way", "id": 32495786, "center": {"lat": 48.1481749, "lon": 7.6932354}, "tags": {"landuse": "industrial"}}, {"type": "way", "id": 32646542, "center": {"lat": 48.1321009, "lon": 7.81172}, "tags": {"landuse": "industrial"}}, {"type": "way", "id": 32672599, "center": {"lat": 47.4142155, "lon": 8.6352477}, "tags": {"addr:city": "Wangen-Br\u00fcttisellen", "addr:housenumber": "4", "addr:postcode": "8602", "addr:street": "F\u00f6rliwiesenstrasse", "landuse": "industrial", "name": "Z\u00fcrcher Blumenmarkt", "source": "Yahoo"}}, {"type": "way", "id": 32673573, "center": {"lat": 48.0545627, "lon": 7.7348551}, "tags": {"landuse": "industrial"}}, {"type": "way", "id": 32673991, "center": {"lat": 48.2585575, "lon": 8.4850978}, "tags": {"landuse": "industrial"}}, {"type": "way", "id": 32725957, "center": {"lat": 48.9860836, "lon": 8.4454459}, "tags": {"barrier": "fence", "frequency": "50", "landuse": "industrial", "name": "Umspannwerk Oberwald", "operator": "TransnetBW;Netze BW", "operator:wikidata": "Q1672772;Q16854888", "operator:wikipedia": "de:TransnetBW;de:Netze BW", "power": "substation", "substation": "transmission", "voltage": "220000;110000", "wikidata": "Q52785521", "wikimedia_commons": "Category:Umspannwerk Oberwald"}}, {"type": "way", "id": 32790675, "center": {"lat": 48.32869, "lon": 8.461102}, "tags": {"landuse": "industrial"}}, {"type": "way", "id": 32790676, "center": {"lat": 48.3302782, "lon": 8.4643591}, "tags": {"landuse": "industrial"}}, {"type": "way", "id": 32846977, "center": {"lat": 47.3900735, "lon": 6.3789246}, "tags": {"landuse": "industrial", "name": "ZAC Europolys", "source": "cadastre-dgi-fr source : Direction G\u00e9n\u00e9rale des Imp\u00f4ts - Cadastre. Mise \u00e0 jour : 2009"}}, {"type": "way", "id": 32847354, "center": {"lat": 47.3464937, "lon": 6.3486934}, "tags": {"CLC:code": "231", "CLC:id": "FR-91741", "CLC:year": "2006", "landuse": "industrial", "name": "Zone industrielle de la Prairie", "source": "survey"}}, {"type": "way", "id": 32852042, "center": {"lat": 48.9409378, "lon": 8.8511538}, "tags": {"barrier": "fence", "landuse": "industrial", "name": "SWR Sender M\u00fchlacker", "operator": "S\u00fcdwestrundfunk", "wikidata": "Q883860", "wikipedia": "de:Sender M\u00fchlacker"}}, {"type": "way", "id": 32961264, "center": {"lat": 47.3770117, "lon": 8.6805248}, "tags": {"landuse": "industrial"}}, {"type": "way", "id": 32961674, "center": {"lat": 47.3755525, "lon": 8.6905825}, "tags": {"landuse": "industrial"}}, {"type": "way", "id": 33040707, "center": {"lat": 48.4302953, "lon": 7.7629879}, "tags": {"landuse": "industrial", "name": "Kieswerk Rhein Main Kies (RMKS)", "website": "http://www.rmks.de/kieswerk_meissenheim.htm"}}, {"type": "way", "id": 33043018, "center": {"lat": 47.6902233, "lon": 8.596992}, "tags": {"landuse": "industrial", "name": "KBA Hard", "opening_hours": "Mo-Fr 07:15-11:45,13:15-16:45; Sa 09:00-12:00"}}, {"type": "way", "id": 33044389, "center": {"lat": 47.6937974, "lon": 8.5707216}, "tags": {"landuse": "industrial", "name": "Industriegebiet Beringen (Zone A)"}}, {"type": "way", "id": 33054391, "center": {"lat": 48.756618, "lon": 8.5526672}, "tags": {"landuse": "industrial"}}, {"type": "way", "id": 33054392, "center": {"lat": 48.7589183, "lon": 8.5527597}, "tags": {"landuse": "industrial"}}, {"type": "way", "id": 33054393, "center": {"lat": 48.7608465, "lon": 8.552749}, "tags": {"landuse": "industrial", "name": "Dessauer Stra\u00dfe"}}, {"type": "way", "id": 33056236, "center": {"lat": 49.1431867, "lon": 8.5933849}, "tags": {"landuse": "industrial"}}, {"type": "way", "id": 33073516, "center": {"lat": 49.1841172, "lon": 8.6107723}, "tags": {"barrier": "fence", "landuse": "industrial"}}, {"type": "way", "id": 33073973, "center": {"lat": 48.6763471, "lon": 8.882819}, "tags": {"landuse": "industrial"}}, {"type": "way", "id": 33120576, "center": {"lat": 48.7744814, "lon": 8.8264798}, "tags": {"landuse": "industrial", "name": "Gewerbegebiet Merklinger Stra\u00dfe"}}, {"type": "way", "id": 33129920, "center": {"lat": 49.069235, "lon": 8.7980144}, "tags": {"landuse": "industrial", "name": "B.PRO Werk III"}}, {"type": "way", "id": 33129927, "center": {"lat": 49.0659714, "lon": 8.8013534}, "tags": {"landuse": "industrial", "name": "Blanco"}}, {"type": "way", "id": 33168248, "center": {"lat": 47.4903024, "lon": 8.2631647}, "tags": {"landuse": "industrial"}}, {"type": "way", "id": 33173703, "center": {"lat": 48.7927171, "lon": 8.8400223}, "tags": {"landuse": "industrial", "name": "Gewerbegebiet Neuwiesen"}}, {"type": "way", "id": 33173746, "center": {"lat": 48.786393, "lon": 8.8390297}, "tags": {"landuse": "industrial", "name": "Gewerbegebiet Brunnenstra\u00dfe"}}, {"type": "way", "id": 33289849, "center": {"lat": 48.7970433, "lon": 8.8326176}, "tags": {"landuse": "industrial", "man_made": "wastewater_plant", "name": "Kl\u00e4ranlage Hausen", "operator": "Zweckverband Mittleres W\u00fcrmtal"}}, {"type": "way", "id": 33425294, "center": {"lat": 48.4143029, "lon": 7.8867446}, "tags": {"landuse": "industrial"}}, {"type": "way", "id": 33532473, "center": {"lat": 48.0964786, "lon": 8.5542045}, "tags": {"landuse": "industrial", "name": "Auf Firsten"}}, {"type": "way", "id": 33577601, "center": {"lat": 49.1485255, "lon": 8.2967973}, "tags": {"amenity": "recycling", "landuse": "industrial", "name": "SITA S\u00fcd GmbH", "opening_hours": "Mo-Fr 08:00-12:00,12:45-16:15; Sa 08:00-12:45; Su,PH off", "recycling_type": "centre"}}, {"type": "way", "id": 33618729, "center": {"lat": 48.9250663, "lon": 8.565892}, "tags": {"landuse": "industrial"}}, {"type": "way", "id": 33632278, "center": {"lat": 49.0129187, "lon": 8.6136795}, "tags": {"landuse": "industrial", "name": "Bitscheng\u00e4ssle"}}, {"type": "way", "id": 33642003, "center": {"lat": 49.0716889, "lon": 8.514224}, "tags": {"addr:city": "Weingarten", "addr:country": "DE", "addr:housenumber": "1", "addr:postcode": "76356", "addr:street": "Am Kl\u00e4rwerk", "alt_name": "Kl\u00e4rwerk Weingarten", "landuse": "industrial", "man_made": "wastewater_plant", "name": "Verbandskl\u00e4ranlage der Gemeinden Walzbachtal und Weingarten", "operator": "Abwasserverband am Walzbach", "source": "bing", "start_date": "1975"}}, {"type": "way", "id": 33646167, "center": {"lat": 48.9996081, "lon": 8.2165466}, "tags": {"landuse": "industrial", "name": "Kalksandsteinwerk Bienwald Schencking GmbH & Co. KG"}}, {"type": "way", "id": 33793533, "center": {"lat": 48.786861, "lon": 8.8321906}, "tags": {"landuse": "industrial", "name": "Lindenberg"}}, {"type": "way", "id": 33844422, "center": {"lat": 48.8027745, "lon": 8.1659676}, "tags": {"landuse": "industrial", "name": "Grundwasserwerk Baden-Baden"}}, {"type": "way", "id": 33853732, "center": {"lat": 47.4262636, "lon": 8.6204812}, "tags": {"landuse": "industrial"}}, {"type": "way", "id": 33871012, "center": {"lat": 48.9516003, "lon": 8.5779175}, "tags": {"landuse": "industrial"}}, {"type": "way", "id": 33877247, "center": {"lat": 48.0478412, "lon": 8.5230772}, "tags": {"landuse": "industrial", "name": "Umspannwerk Moos", "operator": "EnBW", "power": "substation", "ref": "MODSX", "source": "Bing", "source:ref": "aus Leitungsbezeichnung geraten", "voltage": "110000"}}, {"type": "way", "id": 33894595, "center": {"lat": 48.7392405, "lon": 7.9906261}, "tags": {"landuse": "industrial", "man_made": "wastewater_plant", "name": "Kl\u00e4ranlage Lichtenau"}}, {"type": "way", "id": 34083659, "center": {"lat": 48.0058954, "lon": 8.2612259}, "tags": {"craft": "sawmill", "landuse": "industrial", "name": "S\u00e4gewerk Stefan Willmann"}}, {"type": "way", "id": 34119914, "center": {"lat": 48.2766872, "lon": 7.7934332}, "tags": {"landuse": "industrial"}}, {"type": "way", "id": 34149308, "center": {"lat": 48.1123347, "lon": 7.852142}, "tags": {"landuse": "industrial"}}, {"type": "way", "id": 34237234, "center": {"lat": 48.8248598, "lon": 8.8711556}, "tags": {"landuse": "industrial", "name": "Egelsee"}}, {"type": "way", "id": 34237374, "center": {"lat": 48.8220419, "lon": 8.8112284}, "tags": {"landuse": "industrial", "name": "Gewerbegebiet Tiefenbronn", "postal_code": "75233"}}, {"type": "way", "id": 34285258, "center": {"lat": 48.7269364, "lon": 8.0559693}, "tags": {"barrier": "fence", "industrial": "gas", "landuse": "industrial", "name": "TENP Verdichterstation Schwarzach", "operator": "TENP Trans Europa Naturgas Pipeline GmbH & Co. KG", "pipeline": "substation", "substance": "gas", "substation": "compression"}}, {"type": "way", "id": 34291846, "center": {"lat": 48.756291, "lon": 8.0096902}, "tags": {"landuse": "industrial"}}, {"type": "way", "id": 34306714, "center": {"lat": 48.7742394, "lon": 8.5888485}, "tags": {"landuse": "industrial"}}, {"type": "way", "id": 34371473, "center": {"lat": 48.1404525, "lon": 7.6118191}, "tags": {"amenity": "recycling", "landuse": "industrial", "recycling:clothes": "yes", "recycling:glass": "no", "recycling:paper": "yes", "recycling:scrap_metal": "yes", "recycling_type": "centre"}}, {"type": "way", "id": 34392266, "center": {"lat": 47.8947941, "lon": 8.3590186}, "tags": {"landuse": "industrial", "man_made": "wastewater_plant", "name": "Kl\u00e4ranlage Dittishausen"}}, {"type": "way", "id": 34717923, "center": {"lat": 49.2176057, "lon": 6.2070641}, "tags": {"landuse": "industrial", "name": "Zone industrielle des Jonqui\u00e8res", "source": "cadastre-dgi-fr source : Direction G\u00e9n\u00e9rale des Imp\u00f4ts - Cadastre. Mise \u00e0 jour : 2009"}}, {"type": "way", "id": 34826517, "center": {"lat": 47.4387826, "lon": 8.686495}, "tags": {"landuse": "industrial"}}, {"type": "way", "id": 34867209, "center": {"lat": 47.3532165, "lon": 6.3387661}, "tags": {"landuse": "industrial", "name": "Zone industrielle de Bois Carr\u00e9"}}, {"type": "way", "id": 34868830, "center": {"lat": 47.348676, "lon": 6.3687724}, "tags": {"landuse": "industrial", "name": "Zone industrielle de Necchie", "source": "cadastre-dgi-fr source : Direction G\u00e9n\u00e9rale des Imp\u00f4ts - Cadastre. Mise \u00e0 jour : 2009"}}, {"type": "way", "id": 34883362, "center": {"lat": 48.3272372, "lon": 8.8931084}, "tags": {"landuse": "industrial"}}, {"type": "way", "id": 34914070, "center": {"lat": 47.3543143, "lon": 8.3403208}, "tags": {"industrial": "factory", "landuse": "industrial", "man_made": "works", "name": "Utz Gruppe", "operator": "Georg Utz Holding AG", "wikidata": "Q2503701", "wikipedia": "de:Utz Gruppe"}}, {"type": "way", "id": 34967329, "center": {"lat": 48.1664406, "lon": 8.8561009}, "tags": {"landuse": "industrial"}}, {"type": "way", "id": 34989915, "center": {"lat": 48.6577886, "lon": 8.028042}, "tags": {"landuse": "industrial"}}, {"type": "way", "id": 34992856, "center": {"lat": 48.5375456, "lon": 7.9672162}, "tags": {"landuse": "industrial"}}, {"type": "way", "id": 35004938, "center": {"lat": 47.881314, "lon": 7.6437599}, "tags": {"landuse": "industrial"}}, {"type": "way", "id": 35015582, "center": {"lat": 47.5840884, "lon": 7.5170522}, "tags": {"landuse": "industrial", "name": "Zone Industrielle de H\u00e9singue", "source": "Bing"}}, {"type": "way", "id": 35079841, "center": {"lat": 47.9774705, "lon": 8.818566}, "tags": {"landuse": "industrial", "man_made": "works", "name": "Chiron Werke"}}, {"type": "way", "id": 35145528, "center": {"lat": 49.2045468, "lon": 7.0371253}, "tags": {"landuse": "industrial"}}, {"type": "way", "id": 35271685, "center": {"lat": 49.0500431, "lon": 6.5808915}, "tags": {"landuse": "industrial", "source": "cadastre-dgi-fr source : Direction G\u00e9n\u00e9rale des Imp\u00f4ts - Cadastre ; mise \u00e0 jour : 2008"}}, {"type": "way", "id": 35314323, "center": {"lat": 49.0523229, "lon": 6.6136078}, "tags": {"landuse": "industrial", "source": "cadastre-dgi-fr source : Direction G\u00e9n\u00e9rale des Imp\u00f4ts - Cadastre ; mise \u00e0 jour : 2008"}}, {"type": "way", "id": 35383396, "center": {"lat": 47.8539468, "lon": 8.3678851}, "tags": {"barrier": "fence", "landuse": "industrial", "man_made": "wastewater_plant", "name": "Kl\u00e4ranlage"}}, {"type": "way", "id": 35412468, "center": {"lat": 49.1297422, "lon": 8.5728058}, "tags": {"landuse": "industrial", "man_made": "works", "name": "SEW Gro\u00dfgetriebewerk", "operator": "SEW-EURODRIVE GmbH & Co KG", "product": "gear_units", "start_date": "2010-10"}}, {"type": "way", "id": 35415023, "center": {"lat": 49.1280417, "lon": 8.5894161}, "tags": {"landuse": "industrial", "name": "TRIWO Technopark Bruchsal", "operator:short": "TRIWO"}}, {"type": "way", "id": 35444460, "center": {"lat": 48.060058, "lon": 8.4825844}, "tags": {"landuse": "industrial", "name": "Gewerbegebiet Auf der Steig"}}, {"type": "way", "id": 35477470, "center": {"lat": 48.368945, "lon": 7.8914455}, "tags": {"landuse": "industrial"}}, {"type": "way", "id": 35546191, "center": {"lat": 47.7661428, "lon": 7.3255956}, "tags": {"landuse": "industrial", "source": "Bing"}}, {"type": "way", "id": 35569488, "center": {"lat": 48.7273262, "lon": 8.7814438}, "tags": {"landuse": "industrial"}}, {"type": "way", "id": 35584852, "center": {"lat": 49.1684545, "lon": 8.617707}, "tags": {"landuse": "industrial", "name": "Kieswerk Reimold", "operator": "Klaus Reimold GmbH Gemmingen"}}, {"type": "way", "id": 35585636, "center": {"lat": 48.2949692, "lon": 8.8083166}, "tags": {"landuse": "industrial", "name": "Ob dem Weiherle"}}, {"type": "way", "id": 35769354, "center": {"lat": 49.1248351, "lon": 7.3805001}, "tags": {"landuse": "industrial"}}, {"type": "way", "id": 35814754, "center": {"lat": 49.1317853, "lon": 8.5166162}, "tags": {"landuse": "industrial"}}, {"type": "way", "id": 35815233, "center": {"lat": 49.1467117, "lon": 8.5515864}, "tags": {"landuse": "industrial", "name": "Ochsenstall"}}, {"type": "way", "id": 35815272, "center": {"lat": 47.6408514, "lon": 7.7319362}, "tags": {"landuse": "industrial"}}, {"type": "way", "id": 35842722, "center": {"lat": 49.122497, "lon": 8.5777531}, "tags": {"landuse": "industrial"}}, {"type": "way", "id": 35852020, "center": {"lat": 49.1170672, "lon": 8.5811582}, "tags": {"landuse": "industrial"}}, {"type": "way", "id": 35876145, "center": {"lat": 49.0392596, "lon": 8.5827398}, "tags": {"landuse": "industrial", "name": "Gewerbegebiet Grund"}}, {"type": "way", "id": 35917058, "center": {"lat": 47.7604415, "lon": 7.3058334}, "tags": {"landuse": "industrial", "name": "Zone d'activit\u00e9s de la Doller", "source": "Bing"}}, {"type": "way", "id": 35979941, "center": {"lat": 49.1914719, "lon": 7.6740685}, "tags": {"addr:city": "Ruppertsweiler", "addr:country": "DE", "addr:housenumber": "101", "addr:postcode": "66957", "addr:street": "Lemberger Stra\u00dfe", "landuse": "industrial", "layer": "1", "name": "R\u00f6chling Hydroma GmbH"}}, {"type": "way", "id": 35996764, "center": {"lat": 48.7865011, "lon": 8.0781003}, "tags": {"barrier": "fence", "landuse": "industrial", "man_made": "wastewater_plant", "name": "Kl\u00e4ranlage Baden-Airpark"}}, {"type": "way", "id": 36006352, "center": {"lat": 47.3173582, "lon": 8.5213132}, "tags": {"landuse": "industrial", "layer": "-1"}}, {"type": "way", "id": 36058290, "center": {"lat": 49.212632, "lon": 7.6856894}, "tags": {"landuse": "industrial"}}, {"type": "way", "id": 36573330, "center": {"lat": 47.3184535, "lon": 8.5283998}, "tags": {"landuse": "industrial"}}, {"type": "way", "id": 36709983, "center": {"lat": 48.7148274, "lon": 7.9945495}, "tags": {"landuse": "industrial"}}, {"type": "way", "id": 36784965, "center": {"lat": 48.4205019, "lon": 8.6385372}, "tags": {"landuse": "industrial", "man_made": "wastewater_plant", "name": "Kl\u00e4ranlage Horb-Dettingen"}}, {"type": "way", "id": 36791525, "center": {"lat": 47.367288, "lon": 8.3648353}, "tags": {"landuse": "industrial", "name": "Sika, Alliance"}}, {"type": "way", "id": 36823218, "center": {"lat": 47.9714453, "lon": 7.8247387}, "tags": {"landuse": "industrial"}}, {"type": "way", "id": 36873096, "center": {"lat": 49.0167554, "lon": 8.6142431}, "tags": {"industrial": "cement", "landuse": "industrial", "name": "Zementwerk W\u00f6ssingen", "operator": "OPTERRA W\u00f6ssingen GmbH"}}, {"type": "way", "id": 36937094, "center": {"lat": 48.2994172, "lon": 8.5896222}, "tags": {"landuse": "industrial", "name": "Bippus GmbH"}}, {"type": "way", "id": 36937100, "center": {"lat": 48.3000562, "lon": 8.5901376}, "tags": {"landuse": "industrial", "name": "Industriegebiet Boll"}}, {"type": "way", "id": 36937105, "center": {"lat": 48.2994883, "lon": 8.6286663}, "tags": {"landuse": "industrial", "name": "Vogelloch"}}, {"type": "way", "id": 36937106, "center": {"lat": 48.2962378, "lon": 8.6297816}, "tags": {"landuse": "industrial", "name": "Rank\u00e4cker"}}, {"type": "way", "id": 36940163, "center": {"lat": 49.1218461, "lon": 8.5421314}, "tags": {"barrier": "fence", "landuse": "industrial", "man_made": "water_works", "name": "Wasserwerk Bruchsal", "operator": "Stadtwerke Bruchsal"}}, {"type": "way", "id": 36951191, "center": {"lat": 49.1345763, "lon": 8.9161233}, "tags": {"landuse": "industrial", "name": "Dieffenbacher", "source": "survey"}}, {"type": "way", "id": 36951217, "center": {"lat": 49.1359355, "lon": 8.928958}, "tags": {"landuse": "industrial", "name": "Oststadt", "source": "survey"}}, {"type": "way", "id": 36956006, "center": {"lat": 49.2090775, "lon": 8.6310706}, "tags": {"landuse": "industrial", "name": "Kieswerk Reimold"}}, {"type": "way", "id": 36962330, "center": {"lat": 48.3119821, "lon": 8.5710368}, "tags": {"landuse": "industrial", "name": "Industriegebiet Wehrstra\u00dfe"}}, {"type": "way", "id": 36999799, "center": {"lat": 48.7543451, "lon": 8.0014016}, "tags": {"landuse": "industrial", "name": "Acher Sch\u00f6pfwerk"}}, {"type": "way", "id": 37043633, "center": {"lat": 48.2061504, "lon": 7.680422}, "tags": {"landuse": "industrial", "man_made": "wastewater_plant", "name": "Kl\u00e4ranlage Weisweil"}}, {"type": "way", "id": 37200979, "center": {"lat": 48.1457476, "lon": 7.9199429}, "tags": {"landuse": "industrial"}}, {"type": "way", "id": 37202087, "center": {"lat": 48.4469065, "lon": 8.7424889}, "tags": {"landuse": "industrial"}}, {"type": "way", "id": 37248061, "center": {"lat": 47.7539104, "lon": 7.286065}, "tags": {"landuse": "industrial", "source": "cadastre-dgi-fr source : Direction G\u00e9n\u00e9rale des Imp\u00f4ts - Cadastre. Mise \u00e0 jour : 2009 ; Bing"}}, {"type": "way", "id": 37248065, "center": {"lat": 47.756143, "lon": 7.2857774}, "tags": {"landuse": "industrial", "source": "cadastre-dgi-fr source : Direction G\u00e9n\u00e9rale des Imp\u00f4ts - Cadastre. Mise \u00e0 jour : 2009;Bing"}}, {"type": "way", "id": 37248067, "center": {"lat": 47.7577224, "lon": 7.2834485}, "tags": {"landuse": "industrial", "source": "cadastre-dgi-fr source : Direction G\u00e9n\u00e9rale des Imp\u00f4ts - Cadastre. Mise \u00e0 jour : 2009"}}, {"type": "way", "id": 37308721, "center": {"lat": 48.886431, "lon": 8.3667445}, "tags": {"barrier": "fence", "landuse": "industrial"}}, {"type": "way", "id": 37373464, "center": {"lat": 47.3978737, "lon": 8.4909065}, "tags": {"addr:city": "Z\u00fcrich", "addr:housenumber": "16", "addr:postcode": "8064", "addr:street": "T\u00fcffenwies", "email": "sika@sika.ch", "landuse": "industrial", "man_made": "works", "name": "Sika Schweiz", "operator": "Sika Schweiz AG", "phone": "+41 58 436 40 40", "website": "https://che.sika.com/"}}, {"type": "way", "id": 37432185, "center": {"lat": 48.0256388, "lon": 7.7948981}, "tags": {"landuse": "industrial", "name": "Lehen-Ziegelei"}}, {"type": "way", "id": 37570209, "center": {"lat": 48.7837505, "lon": 8.1011458}, "tags": {"landuse": "industrial", "name": "MBW AG Metallveredelung", "url": "http://www.mbw-galvanik.de/"}}, {"type": "way", "id": 37592848, "center": {"lat": 47.9700371, "lon": 8.0298383}, "tags": {"addr:city": "Buchenbach", "addr:housenumber": "9", "addr:postcode": "79256", "addr:street": "Talstra\u00dfe", "craft": "sawmill", "industrial": "timber", "landuse": "industrial", "name": "Dold Holzwerke", "operator": "DOLD Holzwerke GmbH", "website": "https://dold-holzwerke.com/"}}, {"type": "way", "id": 37608902, "center": {"lat": 47.7593439, "lon": 7.271792}, "tags": {"landuse": "industrial", "source": "cadastre-dgi-fr source : Direction G\u00e9n\u00e9rale des Imp\u00f4ts - Cadastre. Mise \u00e0 jour : 2009"}}, {"type": "way", "id": 37612657, "center": {"lat": 48.8851297, "lon": 8.2652891}, "tags": {"industrial": "factory", "landuse": "industrial", "name": "Hauraton"}}, {"type": "way", "id": 37666962, "center": {"lat": 47.4377856, "lon": 8.6812715}, "tags": {"landuse": "industrial"}}, {"type": "way", "id": 37718113, "center": {"lat": 47.3939186, "lon": 8.0328589}, "tags": {"landuse": "industrial", "name": "Alter Werkhof Eniwa", "website": "https://www.eniwa.ch/"}}, {"type": "way", "id": 37773345, "center": {"lat": 47.2736067, "lon": 8.4401657}, "tags": {"landuse": "industrial"}}, {"type": "way", "id": 37775427, "center": {"lat": 49.1383449, "lon": 8.9219641}, "tags": {"landuse": "industrial", "name": "Oststadt"}}, {"type": "way", "id": 37795324, "center": {"lat": 47.7736435, "lon": 7.3448359}, "tags": {"landuse": "industrial", "name": "Centre Technique Municipal", "source": "cadastre-dgi-fr source : Direction G\u00e9n\u00e9rale des Imp\u00f4ts - Cadastre. Mise \u00e0 jour : 2009"}}, {"type": "way", "id": 37810661, "center": {"lat": 48.8385528, "lon": 8.8671831}, "tags": {"landuse": "industrial", "name": "Gewerbegebiet Heckeng\u00e4u"}}, {"type": "way", "id": 37811447, "center": {"lat": 48.846018, "lon": 8.8556859}, "tags": {"landuse": "industrial", "name": "Mertzmix GmbH & Co."}}, {"type": "way", "id": 37879721, "center": {"lat": 47.4450933, "lon": 6.8352091}, "tags": {"access": "private", "landuse": "industrial", "name": "Peugeot Motocycles", "source": "cadastre-dgi-fr source : Direction G\u00e9n\u00e9rale des Imp\u00f4ts - Cadastre. Mise \u00e0 jour : 2009"}}, {"type": "way", "id": 37910186, "center": {"lat": 47.4485584, "lon": 6.8345852}, "tags": {"access": "private", "landuse": "industrial", "name": "Fuji Autotech", "source": "cadastre-dgi-fr source : Direction G\u00e9n\u00e9rale des Imp\u00f4ts - Cadastre. Mise \u00e0 jour : 2009"}}, {"type": "way", "id": 37910190, "center": {"lat": 47.4536962, "lon": 6.8081546}, "tags": {"industrial": "factory", "landuse": "industrial", "product": "paper", "source": "cadastre-dgi-fr source : Direction G\u00e9n\u00e9rale des Imp\u00f4ts - Cadastre. Mise \u00e0 jour : 2009"}}, {"type": "way", "id": 38023703, "center": {"lat": 48.220705, "lon": 8.5020538}, "tags": {"landuse": "industrial"}}, {"type": "way", "id": 38033540, "center": {"lat": 47.3363588, "lon": 8.4670841}, "tags": {"landuse": "industrial", "name": "Leimatten", "place": "quarter"}}, {"type": "way", "id": 38221708, "center": {"lat": 49.0956304, "lon": 8.4191741}, "tags": {"industrial": "depot", "landuse": "industrial"}}, {"type": "way", "id": 38221710, "center": {"lat": 49.0962543, "lon": 8.4174329}, "tags": {"landuse": "industrial", "name": "Kerntechnische Hilfsdienst GmbH", "short_name": "KHG", "website": "http://www.khgmbh.de", "wikidata": "Q1739549", "wikipedia": "de:Kerntechnischer Hilfsdienst"}}, {"type": "way", "id": 38303907, "center": {"lat": 48.8550211, "lon": 8.3022245}, "tags": {"landuse": "industrial", "name": "Deponiegaskraftwerk Oberweier"}}, {"type": "way", "id": 38319380, "center": {"lat": 49.2106022, "lon": 7.1138179}, "tags": {"landuse": "industrial", "name": "Zum Gerlen"}}, {"type": "way", "id": 38363702, "center": {"lat": 48.4953678, "lon": 7.4812657}, "tags": {"landuse": "industrial", "name": "Zone d'Activit\u00e9s du Rappenhofen"}}, {"type": "way", "id": 38377703, "center": {"lat": 48.4934192, "lon": 7.4987288}, "tags": {"landuse": "industrial", "name": "Parc d'Activit\u00e9s Europe 2000", "source": "cadastre-dgi-fr source : Direction G\u00e9n\u00e9rale des Imp\u00f4ts - Cadastre ; mise \u00e0 jour : 2009"}}, {"type": "way", "id": 38446164, "center": {"lat": 48.0510791, "lon": 8.3032881}, "tags": {"landuse": "industrial"}}, {"type": "way", "id": 38450635, "center": {"lat": 48.4829664, "lon": 7.5014513}, "tags": {"landuse": "industrial", "name": "Parc d'Activit\u00e9s du Stade", "source": "cadastre-dgi-fr source : Direction G\u00e9n\u00e9rale des Imp\u00f4ts - Cadastre ; mise \u00e0 jour : 2009"}}, {"type": "way", "id": 38482742, "center": {"lat": 48.4844814, "lon": 7.5133515}, "tags": {"landuse": "industrial", "name": "Parc d'Activit\u00e9s des Acacias", "source": "cadastre-dgi-fr source : Direction G\u00e9n\u00e9rale des Imp\u00f4ts - Cadastre ; mise \u00e0 jour : 2009"}}, {"type": "way", "id": 38621673, "center": {"lat": 47.462657, "lon": 8.4626313}, "tags": {"landuse": "industrial"}}, {"type": "way", "id": 38628579, "center": {"lat": 48.1337821, "lon": 8.7064127}, "tags": {"landuse": "industrial"}}, {"type": "way", "id": 38628580, "center": {"lat": 48.1226195, "lon": 8.7030017}, "tags": {"landuse": "industrial"}}, {"type": "way", "id": 38658846, "center": {"lat": 47.8870115, "lon": 8.3560215}, "tags": {"landuse": "industrial", "name": "An der B 31"}}, {"type": "way", "id": 38695494, "center": {"lat": 48.9662563, "lon": 8.2855269}, "tags": {"landuse": "industrial"}}, {"type": "way", "id": 38708930, "center": {"lat": 48.3403129, "lon": 7.8880585}, "tags": {"landuse": "industrial"}}, {"type": "way", "id": 38758073, "center": {"lat": 47.3016751, "lon": 8.4442449}, "tags": {"landuse": "industrial"}}, {"type": "way", "id": 38786651, "center": {"lat": 48.3369551, "lon": 7.9054849}, "tags": {"landuse": "industrial"}}, {"type": "way", "id": 38787536, "center": {"lat": 48.3021588, "lon": 7.9383931}, "tags": {"landuse": "industrial"}}, {"type": "way", "id": 38811488, "center": {"lat": 47.4017678, "lon": 8.4277861}, "tags": {"landuse": "industrial"}}, {"type": "way", "id": 38889297, "center": {"lat": 48.338965, "lon": 7.8876368}, "tags": {"landuse": "industrial", "name": "Feuerstein GmbH"}}, {"type": "way", "id": 39142780, "center": {"lat": 48.7694636, "lon": 8.0826221}, "tags": {"landuse": "industrial", "name": "Rauch Landmaschinenfabrik"}}, {"type": "way", "id": 39188167, "center": {"lat": 48.3419773, "lon": 8.5131756}, "tags": {"landuse": "industrial", "name": "Dornhan S\u00fcd"}}, {"type": "way", "id": 39189771, "center": {"lat": 48.5055605, "lon": 7.5157234}, "tags": {"landuse": "industrial", "name": "Zones d'Activit\u00e9s de Griesheim"}}, {"type": "way", "id": 39434561, "center": {"lat": 48.7192797, "lon": 8.0845221}, "tags": {"landuse": "industrial"}}, {"type": "way", "id": 39440057, "center": {"lat": 48.83769, "lon": 8.2491371}, "tags": {"landuse": "industrial"}}, {"type": "way", "id": 39491475, "center": {"lat": 48.8811023, "lon": 8.2807741}, "tags": {"landuse": "industrial", "name": "Schleifweg"}}, {"type": "way", "id": 39491477, "center": {"lat": 48.8780205, "lon": 8.2829404}, "tags": {"landuse": "industrial", "name": "Faisen-Nord"}}, {"type": "way", "id": 39505246, "center": {"lat": 48.9776083, "lon": 8.3385686}, "tags": {"landuse": "industrial", "name": "Edeka S\u00fcdwest Fleisch", "official_name": "EDEKA S\u00fcdwest Fleisch GmbH", "website": "https://suedwestfleisch.de/"}}, {"type": "way", "id": 39539676, "center": {"lat": 48.036097, "lon": 8.4120337}, "tags": {"landuse": "industrial", "name": "Gewerbepark Pfaffenweiler"}}, {"type": "way", "id": 39542050, "center": {"lat": 48.8788557, "lon": 8.2862038}, "tags": {"landuse": "industrial"}}, {"type": "way", "id": 39597851, "center": {"lat": 48.8251001, "lon": 8.2935409}, "tags": {"landuse": "industrial"}}, {"type": "way", "id": 39607078, "center": {"lat": 47.3892738, "lon": 8.5267345}, "tags": {"industrial": "grinding_mill", "landuse": "industrial", "name": "Swissmill"}}, {"type": "way", "id": 39694893, "center": {"lat": 47.5360397, "lon": 7.7399553}, "tags": {"barrier": "fence", "landuse": "industrial", "name": "Hoffmann-La Roche, Werk Kaiseraugst", "operator": "Hofmann-La Roche", "source": "survey"}}, {"type": "way", "id": 39700261, "center": {"lat": 48.9001031, "lon": 8.3080492}, "tags": {"landuse": "industrial"}}, {"type": "way", "id": 39754235, "center": {"lat": 47.5405266, "lon": 7.7399975}, "tags": {"landuse": "industrial", "name": "Industriegebiet Rinau"}}, {"type": "way", "id": 39761734, "center": {"lat": 48.9071034, "lon": 8.3067368}, "tags": {"industrial": "gravel_plant", "landuse": "industrial", "name": "Holcim Kies- und Trockensandwerk", "website": "https://www.holcim-sued.de/de/sueddeutschlandstandorte/3/1553"}}, {"type": "way", "id": 39823069, "center": {"lat": 47.7892763, "lon": 7.2975016}, "tags": {"landuse": "industrial", "name": "Zone d'Activit\u00e9 de Richwiller", "source": "cadastre-dgi-fr source : Direction G\u00e9n\u00e9rale des Imp\u00f4ts - Cadastre ; mise \u00e0 jour : 2008"}}, {"type": "way", "id": 39916624, "center": {"lat": 47.8554548, "lon": 7.6197782}, "tags": {"landuse": "industrial"}}, {"type": "way", "id": 39990388, "center": {"lat": 48.8899541, "lon": 8.2790592}, "tags": {"landuse": "industrial"}}, {"type": "way", "id": 40329743, "center": {"lat": 47.7905191, "lon": 7.2384199}, "tags": {"landuse": "industrial", "name": "Zone Industrielle du Langhurst", "name:de": "Industriegebiet Langhurst", "source": "cadastre-dgi-fr source : Direction G\u00e9n\u00e9rale des Imp\u00f4ts - Cadastre;mise \u00e0 jour : 2008"}}, {"type": "way", "id": 40468535, "center": {"lat": 48.9010634, "lon": 8.7473223}, "tags": {"landuse": "industrial"}}, {"type": "way", "id": 40468538, "center": {"lat": 48.9032268, "lon": 8.7445932}, "tags": {"landuse": "industrial"}}, {"type": "way", "id": 40761138, "center": {"lat": 48.9596021, "lon": 8.862488}, "tags": {"landuse": "industrial", "man_made": "works", "name": "Fa. Mahle Behr GmbH&Co. Werk M\u00fchlacker", "phone": "+49 7041 980-0", "website": "https://www.mahle.com/"}}, {"type": "way", "id": 40970877, "center": {"lat": 49.0241903, "lon": 8.7029214}, "tags": {"landuse": "industrial", "name": "Stadtwerke"}}, {"type": "way", "id": 40970878, "center": {"lat": 49.0281706, "lon": 8.7062836}, "tags": {"addr:city": "Bretten", "addr:country": "DE", "addr:housenumber": "8", "addr:postcode": "75015", "addr:street": "Ruiter Stra\u00dfe", "landuse": "industrial", "name": "Neff GmbH", "website": "www.neff.de"}}, {"type": "way", "id": 41066427, "center": {"lat": 48.8532837, "lon": 8.2524077}, "tags": {"landuse": "industrial"}}, {"type": "way", "id": 41115630, "center": {"lat": 47.5462661, "lon": 7.7875822}, "tags": {"addr:city": "Rheinfelden", "addr:country": "CH", "addr:housenumber": "36", "addr:postcode": "4310", "addr:street": "Feldschl\u00f6sschenstrasse", "industrial": "brewery", "landuse": "industrial", "name": "Brauerei Feldschl\u00f6sschen", "website": "https://www.feldschloesschen.ch", "wikidata": "Q900181", "wikipedia": "de:Brauerei Feldschl\u00f6sschen (Rheinfelden)"}}, {"type": "way", "id": 41133279, "center": {"lat": 48.7269026, "lon": 8.093148}, "tags": {"landuse": "industrial"}}, {"type": "way", "id": 41144126, "center": {"lat": 48.6910752, "lon": 8.0665248}, "tags": {"landuse": "industrial", "name": "G\u00fcSa - Fuhrunternehmung Rindenverarbeitung"}}, {"type": "way", "id": 41222066, "center": {"lat": 47.4020263, "lon": 8.4636409}, "tags": {"landuse": "industrial", "name": "Gaswerkareal Nord", "utility": "gas"}}, {"type": "way", "id": 41265951, "center": {"lat": 47.602365, "lon": 7.5855939}, "tags": {"harbour": "yes", "industrial": "port", "landuse": "industrial", "name": "Port de Mulhouse-Rhin - Huningue", "seamark:type": "harbour", "website": "https://www.ports-mulhouse-rhin.fr"}}, {"type": "way", "id": 41338491, "center": {"lat": 47.5519812, "lon": 7.9359313}, "tags": {"addr:city": "Bad S\u00e4ckingen", "addr:country": "DE", "addr:housenumber": "65/1", "addr:postcode": "79713", "addr:street": "Basler Stra\u00dfe", "building": "power", "landuse": "industrial", "name": "Blockheizkraftwerk", "note": "Baujahr 1985", "operator": "Stadtwerke", "plant:method": "combustion", "plant:output:electricity": "yes", "plant:output:hot_water": "yes", "plant:source": "gas", "power": "plant"}}, {"type": "way", "id": 41342407, "center": {"lat": 48.9580092, "lon": 8.9153664}, "tags": {"barrier": "fence", "landuse": "industrial"}}, {"type": "way", "id": 41398921, "center": {"lat": 48.7379571, "lon": 8.3548566}, "tags": {"barrier": "fence", "landuse": "industrial", "name": "110-kV-Umspannwerk Hilpertsau", "power": "substation", "voltage": "110000"}}, {"type": "way", "id": 41447769, "center": {"lat": 49.1048029, "lon": 8.4306635}, "tags": {"frequency": "50", "landuse": "industrial", "location": "outdoor", "name": "110-kV-Umspannwerk Leopoldshafen", "operator": "Netze BW", "operator:wikidata": "Q16854888", "operator:wikipedia": "de:Netze BW", "power": "substation", "rating": "86 MVA", "substation": "industrial", "utility": "power", "voltage": "110000;20000"}}, {"type": "way", "id": 41529417, "center": {"lat": 48.7378666, "lon": 7.9859835}, "tags": {"landuse": "industrial", "name": "capaq GmbH"}}, {"type": "way", "id": 41529433, "center": {"lat": 48.7108863, "lon": 7.9677099}, "tags": {"landuse": "industrial"}}, {"type": "way", "id": 41529436, "center": {"lat": 48.7100497, "lon": 7.9714085}, "tags": {"landuse": "industrial"}}, {"type": "way", "id": 41583347, "center": {"lat": 47.8312685, "lon": 7.3388021}, "tags": {"landuse": "industrial", "name": "Parc d'actrivit\u00e9s \u00e9conomiques de l'Ill"}}, {"type": "way", "id": 41593356, "center": {"lat": 48.959202, "lon": 8.9116242}, "tags": {"barrier": "fence", "landuse": "industrial"}}, {"type": "way", "id": 41693221, "center": {"lat": 48.0754171, "lon": 6.8787385}, "tags": {"CLC:code": "121", "CLC:id": "FR-58389", "CLC:year": "2006", "landuse": "industrial", "name": "Linvosges", "source": "Union europ\u00e9enne - SOeS, CORINE Land Cover, 2006."}}, {"type": "way", "id": 41756326, "center": {"lat": 48.0281633, "lon": 8.614678}, "tags": {"landuse": "industrial"}}, {"type": "way", "id": 41759227, "center": {"lat": 47.432683, "lon": 6.0684288}, "tags": {"landuse": "industrial", "name": "Zone Artisanale de la Charri\u00e8re"}}, {"type": "way", "id": 41763717, "center": {"lat": 48.4480483, "lon": 7.6837099}, "tags": {"landuse": "industrial"}}, {"type": "way", "id": 41764336, "center": {"lat": 47.7576533, "lon": 7.0417166}, "tags": {"landuse": "industrial"}}, {"type": "way", "id": 41770008, "center": {"lat": 47.7655947, "lon": 7.5359322}, "tags": {"barrier": "fence", "landuse": "industrial", "man_made": "wastewater_plant", "name": "Kl\u00e4ranlage"}}, {"type": "way", "id": 41774246, "center": {"lat": 47.7824396, "lon": 7.5535071}, "tags": {"landuse": "industrial", "man_made": "water_works"}}, {"type": "way", "id": 41835269, "center": {"lat": 48.5943834, "lon": 7.5031068}, "tags": {"landuse": "industrial"}}, {"type": "way", "id": 41835476, "center": {"lat": 48.2397567, "lon": 6.7414666}, "tags": {"landuse": "industrial"}}, {"type": "way", "id": 41835485, "center": {"lat": 48.1806002, "lon": 7.4438993}, "tags": {"landuse": "industrial"}}, {"type": "way", "id": 41845903, "center": {"lat": 47.883932, "lon": 6.9970915}, "tags": {"landuse": "industrial"}}, {"type": "way", "id": 41846723, "center": {"lat": 48.3221592, "lon": 6.8965571}, "tags": {"landuse": "industrial"}}, {"type": "way", "id": 41854797, "center": {"lat": 48.3774488, "lon": 7.5942504}, "tags": {"landuse": "industrial", "name": "Parc d'activit\u00e9 des Nations", "source": "cadastre-dgi-fr source : Direction G\u00e9n\u00e9rale des Imp\u00f4ts - Cadastre. Mise \u00e0 jour : 2009"}}, {"type": "way", "id": 41867823, "center": {"lat": 48.8411075, "lon": 8.2515077}, "tags": {"industrial": "factory", "landuse": "industrial", "name": "Mercedes-Benz Werk Gaggenau, Presswerk Kuppenheim", "operator": "Daimler AG"}}, {"type": "way", "id": 41891225, "center": {"lat": 48.847166, "lon": 8.2404362}, "tags": {"barrier": "fence", "landuse": "industrial", "man_made": "water_works"}}, {"type": "way", "id": 41898920, "center": {"lat": 47.3916424, "lon": 8.665016}, "tags": {"landuse": "industrial"}}, {"type": "way", "id": 41911905, "center": {"lat": 48.9328029, "lon": 6.1094783}, "tags": {"landuse": "industrial", "name": "Zone d'activit\u00e9s de Lesm\u00e9nils"}}, {"type": "way", "id": 41913105, "center": {"lat": 47.8400448, "lon": 7.3152778}, "tags": {"CLC:code": "112", "CLC:id": "FR-68874", "CLC:year": "2006", "landuse": "industrial", "source": "Union europ\u00e9enne - SOeS, CORINE Land Cover, 2006."}}, {"type": "way", "id": 41913145, "center": {"lat": 47.7250129, "lon": 7.2186571}, "tags": {"CLC:code": "112", "CLC:id": "FR-73978", "CLC:year": "2006", "landuse": "industrial", "name": "Zone d'activit\u00e9s de la For\u00eat", "source": "Union europ\u00e9enne - SOeS, CORINE Land Cover, 2006."}}, {"type": "way", "id": 41989733, "center": {"lat": 49.2091338, "lon": 8.7020854}, "tags": {"landuse": "industrial", "name": "Bauhof \u00d6stringen"}}, {"type": "way", "id": 42009305, "center": {"lat": 47.3464835, "lon": 6.0219619}, "tags": {"landuse": "industrial", "source": "Union europ\u00e9enne - SOeS, CORINE Land Cover, 2006."}}, {"type": "way", "id": 42011403, "center": {"lat": 48.764321, "lon": 7.4564762}, "tags": {"landuse": "industrial"}}, {"type": "way", "id": 42014013, "center": {"lat": 48.6163868, "lon": 6.1941561}, "tags": {"landuse": "industrial", "name": "Dynapole Nancy Sud", "source": "Union europ\u00e9enne - SOeS, CORINE Land Cover, 2006."}}, {"type": "way", "id": 42014035, "center": {"lat": 48.2188243, "lon": 7.3939337}, "tags": {"CLC:code": "121", "CLC:id": "FR-52058", "CLC:year": "2006", "landuse": "industrial", "source": "Union europ\u00e9enne - SOeS, CORINE Land Cover, 2006."}}, {"type": "way", "id": 42014044, "center": {"lat": 48.0284903, "lon": 6.6807539}, "tags": {"CLC:code": "121", "CLC:id": "FR-60849", "CLC:year": "2006", "landuse": "industrial", "source": "Union europ\u00e9enne - SOeS, CORINE Land Cover, 2006."}}, {"type": "way", "id": 42014045, "center": {"lat": 47.7952837, "lon": 7.1400978}, "tags": {"CLC:code": "121", "CLC:id": "FR-71314", "CLC:year": "2006", "landuse": "industrial", "source": "Union europ\u00e9enne - SOeS, CORINE Land Cover, 2006."}}, {"type": "way", "id": 42018619, "center": {"lat": 49.1393772, "lon": 5.8904724}, "tags": {"CLC:code": "121", "CLC:id": "FR-21928", "CLC:year": "2006", "landuse": "industrial", "source": "Union europ\u00e9enne - SOeS, CORINE Land Cover, 2006."}}, {"type": "way", "id": 42018721, "center": {"lat": 48.7204805, "lon": 5.9600664}, "tags": {"landuse": "industrial", "name": "Kimberly-Clark", "source": "Bing;survey"}}, {"type": "way", "id": 42018731, "center": {"lat": 48.6978571, "lon": 5.9228995}, "tags": {"landuse": "industrial", "name": "P\u00f4le Industriel Toul Europe Secteur A", "operator": "Communaut\u00e9 de communes Terres Touloises", "source": "Bing;survey"}}, {"type": "way", "id": 42018742, "center": {"lat": 48.6692912, "lon": 5.8931995}, "tags": {"landuse": "industrial", "name": "Grands Moulins Aubry", "source": "Bing + survey"}}, {"type": "way", "id": 42018744, "center": {"lat": 48.6561336, "lon": 6.1914571}, "tags": {"landuse": "industrial", "name": "Parc d'activit\u00e9s Nord Heillecourt / Vand\u0153uvre-l\u00e8s-Nancy", "old_name": "March\u00e9 de Gros"}}, {"type": "way", "id": 42018750, "center": {"lat": 48.6408455, "lon": 6.2612397}, "tags": {"barrier": "fence", "landuse": "industrial"}}, {"type": "way", "id": 42018758, "center": {"lat": 48.5999337, "lon": 6.3600039}, "tags": {"landuse": "industrial"}}, {"type": "way", "id": 42018782, "center": {"lat": 48.3831189, "lon": 6.2952992}, "tags": {"CLC:code": "121", "CLC:id": "FR-47382", "CLC:year": "2006", "landuse": "industrial", "source": "Union europ\u00e9enne - SOeS, CORINE Land Cover, 2006."}}, {"type": "way", "id": 42018787, "center": {"lat": 48.3526292, "lon": 6.3236503}, "tags": {"CLC:code": "121", "CLC:id": "FR-48487", "CLC:year": "2006", "landuse": "industrial", "source": "Union europ\u00e9enne - SOeS, CORINE Land Cover, 2006."}}, {"type": "way", "id": 42018816, "center": {"lat": 47.9578678, "lon": 6.8257507}, "tags": {"CLC:code": "121", "CLC:id": "FR-63846", "CLC:year": "2006", "landuse": "industrial", "source": "Union europ\u00e9enne - SOeS, CORINE Land Cover, 2006."}}, {"type": "way", "id": 42018817, "center": {"lat": 47.9397018, "lon": 6.6402345}, "tags": {"CLC:code": "121", "CLC:id": "FR-64871", "CLC:year": "2006", "landuse": "industrial", "source": "Union europ\u00e9enne - SOeS, CORINE Land Cover, 2006."}}, {"type": "way", "id": 42018821, "center": {"lat": 47.8907914, "lon": 6.3052744}, "tags": {"landuse": "industrial", "name": "Compagnie Fran\u00e7aise du Panneau", "source": "Union europ\u00e9enne - SOeS, CORINE Land Cover, 2006."}}, {"type": "way", "id": 42018823, "center": {"lat": 47.888663, "lon": 6.2808106}, "tags": {"landuse": "industrial"}}, {"type": "way", "id": 42018839, "center": {"lat": 47.7695478, "lon": 6.0343024}, "tags": {"landuse": "industrial"}}, {"type": "way", "id": 42018844, "center": {"lat": 47.6482872, "lon": 6.9142572}, "tags": {"CLC:code": "121", "CLC:id": "FR-77961", "CLC:year": "2006", "landuse": "industrial", "source": "Union europ\u00e9enne - SOeS, CORINE Land Cover, 2006."}}, {"type": "way", "id": 42018850, "center": {"lat": 47.6528562, "lon": 5.9809442}, "tags": {"CLC:code": "121", "CLC:id": "FR-79166", "CLC:year": "2006", "landuse": "industrial", "source": "Union europ\u00e9enne - SOeS, CORINE Land Cover, 2006."}}, {"type": "way", "id": 42018852, "center": {"lat": 47.6433342, "lon": 6.1663255}, "tags": {"landuse": "industrial", "name": "Zone industrielle Les R\u00eapes"}}, {"type": "way", "id": 42018857, "center": {"lat": 47.6104351, "lon": 6.8308919}, "tags": {"CLC:code": "121", "CLC:id": "FR-79598", "CLC:year": "2006", "landuse": "industrial", "name": "ZAIC de Bavilliers-Argi\u00e9sans", "source": "Union europ\u00e9enne - SOeS, CORINE Land Cover, 2006."}}, {"type": "way", "id": 42018862, "center": {"lat": 47.5774931, "lon": 6.7685612}, "tags": {"CLC:code": "121", "CLC:id": "FR-81041", "CLC:year": "2006", "landuse": "industrial", "source": "Union europ\u00e9enne - SOeS, CORINE Land Cover, 2006."}}, {"type": "way", "id": 42018877, "center": {"lat": 47.4796942, "lon": 6.7409165}, "tags": {"CLC:code": "121", "CLC:id": "FR-85533", "CLC:year": "2006", "landuse": "industrial", "source": "Union europ\u00e9enne - SOeS, CORINE Land Cover, 2006."}}, {"type": "way", "id": 42018878, "center": {"lat": 47.4689715, "lon": 6.8494018}, "tags": {"CLC:code": "121", "CLC:id": "FR-85632", "CLC:year": "2006", "landuse": "industrial", "source": "Union europ\u00e9enne - SOeS, CORINE Land Cover, 2006."}}, {"type": "way", "id": 42018879, "center": {"lat": 47.4900149, "lon": 5.9510674}, "tags": {"CLC:code": "121", "CLC:id": "FR-86211", "CLC:year": "2006", "landuse": "industrial", "source": "Union europ\u00e9enne - SOeS, CORINE Land Cover, 2006."}}, {"type": "way", "id": 42018880, "center": {"lat": 47.4572873, "lon": 6.6931803}, "tags": {"CLC:code": "121", "CLC:id": "FR-86490", "CLC:year": "2006", "landuse": "industrial", "source": "Union europ\u00e9enne - SOeS, CORINE Land Cover, 2006."}}, {"type": "way", "id": 42018885, "center": {"lat": 47.3794072, "lon": 6.7701876}, "tags": {"CLC:code": "121", "CLC:id": "FR-89641", "CLC:year": "2006", "landuse": "industrial", "source": "Union europ\u00e9enne - SOeS, CORINE Land Cover, 2006."}}, {"type": "way", "id": 42018887, "center": {"lat": 47.3312531, "lon": 6.0178034}, "tags": {"CLC:code": "121", "CLC:id": "FR-92951", "CLC:year": "2006", "landuse": "industrial"}}, {"type": "way", "id": 42018964, "center": {"lat": 49.1971786, "lon": 6.7114656}, "tags": {"landuse": "industrial", "name": "Fatima", "source": "Union europ\u00e9enne - SOeS, CORINE Land Cover, 2006."}},